Place ID,Brick Name,Business Name,Latitude,Longitude,Status,Category
ChIJ8S3xrJNusz4ROiGqdix34PU,HUB,Lasi Clinic,25.022022,66.87087389999999,OPERATIONAL,"hospital, health, point_of_interest, establishment"
ChIJAfaQB5Nusz4RKA0aOcL__yo,HUB,Jam Ghulam Qadir Civil Hospital Hub,25.0226233,66.8713035,OPERATIONAL,"hospital, doctor, health, point_of_interest, establishment"
ChIJiYrVGpNusz4RJ8NG97DfT6c,HUB,JMGQ CIVIL Hospital,25.0233143,66.87136679999999,OPERATIONAL,"hospital, health, point_of_interest, establishment"
ChIJffqEx5Rusz4R7d4ag0lBTtc,HUB,Fatima Clinic,25.0251846,66.87524789999999,OPERATIONAL,"hospital, health, point_of_interest, establishment"
ChIJPaFIbr5usz4Rw5dPHg8ToIM,HUB,Rose Alson Clinic,25.0222773,66.88167039999999,OPERATIONAL,"hospital, health, point_of_interest, establishment"
ChIJiWPrUJVusz4Rz9U9ofrTc4Q,HUB,Sugra Clinic,25.0260542,66.8791813,OPERATIONAL,"hospital, health, point_of_interest, establishment"
ChIJ-aW2IwBvsz4RBymSU7ehrzU,HUB,Qazi Medical Center,25.0250626,66.8830031,OPERATIONAL,"hospital, health, point_of_interest, establishment"
ChIJZcG6HQBvsz4R6Wu-dYmocm0,HUB,lucky hospital,25.034884,66.8745481,OPERATIONAL,"hospital, health, point_of_interest, establishment"
ChIJN66UVwD_tD4RahWFJVEmqlg,HUB,Fatima eye care center,25.0348923,66.8747862,OPERATIONAL,"hospital, health, point_of_interest, establishment"
ChIJRQ722Q1vsz4RHeqJqgMrxhI,HUB,Arsalan Medical Center Hub,25.0325948,66.8778657,OPERATIONAL,"hospital, health, point_of_interest, establishment"
ChIJ4yxQXrRvsz4RxVBBSuXhAtA,HUB,New Hinglaj medical center,25.03303859999999,66.8778435,OPERATIONAL,"hospital, health, point_of_interest, establishment"
ChIJlTWzODdvsz4RUDt1NdcJm2o,HUB,National medical center,25.0309094,66.8799319,OPERATIONAL,"hospital, health, point_of_interest, establishment"
ChIJE7M6jsBusz4Rw0nt3RBjP9w,HUB,Naheed Kamboh Medical Center,25.0282303,66.8833795,OPERATIONAL,"hospital, health, point_of_interest, establishment"
ChIJJfYcjsBusz4R97qc9O-xffM,HUB,Naheed Kamboh Hospital & Maternity Home,25.0283293,66.8833656,OPERATIONAL,"hospital, health, point_of_interest, establishment"
ChIJSWpumsBusz4RB4FqQ89TInw,HUB,Baloch clinic & maternity home,25.0280905,66.8835706,OPERATIONAL,"hospital, health, point_of_interest, establishment"
ChIJETUrmsBusz4ROOI4FvfW1ZY,HUB,Sarish Clinic,25.027907,66.8837401,OPERATIONAL,"hospital, health, point_of_interest, establishment"
ChIJh5CEs1dvsz4RWFUf-YRp0Lc,HUB,Sarang medical and general store,25.0285241,66.8836311,OPERATIONAL,"hospital, health, point_of_interest, establishment"
ChIJp7eRmcBusz4RW4xw3VCwxEg,HUB,Sehrish Clinic & Maternity Home,25.027972,66.8837882,OPERATIONAL,"hospital, health, point_of_interest, establishment"
ChIJjY9MkMVvsz4R-1-iZUftbU0,HUB,new lasbela medical & general store hub,25.0284111,66.8838078,OPERATIONAL,"hospital, health, point_of_interest, establishment"
ChIJQwV1UABvsz4RZF60rCqAxVA,HUB,Hub Homeopathic Clinic & Store,25.0286603,66.88381509999999,OPERATIONAL,"hospital, health, point_of_interest, establishment"
ChIJeW9D0rhusz4RnTxx8W-uh9A,HUB,Layari Clinic,25.0255487,66.88586529999999,OPERATIONAL,"hospital, health, point_of_interest, establishment"
ChIJi_IjT79usz4RmQKU8hSYGEs,HUB,Mch Center,25.0265673,66.8854336,OPERATIONAL,"hospital, health, point_of_interest, establishment"
ChIJA7ZzWQBvsz4RxoqzfJ1niB0,HUB,Al Noor Medical Center & Maternity Home,25.0264782,66.8858927,OPERATIONAL,"hospital, health, point_of_interest, establishment"
ChIJlyPUXQBvsz4R3OJgvBcfVY4,HUB,ŸÅŸÑ⁄© ŸÖ€å⁄à€å⁄©ŸÑ ÿ≥€åŸπÿ±,25.0234512,66.8901123,OPERATIONAL,"hospital, health, point_of_interest, establishment"
ChIJZ81NnsJvsz4R-MPEdml04vk,HUB,Amna Eye Clinic & Opticals,25.0254548,66.8892719,OPERATIONAL,"hospital, health, point_of_interest, establishment"
ChIJpTnOfrdusz4R9RSu4OIN62g,HUB,Dua Clinic Nadir Health Center,25.0258028,66.8919765,OPERATIONAL,"hospital, health, point_of_interest, establishment"
ChIJZ56rzMBvsz4RltzNqtRhsrk,HUB,Chilton Medical Store,25.0271848,66.8872225,OPERATIONAL,"hospital, health, point_of_interest, establishment"
ChIJbQc0KgBvsz4RJQsr3Vt9X0w,HUB,Sulemani Health Care Center Hub,25.0275395,66.8894017,OPERATIONAL,"hospital, health, point_of_interest, establishment"
ChIJo5SWlrdusz4RhyKrUo1BI6M,HUB,Nadire Health Clinic,25.0270698,66.89281869999999,OPERATIONAL,"hospital, health, point_of_interest, establishment"
ChIJd9yEvCtvsz4RIa9lwqJbdRY,HUB,Irfan clinic,25.0309936,66.8922865,OPERATIONAL,"hospital, health, point_of_interest, establishment"
ChIJ5b9CdABvsz4R_Ad30AvQo_s,HUB,Mansoor Medical & General Store,25.0310154,66.89239789999999,OPERATIONAL,"hospital, health, point_of_interest, establishment"
ChIJm2IgcMhusz4RlIgHunpGVtc,HUB,Wahab Plaza,25.0308076,66.8923221,OPERATIONAL,"hospital, health, point_of_interest, establishment"
ChIJN7HlDg1vsz4Rnfxl9Qs-2C0,HUB,Dr Lal Muhammad,25.0380033,66.8999547,OPERATIONAL,"hospital, health, point_of_interest, establishment"
ChIJ0YhLWi5psz4RaaXS785aV4Q,HUB,Ameer Mavia Clinic,25.0453566,66.91140519999999,OPERATIONAL,"hospital, health, point_of_interest, establishment"
ChIJvS4HeDBpsz4RBkLrTRpUSfI,HUB,Al Yasir Health Center,25.0416612,66.9154762,OPERATIONAL,"hospital, health, point_of_interest, establishment"
ChIJe____ZJrsz4RWXrJp1MD2eQ,ITEEHAD TOWN,AL Mehmood health care center,24.960351,66.9256875,OPERATIONAL,"hospital, health, point_of_interest, establishment"
ChIJm_3Tk5drsz4RdNdIV2czIZo,ITEEHAD TOWN,Dua medical store,24.959956,66.92573569999999,OPERATIONAL,"hospital, health, point_of_interest, establishment"
ChIJxzE5SMxrsz4RbFSWkTXzIKA,ITEEHAD TOWN,Drug rehabilitation,24.9540069,66.9273718,OPERATIONAL,"hospital, health, point_of_interest, establishment"
ChIJKadMVctrsz4RCb39ViHVDCw,ITEEHAD TOWN,Usman Medical center,24.9591564,66.9345419,OPERATIONAL,"hospital, health, point_of_interest, establishment"
ChIJ19fkbwBrsz4RRYyTD8_o854,ITEEHAD TOWN,Al-SHABANA MEDICAL CENTER,24.94427169999999,66.9340127,OPERATIONAL,"hospital, health, point_of_interest, establishment"
ChIJbwE9xU5rsz4RLb7tuqMtTMU,ITEEHAD TOWN,Iqra medical store,24.94379769999999,66.9345132,OPERATIONAL,"hospital, health, point_of_interest, establishment"
ChIJ6V20sJRrsz4Rb-V5q2CC6Zk,ITEEHAD TOWN,Haris medical centre and maternity home,24.9474374,66.9397141,OPERATIONAL,"hospital, health, point_of_interest, establishment"
ChIJVRuGiwJrsz4RANfaWEL913A,ITEEHAD TOWN,Dr Essa Laboratory (Collection Centre),24.9473482,66.9397315,OPERATIONAL,"hospital, health, point_of_interest, establishment"
ChIJsR58k29rsz4RQ2d9wztezzI,ITEEHAD TOWN,BARYAL MEDICAL CENTRE,24.9471754,66.93991849999999,OPERATIONAL,"hospital, health, point_of_interest, establishment"
ChIJY-CUR5Jrsz4RGSGUNp_Q9kg,ITEEHAD TOWN,Naveed-e-Shifa center,24.943099,66.935208,OPERATIONAL,"hospital, health, point_of_interest, establishment"
ChIJ632VVgBrsz4RkW1RtdRiOqA,ITEEHAD TOWN,Al Shifa Clinic,24.9470766,66.94029069999999,OPERATIONAL,"hospital, health, point_of_interest, establishment"
ChIJDSX4IgBrsz4RHoPAKt8lVp0,ITEEHAD TOWN,Yousuf medical center,24.9451007,66.938785,OPERATIONAL,"hospital, health, point_of_interest, establishment"
ChIJWf-oMS9rsz4Rto7PerUb9Ss,ITEEHAD TOWN,The Pulse Medical Complex,24.9433406,66.93838079999999,OPERATIONAL,"hospital, health, point_of_interest, establishment"
ChIJ9SAnmjxrsz4RCeWsI2_1n5E,ITEEHAD TOWN,Umed E Shifa Hospital,24.9554042,66.9450615,OPERATIONAL,"hospital, health, point_of_interest, establishment"
ChIJ74WOrS5rsz4RrwU1u7UwAek,ITEEHAD TOWN,Sham Medical Center,24.9450613,66.94076869999999,OPERATIONAL,"hospital, health, point_of_interest, establishment"
ChIJTS6_nL1rsz4RGRKh-tV7bDU,ITEEHAD TOWN,L ŸæŸπÿ¶,24.9471274,66.9446019,OPERATIONAL,"hospital, health, point_of_interest, establishment"
ChIJ8QmjSABrsz4RMmm4AI_vRE4,ITEEHAD TOWN,Sindh government Dispensary itehad town,24.9759061,66.9451892,OPERATIONAL,"hospital, health, point_of_interest, establishment"
ChIJ6_rAMjxrsz4RyRifiHT_X_M,ITEEHAD TOWN,Waqar medical & general store,24.9759061,66.9451892,OPERATIONAL,"hospital, health, point_of_interest, establishment"
ChIJLQHVdf1rsz4RlTP0g2Oi93s,ITEEHAD TOWN,Deewan Hospital,24.9770575,66.9451334,OPERATIONAL,"hospital, health, point_of_interest, establishment"
ChIJ74i2Q5trsz4Rl0_1wjyfBH0,NAVAL COLONY,Mother child medical centre,24.9557039,66.9474539,OPERATIONAL,"hospital, health, point_of_interest, establishment"
ChIJ8xgH-31rsz4RONWGUgFWnHQ,ITEEHAD TOWN,Amin Medical Center. Dr. Amin Khan,24.9615269,66.94804359999999,OPERATIONAL,"hospital, health, point_of_interest, establishment"
ChIJqVI3TQBrsz4RNVkL3aySz6E,ITEEHAD TOWN,Medical center,24.9697729,66.9477674,OPERATIONAL,"hospital, health, point_of_interest, establishment"
ChIJeU7E51Vrsz4RwfWMX3CVZaw,ITEEHAD TOWN,Khan Jee Medical and Clinic,24.9552704,66.9503021,OPERATIONAL,"hospital, health, point_of_interest, establishment"
ChIJk5fy0PJrsz4RMscDMo91FBU,ITEEHAD TOWN,ÿØÿßŸÜ€åÿßŸÑ ŸÖ€å⁄à€å⁄©ŸÑ ÿ≥ŸÜŸπÿ±,24.95949809999999,66.9534007,OPERATIONAL,"hospital, health, point_of_interest, establishment"
ChIJO9dIeHhrsz4Rayjzkvip5qM,ITEEHAD TOWN,Salman Medical Centre,24.9682845,66.9551317,OPERATIONAL,"hospital, health, point_of_interest, establishment"
ChIJfWI5Eu9qsz4RjWtfhLVhThI,ITEEHAD TOWN,Jalilia Maternity Home,24.9586847,66.9647387,OPERATIONAL,"hospital, health, point_of_interest, establishment"
ChIJSX2M7ftqsz4R7uhAjWxxnHE,ITEEHAD TOWN,Khyber Institute of Health Sciences and Technology,24.9657109,66.9577839,OPERATIONAL,"hospital, health, point_of_interest, establishment"
ChIJt_EXMABrsz4RMw1yxQ-zimU,ITEEHAD TOWN,Ittehad pharmacy,24.965449,66.9578087,OPERATIONAL,"hospital, health, point_of_interest, establishment"
ChIJRTX2Vy1rsz4Rg3sc4aLF6Ps,ITEEHAD TOWN,Farooq Medical Store,24.96519709999999,66.9589203,OPERATIONAL,"hospital, health, point_of_interest, establishment"
ChIJQd4Lz_tqsz4RytGwfCUdu_0,ITEEHAD TOWN,Foji Doctor Clinic,24.9661475,66.9594517,OPERATIONAL,"hospital, health, point_of_interest, establishment"
ChIJ8biHk3Vrsz4Rv6Bbl6C9wdI,ITEEHAD TOWN,All Makka Medecial store,24.9712715,66.9584359,OPERATIONAL,"hospital, health, point_of_interest, establishment"
ChIJ5wIDbQBrsz4RGQH5ltM_u70,ITEEHAD TOWN,Darul shifa medical center,24.9610983,66.9608531,OPERATIONAL,"hospital, health, point_of_interest, establishment"
ChIJj9Oy-3hrsz4Ru46W7ffxzV0,ITEEHAD TOWN,Al harmen hjama,24.9669375,66.96300959999999,OPERATIONAL,"hospital, health, point_of_interest, establishment"
ChIJqYeImPZqsz4RQEcF3piaqlU,ORANGI TOWN 1314151617,Al Shabana Medical Cente,24.96994999999999,66.96847,OPERATIONAL,"hospital, health, point_of_interest, establishment"
ChIJB7okru1qsz4Rdb4iDctuS_8,ORANGI TOWN 1314151617,MEHRUN NISA MEDICAL CENTER,24.9610279,66.9712152,OPERATIONAL,"hospital, health, point_of_interest, establishment"
ChIJFQYn--xqsz4RhBcgpBMlJWg,ORANGI TOWN 1314151617,Mehmoda Clinic,24.9602389,66.9726811,OPERATIONAL,"hospital, health, point_of_interest, establishment"
ChIJ_8Qp4Jdrsz4RBGbOViQk6GQ,ORANGI TOWN 1314151617,Al Madina Medical Center,24.957654,66.9618131,OPERATIONAL,"hospital, health, point_of_interest, establishment"
ChIJ3znqZe1qsz4RTtyh1S_RPh0,ORANGI TOWN 1314151617,Shahzeb Medical Centre,24.963032,66.97303699999999,OPERATIONAL,"hospital, health, point_of_interest, establishment"
ChIJWSuP-WJrsz4Rf9DIR5mG3wA,ORANGI TOWN 1314151617,Aamir clanik,24.96114559999999,66.9732782,OPERATIONAL,"hospital, health, point_of_interest, establishment"
ChIJWxBM5-5qsz4R3VXUmxoQMs8,ORANGI TOWN 1314151617,Janan Hospital,24.9584979,66.9664193,OPERATIONAL,"hospital, health, point_of_interest, establishment"
ChIJP7GMwtNrsz4RbU2j7d2Jbyo,ORANGI TOWN 1314151617,Hammad Children & General Hospital,24.9584607,66.9662572,OPERATIONAL,"hospital, health, point_of_interest, establishment"
ChIJrZIjrJJqsz4RWiqOnBrRyxE,ORANGI TOWN 1314151617,Dr Clinic,24.9635742,66.9753179,OPERATIONAL,"hospital, health, point_of_interest, establishment"
ChIJE-Eaa4xqsz4RxVQLii3XM4Y,ORANGI TOWN 1314151617,Sindh Govt. 50 Beded Hospital,24.9692826,66.9792179,OPERATIONAL,"hospital, health, point_of_interest, establishment"
ChIJTw410mprsz4ROaMMAVPVUGk,ORANGI TOWN 1314151617,New Qatar Hospital Ghaziabad,24.9807677,66.9812608,CLOSED_TEMPORARILY,"hospital, health, point_of_interest, establishment"
ChIJX35_Li9rsz4Rdz4tcEXMqfk,ORANGI TOWN 1314151617,Benazeer bhoto shaheed 100 Ô∏è bed hospital,24.9806875,66.9813125,OPERATIONAL,"hospital, health, point_of_interest, establishment"
ChIJPyFAW3Rrsz4RjLNcOM-_bbU,ORANGI TOWN 1314151617,Khawaja Clinic,24.9675475,66.9810772,OPERATIONAL,"hospital, health, point_of_interest, establishment"
ChIJyU-L7mBrsz4RIVzVIE2XKfc,ORANGI TOWN 1314151617,MFC Hospital,24.9671961,66.9816383,OPERATIONAL,"hospital, health, point_of_interest, establishment"
ChIJNc3MjWRqsz4Rav9QsAw3PBw,ORANGI TOWN 1314151617,Charitable Hospital,24.983406,66.984467,OPERATIONAL,"hospital, health, point_of_interest, establishment"
ChIJK1eMaINqsz4RmmDkJdHS6ts,ORANGI TOWN 1314151617,Javaria Clinic,24.96861059999999,66.9936687,OPERATIONAL,"hospital, health, point_of_interest, establishment"
ChIJC41cOYZqsz4RCJg0tH-kPMs,ORANGI TOWN 1314151617,Inayat Medical Center,24.9733884,66.9880268,OPERATIONAL,"hospital, health, point_of_interest, establishment"
ChIJm8TPK5Jqsz4RQnJGy-5oh90,ORANGI TOWN 1314151617,Al-Mustafa Medical Centre,24.9624037,66.9807048,OPERATIONAL,"hospital, health, point_of_interest, establishment"
ChIJn1SVY7Zrsz4Rx8CjSGzD8Vk,ORANGI TOWN 1314151617,Hoor medical center,24.9649635,66.9823452,OPERATIONAL,"hospital, health, point_of_interest, establishment"
ChIJJXUuvtFrsz4RBNttS2KHIvc,ORANGI TOWN 1314151617,MS MEDICOS & GERNAL STORE,24.9669269,66.9823352,OPERATIONAL,"hospital, health, point_of_interest, establishment"
ChIJP9cDyGlrsz4RKDCtOqMHkcI,ORANGI TOWN 1314151617,Ayesha Medical Centre,24.9669161,66.9823712,OPERATIONAL,"hospital, health, point_of_interest, establishment"
ChIJ8bc8qS5rsz4R8k06S2V9r9g,ORANGI TOWN 1314151617,SHAHZAD MEMORIAL Medical Centre,24.9641928,66.9832828,OPERATIONAL,"hospital, health, point_of_interest, establishment"
ChIJH11Pz3drsz4ROTvaxSoj3DU,ORANGI TOWN 1314151617,Noor Medical center,24.9646648,66.9836476,OPERATIONAL,"hospital, health, point_of_interest, establishment"
ChIJHWRz6Idqsz4RNCfvda7LHA0,ORANGI TOWN 1314151617,Dr.L A Ansari Clinic,24.9759167,66.9876566,OPERATIONAL,"hospital, health, point_of_interest, establishment"
ChIJM6XbEQBrsz4RnOs_s9wdzFI,ORANGI TOWN 1314151617,Clinic,24.9759578,66.9877056,OPERATIONAL,"hospital, health, point_of_interest, establishment"
ChIJZ--3cwBrsz4RiuIFFAG90Fg,ORANGI TOWN 1314151617,The Modern clinic Gulshan e Zia,24.9815257,66.9868895,OPERATIONAL,"hospital, health, point_of_interest, establishment"
ChIJdyUwriNrsz4RRI8FG3WZwtY,ORANGI TOWN 1314151617,Dr Shahid Medical Centre,24.9795722,66.9894293,OPERATIONAL,"hospital, health, point_of_interest, establishment"
ChIJ2010pydrsz4R6e4KWkf4WOo,ORANGI TOWN 1314151617,Sina Clinic Khairabad,24.9890547,66.991328,OPERATIONAL,"hospital, health, point_of_interest, establishment"
ChIJLcWz14Rrsz4RBdDxDKJj9jk,ORANGI TOWN 1314151617,Asif medical store.,24.9821582,66.99461840000001,OPERATIONAL,"hospital, health, point_of_interest, establishment"
ChIJVeyEau5rsz4RZgEjknB70wI,ORANGI TOWN 1314151617,Erum Clinic & Talha Medical Store,24.9740143,66.9914706,OPERATIONAL,"hospital, health, point_of_interest, establishment"
ChIJUXw0Q0Zrsz4R9_zcivnFMsE,ORANGI TOWN 1314151617,Jama Masjid Siraj Ul Islam,25.0083735,66.98813570000002,OPERATIONAL,"hospital, health, point_of_interest, establishment"
ChIJocgmAx5Asz4RqZoyAoE7l-s,REHMAT CHOWK,Khursheed Clinic And Maternity Home,24.9517121,66.9990454,OPERATIONAL,"hospital, health, point_of_interest, establishment"
ChIJlS0fpoJqsz4RDJHnz9PskJs,REHMAT CHOWK,Shehzad Shafiq Hijama Centre,24.9686281,66.99881409999999,OPERATIONAL,"hospital, health, point_of_interest, establishment"
ChIJueq9I4Brsz4RCEwNnsgnw30,REHMAT CHOWK,Salma Noor Foundation,24.9657175,66.9877904,OPERATIONAL,"hospital, health, point_of_interest, establishment"
ChIJY-0TdM5rsz4R8gvRbav_7QU,REHMAT CHOWK,Noshad Baba,24.9627107,66.9861857,OPERATIONAL,"hospital, health, point_of_interest, establishment"
ChIJ242W8ixrsz4RcRkXkaPdMhM,ORANGI TOWN 1314151617,Eye Glass Shop,24.9713164,66.992212,OPERATIONAL,"hospital, health, point_of_interest, establishment"
ChIJgzJBY9Vrsz4Rk7-F0bTpEZU,ORANGI TOWN 1314151617,Azan Eye hospital,24.9712865,66.9922112,OPERATIONAL,"hospital, health, point_of_interest, establishment"
ChIJxX39eINqsz4R4djEFYkTKu8,ORANGI TOWN 1314151617,"Good Samaritan ""German Hospital""",24.9703492,66.99360229999999,OPERATIONAL,"hospital, health, point_of_interest, establishment"
ChIJkQPKagBrsz4R6_o86f5kwOc,ORANGI TOWN 1314151617,Korean Christian Hospital,24.9704811,66.9937763,OPERATIONAL,"hospital, health, point_of_interest, establishment"
ChIJz1i6EYlrsz4R7uIkZbM_vVQ,ORANGI TOWN 1314151617,Hussaini Water & Health Foundation,24.9796456,66.99780559999999,OPERATIONAL,"hospital, health, point_of_interest, establishment"
ChIJL7-hGABBsz4ROaO_X8QWOJY,ORANGI TOWN 1314151617,Ma Sha Allah medical store,24.9804633,67.00200330000001,OPERATIONAL,"hospital, health, point_of_interest, establishment"
ChIJGZypEANBsz4RdRc27hRJMCA,ORANGI TOWN 1314151617,Ayesha health center and maternity,24.9815198,67.00412469999999,OPERATIONAL,"hospital, health, point_of_interest, establishment"
ChIJGdaJC6hqsz4RW3ujxvL6Hfw,ORANGI TOWN 1314151617,Shahina Majeed,24.9449167,66.9975212,OPERATIONAL,"hospital, health, point_of_interest, establishment"
ChIJUWKeTKZqsz4RxHSUgsmvAt0,ORANGI TOWN 1314151617,Tooba Clinic,24.94668619999999,66.9956946,OPERATIONAL,"hospital, health, point_of_interest, establishment"
ChIJ2TgqOQNAsz4RE7GlAzN8wT8,ORANGI TOWN 1314151617,Al Shifa Medical Center,24.9451469,67.00304779999999,OPERATIONAL,"hospital, health, point_of_interest, establishment"
ChIJdX14NBlAsz4ReUh3DFoy8Pc,ORANGI TOWN 1314151617,Bano Clinic,24.953798,67.0050258,OPERATIONAL,"hospital, health, point_of_interest, establishment"
ChIJJ220gjRBsz4R9TD2TF3fwcE,ORANGI TOWN 1314151617,Ejtema ground,24.9685787,66.9993714,OPERATIONAL,"hospital, health, point_of_interest, establishment"
ChIJs7pvfrlrsz4R3xnObKCfcGM,ORANGI TOWN 1314151617,Begum Shaista Mateen Dispensary,24.9633883,66.9943311,OPERATIONAL,"hospital, health, point_of_interest, establishment"
ChIJwVZg8EJrsz4RJmBhpb9e1mY,ORANGI TOWN 1314151617,Dar-ul-Shifa Medical Center & Maternity Home(Gulshan-E-behar),24.9636347,66.993849,OPERATIONAL,"hospital, health, point_of_interest, establishment"
ChIJXw4ENgBrsz4REoL53Fucg7Y,ORANGI TOWN 1314151617,Ammi Jan Hospital ÿßŸÖŸë€å ÿ¨ÿßŸÜ €Åÿ≥Ÿæÿ™ÿßŸÑ,24.9585544,66.99550119999999,OPERATIONAL,"hospital, health, point_of_interest, establishment"
ChIJVaz0KwBrsz4RmMPrZgVAfIc,ORANGI TOWN 1314151617,KGN DISPENSARY,24.9569355,66.99842880000001,OPERATIONAL,"hospital, health, point_of_interest, establishment"
ChIJgxO2D-5rsz4ROHXlOJsYN6s,ORANGI TOWN 1314151617,AL RAZA SPECIALIST CLINIC,24.95572659999999,66.99467059999999,OPERATIONAL,"hospital, health, point_of_interest, establishment"
ChIJ0b9uEABBsz4R5-P-CIgj7Xk,ORANGI TOWN 1314151617,Medical store,24.9508976,67.00700909999999,OPERATIONAL,"hospital, health, point_of_interest, establishment"
ChIJ3y6mZh5Asz4R6p45meVEhyE,ORANGI TOWN 1314151617,KGN Dispensary,24.952527,67.001359,OPERATIONAL,"hospital, health, point_of_interest, establishment"
ChIJ10HdxglBsz4RKbUX-tPrVKU,ORANGI TOWN 1314151617,Jawad ankho ka clinic,24.9529421,67.0002679,OPERATIONAL,"hospital, health, point_of_interest, establishment"
ChIJabh0EQJBsz4Rhmw9DCaVyno,ORANGI TOWN 1314151617,FGRF MADANI CLINIC ORANGI BRANCH,24.9538629,66.9985213,OPERATIONAL,"hospital, health, point_of_interest, establishment"
ChIJnRH_IwBBsz4RNotkDdanTRo,ORANGI TOWN 1314151617,Arshman pharmacy,24.9517285,67.00227149999999,OPERATIONAL,"hospital, health, point_of_interest, establishment"
ChIJ00-EwClBsz4RhlzeZwBRki0,ORANGI TOWN 1314151617,taha Eye hospital,24.9517285,67.00227149999999,OPERATIONAL,"hospital, health, point_of_interest, establishment"
ChIJe5JEsptBsz4RtCZVDLLk_2A,ORANGI TOWN 1314151617,Pati Medical,24.9517284,67.0022714,OPERATIONAL,"hospital, health, point_of_interest, establishment"
ChIJNWghHABvsz4R1R4D2i1ufiY,HUB,Get well Diagnostic Center,25.0251155,66.8827768,OPERATIONAL,"doctor, health, point_of_interest, establishment"
ChIJOzZIU0lvsz4RuBoSh_OZWfI,HUB,ÿ¥€Å€åÿØ ÿ≥⁄©ŸÜÿØÿ± ⁄àÿ±⁄Ø Ÿπÿ±€åŸπŸÖŸπÿ±€åŸπŸÖŸÜŸπ ÿ≥€åŸÜŸπÿ±,25.0316428,66.8926997,OPERATIONAL,"doctor, health, point_of_interest, establishment"
ChIJSy1CUHNrsz4RfPIviVjIs7A,ITEEHAD TOWN,Hijama clinic,24.96111549999999,66.9266805,OPERATIONAL,"doctor, health, point_of_interest, establishment"
ChIJBfngmaNrsz4R39wCwluCIwU,ITEEHAD TOWN,Rabia clinic,24.9480316,66.9359447,OPERATIONAL,"doctor, health, point_of_interest, establishment"
ChIJlZmMA-xrsz4RCuCFcv5XX4Q,ITEEHAD TOWN,YASMEEN CLINIC,24.9589079,66.9405427,OPERATIONAL,"doctor, health, point_of_interest, establishment"
ChIJiceYQz5rsz4RXW_-4n-wfK4,ITEEHAD TOWN,Care and cure medical center,24.9470855,66.9446667,OPERATIONAL,"doctor, health, point_of_interest, establishment"
ChIJya8k6phrsz4RBtC1xsESE9s,ITEEHAD TOWN,lateef communication,24.965604,66.9469526,OPERATIONAL,"doctor, health, point_of_interest, establishment"
ChIJYzJQvAVrsz4Ra4Gnc2H-NYY,NAVAL COLONY,ARSIN HOMOEOPATHIC CLINIC,24.9570351,66.9476524,OPERATIONAL,"doctor, health, point_of_interest, establishment"
ChIJI57Uo41rsz4R3kaKwxTN4KY,NAVAL COLONY,AHCS,24.9571,66.947735,OPERATIONAL,"doctor, health, point_of_interest, establishment"
ChIJw6PvGQBrsz4R7qnYcVop8k8,ORANGI TOWN 1314151617,sunny house,24.9622803,66.97394469999999,OPERATIONAL,"doctor, health, point_of_interest, establishment"
ChIJM3Gnkwhrsz4RURRHAA5Jcqg,ORANGI TOWN 1314151617,C,24.9633804,66.97530309999999,OPERATIONAL,"doctor, health, point_of_interest, establishment"
ChIJ_VXZgbdrsz4R046UaPU-Vbg,ORANGI TOWN 1314151617,Almas homoeopathic clinic (Burn Clinic),24.9742161,66.9850345,OPERATIONAL,"doctor, health, point_of_interest, establishment"
ChIJaVngQIhqsz4RC1R7Rm2l_pk,ORANGI TOWN 1314151617,"Sauti Markaz, Circle of Voice Trust",24.9752388,66.9851693,OPERATIONAL,"doctor, health, point_of_interest, establishment"
ChIJ5dpTr4Zqsz4Ra9SMqvOXCuk,ORANGI TOWN 1314151617,Ghori Homeo Clinic,24.9727218,66.9921308,OPERATIONAL,"doctor, health, point_of_interest, establishment"
ChIJlRs2lcprsz4RdaWOE7Xhwa4,ORANGI TOWN 1314151617,Khidmat Homeo Clinic,24.9646572,66.99658459999999,OPERATIONAL,"doctor, health, point_of_interest, establishment"
ChIJjd8Ea19Bsz4RlROzt_m8F8U,ORANGI TOWN 1314151617,Hagi Riaz ahmad,24.9498501,67.00323580000001,OPERATIONAL,"doctor, health, point_of_interest, establishment"
ChIJvTzIEABBsz4REeXMuXGtFr0,ORANGI TOWN 1314151617,Makkah Unani Dawakhana,24.9517285,67.00227149999999,OPERATIONAL,"doctor, health, point_of_interest, establishment"
ChIJ-SXtJABBsz4RfhDbiW9iQU4,ORANGI TOWN 1314151617,Dr. Ameen Clinic,24.9520538,67.0047408,OPERATIONAL,"doctor, health, point_of_interest, establishment"
ChIJ8eHL1XxBsz4R7HmodlIZLbQ,ORANGI TOWN 1314151617,Dr Anwar Clinic,24.9536722,67.0039046,OPERATIONAL,"doctor, health, point_of_interest, establishment"
ChIJ60_mcmFBsz4R0uuUchb9hs4,ORANGI TOWN 1314151617,Farhan clinic,24.9566855,67.0058554,OPERATIONAL,"doctor, health, point_of_interest, establishment"
ChIJVcMiWwBvsz4R-VX6-4QOL-g,HUB,Al Rehman Medical Stor,25.0238706,66.8777916,OPERATIONAL,"pharmacy, health, point_of_interest, store, establishment"
ChIJy7hTJHtvsz4RN_1SUK4sqlo,HUB,Hasnain Medical store Hub,25.0252029,66.88068559999999,OPERATIONAL,"pharmacy, health, point_of_interest, store, establishment"
ChIJeTdD27husz4R6e6VYQgzPUA,HUB,New Balochistan Medical & General Store,25.02572259999999,66.8866323,OPERATIONAL,"pharmacy, health, point_of_interest, store, establishment"
ChIJ_5sOXJNvsz4RGaf6Z4Sr_Fc,HUB,Mehran Medicos Hub,25.0308101,66.87993700000001,OPERATIONAL,"pharmacy, health, point_of_interest, store, establishment"
ChIJUQNrzZ1vsz4RFrQLXCzzLew,HUB,New Salman Medical Store Hub.,25.0300893,66.8809313,OPERATIONAL,"pharmacy, health, point_of_interest, store, establishment"
ChIJVYkqHZFvsz4R8tjoNAdwoeI,HUB,Al Imran Medical store,25.0301715,66.8809861,OPERATIONAL,"pharmacy, health, point_of_interest, store, establishment"
ChIJ5bELysFusz4RdASfH-yxwWI,HUB,Star Medical & General Store,25.0300939,66.8810958,OPERATIONAL,"pharmacy, health, point_of_interest, store, establishment"
ChIJ-VrcGwBvsz4Rrclb5T74zdo,HUB,Sardar Medical & Generel Store,25.0281256,66.8836024,OPERATIONAL,"pharmacy, health, point_of_interest, store, establishment"
ChIJ9S7zkMBusz4RjUSrV-tBMkg,HUB,Ajmal Medical & General Store,25.0281715,66.88360999999999,OPERATIONAL,"pharmacy, health, point_of_interest, store, establishment"
ChIJH-qYmcBusz4R9Tt8eTrxMCg,HUB,New Sehrish Medical Store,25.0279397,66.88381199999999,OPERATIONAL,"pharmacy, health, point_of_interest, store, establishment"
ChIJZewBl8Busz4RhjF2B9is7Kw,HUB,Chief Medical & General Store,25.02831339999999,66.8839203,OPERATIONAL,"pharmacy, health, point_of_interest, store, establishment"
ChIJd6-mWb9usz4RdA1V1Qhjmy4,HUB,Sindh Balochistan Medical & General Store,25.0273133,66.8847025,OPERATIONAL,"pharmacy, health, point_of_interest, store, establishment"
ChIJixJQ3-dvsz4RL89OJdcIVAk,HUB,Bolan Medical Store,25.0269753,66.8864735,OPERATIONAL,"pharmacy, health, point_of_interest, store, establishment"
ChIJzbgFTyNvsz4R9Wrae3ilIr8,HUB,Lasi medical & Gernel store,25.0271049,66.88666409999999,OPERATIONAL,"pharmacy, health, point_of_interest, store, food, establishment"
ChIJdUR03Lhusz4R3l6g6-HQJzM,HUB,Younas Medical Store,25.0255432,66.88673179999999,OPERATIONAL,"pharmacy, health, point_of_interest, store, establishment"
ChIJWew9TNRvsz4RYE_Xjk8bins,HUB,Hasnain Clinic,25.0351983,66.8888374,OPERATIONAL,"pharmacy, health, point_of_interest, store, establishment"
ChIJs2tVnwpvsz4RjNcS_EbF2NQ,HUB,BALOUCH MEDICAL& GERNAL STORE,25.03108619999999,66.8921311,OPERATIONAL,"pharmacy, health, point_of_interest, store, establishment"
ChIJs1fRTwBvsz4RuCxONp2Gzv0,HUB,Ayoub medical and general store,25.031061,66.8925544,OPERATIONAL,"pharmacy, health, point_of_interest, store, establishment"
ChIJPX84uAtrsz4RDe4QZL_GVFc,ITEEHAD TOWN,Musharraf Medical store,24.964528,66.93166579999999,OPERATIONAL,"pharmacy, health, store, point_of_interest, establishment"
ChIJ8YyKYd1rsz4RZmWyEqxHHTE,ITEEHAD TOWN,dr m zubair,24.9510616,66.9341773,OPERATIONAL,"pharmacy, veterinary_care, health, point_of_interest, store, establishment"
ChIJTQH5qOZrsz4R82N33HHp6oU,ITEEHAD TOWN,ADIL MEDICAL STORE,24.9449584,66.9345088,OPERATIONAL,"pharmacy, health, point_of_interest, store, establishment"
ChIJ9bTjlj1rsz4RWeF63QViKeM,ITEEHAD TOWN,Heer Medical Store,24.945173,66.9353142,OPERATIONAL,"pharmacy, health, point_of_interest, store, establishment"
ChIJP8VpBFBrsz4R0rBIeDMIrnA,ITEEHAD TOWN,Ghosia Medical Store,24.94563789999999,66.9362019,OPERATIONAL,"pharmacy, health, point_of_interest, store, establishment"
ChIJ56OqcD1rsz4RSxkXBx_fH0Q,ITEEHAD TOWN,Life Care Medicos,24.945836,66.9366312,OPERATIONAL,"pharmacy, health, point_of_interest, store, establishment"
ChIJWyw_KgBrsz4R6awi3Wmnmzs,ITEEHAD TOWN,Iqra medical centre,24.9438448,66.9344926,OPERATIONAL,"pharmacy, drugstore, health, point_of_interest, store, establishment"
ChIJGRXxhMhrsz4R_qAig9b77Oo,ITEEHAD TOWN,TAYYABA HOMEO MEDICAL CENTER,24.9434816,66.9348361,OPERATIONAL,"pharmacy, drugstore, health, point_of_interest, store, establishment"
ChIJy7QaSABrsz4Rao6xP24Ej84,ITEEHAD TOWN,Awami Dawakhana,24.9439251,66.936636,OPERATIONAL,"pharmacy, health, point_of_interest, store, establishment"
ChIJtQWMZ5Frsz4R469DjCyu4EA,ITEEHAD TOWN,Hareem Medical Store /Pharmacy,24.9498383,66.9432431,OPERATIONAL,"pharmacy, health, point_of_interest, store, establishment"
ChIJUw4G9xVrsz4RfKjcwekGvlA,ITEEHAD TOWN,The Pulse Pharmacy,24.9433432,66.9384386,OPERATIONAL,"pharmacy, health, point_of_interest, store, establishment"
ChIJ3XD2LNZrsz4RdjtzcwojDeQ,ITEEHAD TOWN,King Medical Store,24.9437995,66.9394077,OPERATIONAL,"pharmacy, health, point_of_interest, store, establishment"
ChIJ7yDOz6prsz4R5pF5y2w2wQo,ITEEHAD TOWN,Huzaifa Medicos,24.9429345,66.93966329999999,OPERATIONAL,"pharmacy, health, point_of_interest, store, establishment"
ChIJaRfAHxxrsz4Rb_FLnAvpxW8,ITEEHAD TOWN,Life Care Medical and General Store,24.9538352,66.9465821,OPERATIONAL,"pharmacy, health, point_of_interest, store, establishment"
ChIJAQAAAKxrsz4RP2Pctlol6KM,ITEEHAD TOWN,Sami Pharma,24.9759061,66.9451892,OPERATIONAL,"pharmacy, health, point_of_interest, store, establishment"
ChIJzX4EX3drsz4RH5VMc2Qlj20,ITEEHAD TOWN,Al-Syed Medical Store,24.9687301,66.95635829999999,OPERATIONAL,"pharmacy, health, point_of_interest, store, establishment"
ChIJy78LluVqsz4ROhjZWOvcqrY,ITEEHAD TOWN,New Khyber Medical & General Store,24.9580036,66.96169119999999,OPERATIONAL,"pharmacy, health, point_of_interest, store, establishment"
ChIJzySUeh1rsz4RAvZXvikFOJU,ITEEHAD TOWN,Hammad medical store,24.9644532,66.9599211,OPERATIONAL,"pharmacy, health, point_of_interest, store, establishment"
ChIJEyATle5qsz4RLPX1if6VqdE,ORANGI TOWN 1314151617,Inayat Medical & General Store,24.9587416,66.9676393,OPERATIONAL,"pharmacy, health, point_of_interest, store, establishment"
ChIJc9fw7uxqsz4R6-aQFAePlOc,ORANGI TOWN 1314151617,Munir Medical & General Store,24.9599343,66.9728719,OPERATIONAL,"pharmacy, health, point_of_interest, store, establishment"
ChIJH8bb6GZrsz4RUIPP60-4LvI,ORANGI TOWN 1314151617,Sidra Medical Store,24.9637645,66.9744024,OPERATIONAL,"pharmacy, health, point_of_interest, store, establishment"
ChIJAcB6ezxrsz4RjZ5v-7ZiBdA,ORANGI TOWN 1314151617,Abeer Medicos,24.9634465,66.9743687,OPERATIONAL,"pharmacy, health, point_of_interest, store, establishment"
ChIJp1N-v5Jqsz4RhvBNBlJp26c,ORANGI TOWN 1314151617,Medical Store,24.962787,66.9762638,OPERATIONAL,"pharmacy, health, point_of_interest, store, establishment"
ChIJlSxNR5Jqsz4RLkZd2Et-oz8,ORANGI TOWN 1314151617,Abdul Basit Medical & General Stoer,24.9629351,66.9793844,OPERATIONAL,"pharmacy, health, point_of_interest, store, establishment"
ChIJAa7-949Bsz4RD14lSaaZJik,ORANGI TOWN 1314151617,Seven86 Pharmacy,24.96277019999999,66.9801597,OPERATIONAL,"pharmacy, health, point_of_interest, store, establishment"
ChIJpwa9LpJqsz4RyBrGYslmI9s,ORANGI TOWN 1314151617,Five Star Medical & General Store,24.9624432,66.98046719999999,OPERATIONAL,"pharmacy, health, point_of_interest, store, establishment"
ChIJp5TJgZFqsz4RaJUP1LcLN3E,ORANGI TOWN 1314151617,Yameen Brothers Medical & General Store,24.9622185,66.98112139999999,OPERATIONAL,"pharmacy, health, point_of_interest, store, establishment"
ChIJOwA2c5Fqsz4RIrtlegGzNNc,ORANGI TOWN 1314151617,Al-Ghaus Medical & General Store,24.9619925,66.9824132,OPERATIONAL,"pharmacy, health, point_of_interest, store, establishment"
ChIJ7wyPawBrsz4R7mXk_794yNA,ORANGI TOWN 1314151617,HAFEEZ MEDICAL & GENERAL STORE,24.9614359,66.986059,OPERATIONAL,"pharmacy, health, store, point_of_interest, establishment"
ChIJE13ZVgBrsz4Rw0eGND6DUOE,ORANGI TOWN 1314151617,Nadeem madical store,24.9667553,66.98731599999999,OPERATIONAL,"pharmacy, health, store, point_of_interest, establishment"
ChIJfbat_Uhrsz4RijASXg2_A78,ORANGI TOWN 1314151617,Zirwah homeo clinic and skin care treatment,24.961265,66.9876128,OPERATIONAL,"pharmacy, drugstore, health, store, point_of_interest, establishment"
ChIJDyAoigprsz4Rs6Uygc0--W4,ORANGI TOWN 1314151617,Ahnaf Medical Store,24.9795573,66.98781500000001,OPERATIONAL,"pharmacy, health, point_of_interest, store, establishment"
ChIJP_sSxZZrsz4RGuNw96M3xP0,ORANGI TOWN 1314151617,Orangi Medical & General Store,24.9730271,66.9891133,OPERATIONAL,"pharmacy, health, point_of_interest, store, establishment"
ChIJs9H3HwRrsz4RV9A6CCXC8uA,ORANGI TOWN 1314151617,BIN HASHMAT PHARMACY & mini MART,24.9729048,66.9891602,OPERATIONAL,"pharmacy, health, point_of_interest, store, establishment"
ChIJKUQW4_xrsz4RNBkTcIiSpUE,ORANGI TOWN 1314151617,Raza Homeo Clinic,24.9762211,66.99128449999999,OPERATIONAL,"pharmacy, drugstore, health, point_of_interest, store, establishment"
ChIJm_UET9Rrsz4RIOXoyVDbmWI,ORANGI TOWN 1314151617,Aftab Clinic,24.975298,66.991371,OPERATIONAL,"pharmacy, drugstore, health, point_of_interest, store, establishment"
ChIJEymzgLhrsz4RLIrqMs70C3Q,ORANGI TOWN 1314151617,Moin Medical General Store,24.9753294,66.9915692,OPERATIONAL,"pharmacy, drugstore, health, point_of_interest, store, establishment"
ChIJB0v3PgBrsz4R-n-R6kCZMZE,ORANGI TOWN 1314151617,Zam Zam Homeopathic Medical Store,24.9747662,66.9916587,OPERATIONAL,"pharmacy, health, point_of_interest, store, establishment"
ChIJs9w8FwBrsz4Rxas5DFlf38A,ORANGI TOWN 1314151617,Siddiqui Homeo Clinic,24.9756488,66.9918411,OPERATIONAL,"pharmacy, drugstore, health, point_of_interest, store, establishment"
ChIJRwCk_qlrsz4RI00Smi3P00k,ORANGI TOWN 1314151617,Aarzoo Medical Store,24.9754458,66.9918706,OPERATIONAL,"pharmacy, drugstore, health, point_of_interest, store, establishment"
ChIJn3ax3rJrsz4Rx9f0TNpzWzo,ORANGI TOWN 1314151617,Ikraam Dawakhana,24.97535,66.9920262,OPERATIONAL,"pharmacy, drugstore, health, point_of_interest, store, establishment"
ChIJRc1xv1prsz4RzxehNZBa938,ORANGI TOWN 1314151617,ZAM ZAM MEDICAL STORE,24.9735429,66.991852,OPERATIONAL,"pharmacy, health, point_of_interest, store, establishment"
ChIJuSyeuYZqsz4RFTpOfH9eG64,ORANGI TOWN 1314151617,Qadirya Medical Store,24.9734552,66.99186139999999,OPERATIONAL,"pharmacy, health, point_of_interest, store, establishment"
ChIJ755k-BVrsz4RbmArLlTJpks,ORANGI TOWN 1314151617,Sulmania Homeo Clinic,24.9752473,66.9921257,OPERATIONAL,"pharmacy, drugstore, health, point_of_interest, store, establishment"
ChIJw1m6bY5rsz4Rb_ULF00z3mI,ORANGI TOWN 1314151617,Osama Clinic,24.9753807,66.99232719999999,OPERATIONAL,"pharmacy, drugstore, health, point_of_interest, store, establishment"
ChIJ8xNU2vFrsz4RHQOIIYOtfNI,ORANGI TOWN 1314151617,Saira Homeo Clinic,24.9752643,66.9925827,OPERATIONAL,"pharmacy, drugstore, health, point_of_interest, store, establishment"
ChIJL3CVVM1rsz4Ro6-vFMbfCa4,REHMAT CHOWK,Dr Rashid Homeo Clinic,24.9652253,66.9921834,OPERATIONAL,"pharmacy, drugstore, health, point_of_interest, store, establishment"
ChIJc5-cJZ5rsz4RA3dYoGRgt3g,REHMAT CHOWK,KAABAH FARMS,24.9697694,66.9918855,OPERATIONAL,"pharmacy, veterinary_care, health, point_of_interest, store, establishment"
ChIJvTZAP5Rrsz4R1Y0hatr4-qI,REHMAT CHOWK,Rafa-e- Aam Homeo Clinic,24.96480859999999,66.9939181,OPERATIONAL,"pharmacy, drugstore, health, point_of_interest, store, establishment"
ChIJN3bjCABrsz4RzUSWqMVtx_M,REHMAT CHOWK,Kashan-e-Ghousia,24.9669295,66.9945585,OPERATIONAL,"pharmacy, drugstore, health, point_of_interest, store, establishment"
ChIJa0SbuKxrsz4RY8kvhLEyKf8,REHMAT CHOWK,Niazi medical store & communication,24.962987,66.99409849999999,OPERATIONAL,"pharmacy, health, point_of_interest, store, establishment"
ChIJWVo90oM_sz4RJqvCW81yluA,REHMAT CHOWK,AH medicos and consultant clinic Dr Huma khan,24.9711723,66.99223309999999,OPERATIONAL,"pharmacy, health, point_of_interest, store, establishment"
ChIJZ8em8p5qsz4R0PA6VVakv-k,REHMAT CHOWK,New Dew Pharma,24.9603103,66.9950642,OPERATIONAL,"pharmacy, health, point_of_interest, store, establishment"
ChIJ7e5npFhrsz4RoniFwkmrg9E,ORANGI TOWN 1314151617,Homeopathic Center ⁄™ŸÑŸäŸÜ⁄™ ŸÖÿ±⁄™ÿ≤,24.9765046,66.9948398,CLOSED_TEMPORARILY,"pharmacy, drugstore, health, point_of_interest, store, establishment"
ChIJZbwZbahqsz4RB0-z-Gts5UE,ORANGI TOWN 1314151617,ÿßŸÑÿ±ÿ≠ŸÖŸÜ ŸÖ€å⁄à€å⁄©ŸÑ ÿßÿ≥ŸπŸàÿ±Al Rehman Medical Store,24.9443547,66.9972025,OPERATIONAL,"pharmacy, veterinary_care, health, store, point_of_interest, establishment"
ChIJL0SG2KJBsz4RDFjUqKMP-eY,ORANGI TOWN 1314151617,Asif Medical & General Store,24.9472566,66.9990899,OPERATIONAL,"pharmacy, health, store, food, point_of_interest, establishment"
ChIJUc-5dLhrsz4RO9yOMf846Mo,ORANGI TOWN 1314151617,Talha Medical Store,24.9487768,66.9949341,OPERATIONAL,"pharmacy, health, store, point_of_interest, establishment"
ChIJR_bTu99Bsz4RrsDIp8bo288,ORANGI TOWN 1314151617,Faraz medical store,24.9423773,67.00196439999999,OPERATIONAL,"pharmacy, health, store, point_of_interest, establishment"
ChIJPz42qxxAsz4Rx6Z7ejVCECc,ORANGI TOWN 1314151617,New Saleem Medical Store,24.9464075,67.0044745,OPERATIONAL,"pharmacy, health, store, point_of_interest, establishment"
ChIJTYWYVRJBsz4RpHlIL_RguzY,ORANGI TOWN 1314151617,Hassan Medical Store,24.9517284,67.0022714,OPERATIONAL,"pharmacy, health, store, point_of_interest, establishment"
ChIJTWpbnI5Bsz4Rw9v0LpyzkVE,ORANGI TOWN 1314151617,Kasbati Medical and General Store,24.9517285,67.00227149999999,OPERATIONAL,"pharmacy, health, store, point_of_interest, establishment"
ChIJCbzV4t5Bsz4RO3YQb0Vo-4A,ORANGI TOWN 1314151617,SHADAB MEDICAL STORE,24.9517285,67.00227149999999,OPERATIONAL,"pharmacy, health, store, point_of_interest, establishment"
ChIJ9cwiVwVBsz4RbwidScqzNV0,ORANGI TOWN 1314151617,Al Masoom Medical store,24.9517285,67.00227149999999,OPERATIONAL,"pharmacy, health, store, point_of_interest, establishment"
ChIJPx08fn5rsz4RPpW32NRifzI,ORANGI TOWN 1314151617,Z.R MEDICAL & GENERAL STORE,24.9548471,66.9966633,OPERATIONAL,"pharmacy, health, point_of_interest, store, establishment"
ChIJ25fzGUxrsz4RktxbjIdEOYg,ORANGI TOWN 1314151617,KARACHI DRUG MART,24.9552128,66.9952562,OPERATIONAL,"pharmacy, health, point_of_interest, store, establishment"
ChIJSfXBTABrsz4R_cz9FVO217A,ORANGI TOWN 1314151617,Alkhidmat Shifa Khana,24.9532317,66.9983082,OPERATIONAL,"pharmacy, drugstore, health, point_of_interest, store, establishment"
ChIJhdl7ewBrsz4RAlxxc3j7uB0,ORANGI TOWN 1314151617,Nasir Medical,24.9585883,66.99779219999999,OPERATIONAL,"pharmacy, health, point_of_interest, store, establishment"
ChIJB6X4fM9rsz4RFf3QjI0L4N4,ORANGI TOWN 1314151617,New Dew Pharmacy,24.95570439999999,66.9940143,OPERATIONAL,"pharmacy, health, point_of_interest, store, establishment"
ChIJr0CzZgBrsz4RLDPHjSJxk3M,ORANGI TOWN 1314151617,Anamta Medical Store,24.9588714,66.9954661,OPERATIONAL,"pharmacy, health, point_of_interest, store, establishment"
ChIJB1R3EwBBsz4Rbo8aADH8lbw,ORANGI TOWN 1314151617,Doctor Pharmacy,24.9528475,67.0004788,OPERATIONAL,"pharmacy, health, point_of_interest, store, establishment"
ChIJOdi1NlhBsz4RV9DmD6bnhMM,ORANGI TOWN 1314151617,Khubaib Medical Store Pro.Jameel khan,24.9535336,67.0033598,OPERATIONAL,"pharmacy, health, point_of_interest, store, establishment"
ChIJQ0jecPhrsz4RRACsggV3nVQ,ORANGI TOWN 1314151617,Alhamd Homoeopathic Clinic and Store,24.9561627,66.9896609,OPERATIONAL,"pharmacy, drugstore, health, point_of_interest, store, establishment"
ChIJtzg2qtRBsz4RqiBFnhtSPcA,ORANGI TOWN 1314151617,Aftab Medical Store,24.9523513,67.00571959999999,OPERATIONAL,"pharmacy, health, point_of_interest, store, establishment"
ChIJHbzEgSRBsz4RCa5K7BSy7X0,ORANGI TOWN 1314151617,ALLAH wala MEDICAL STORE,24.9517015,67.0065319,OPERATIONAL,"pharmacy, health, point_of_interest, store, establishment"
ChIJvws6nXprsz4R2H130FUxBZI,ORANGI TOWN 1314151617,Raza ansari,24.9662948,66.9971016,OPERATIONAL,"pharmacy, health, point_of_interest, store, establishment"
ChIJ7eNc_65Bsz4RjRbASsmfi6E,ORANGI TOWN 1314151617,ZAFAR MEDICAL STORE ÿ∏ŸÅÿ± ÿ®⁄æÿßÿ¶€å,24.9495426,67.0070001,OPERATIONAL,"pharmacy, health, point_of_interest, store, establishment"
ChIJRf8wWApBsz4RUIJDizoXqgU,ORANGI TOWN 1314151617,Zeeshan Medical and General Store,24.9483243,67.0088244,OPERATIONAL,"pharmacy, health, point_of_interest, store, establishment"
ChIJd-g6wRpAsz4RXVYQpXxFkdM,ORANGI TOWN 1314151617,Salim Medical,24.9482371,67.0090049,OPERATIONAL,"pharmacy, health, point_of_interest, store, establishment"
ChIJDfriwgsVsz4RPdNNOvS3X_U,ORANGI TOWN 1314151617,Shaheen homeo clinic 4,24.9480737,67.0099548,OPERATIONAL,"pharmacy, drugstore, health, point_of_interest, store, establishment"
ChIJc-1YA_tBsz4R5J3dnFfbs-o,ORANGI TOWN 1314151617,Rehan Calinic and medical store,24.9638234,67.010154,OPERATIONAL,"pharmacy, health, point_of_interest, store, establishment"
ChIJw7SWWb9usz4R2pTCO5GxU5Q,HUB,Dental Clinic,25.0272753,66.8847467,OPERATIONAL,"dentist, health, point_of_interest, establishment"
ChIJd-S4sRlrsz4RIAqVXCZShvw,ORANGI TOWN 1314151617,Royal Dental Clinic,24.9753716,66.991882,OPERATIONAL,"dentist, health, point_of_interest, establishment"
ChIJe_vih8Vrsz4RL4BzZ7FA1Cw,ORANGI TOWN 1314151617,MashAllah Dental Clinic,24.9760013,66.9917901,OPERATIONAL,"dentist, health, point_of_interest, establishment"
ChIJ74-eTABrsz4RYzBX3pIjSlg,REHMAT CHOWK,Dental Hospital,24.9541917,66.9978563,OPERATIONAL,"dentist, health, point_of_interest, establishment"
ChIJEx30jMBusz4R6XXoW9OFzd4,HUB,Hub,25.026529,66.8859501,UNKNOWN,"locality, political"
ChIJD9LgNpR0sz4RSEnMeSzJPRE,HUB,Hub Power Plant,24.9061982,66.6944649,OPERATIONAL,"point_of_interest, establishment"
ChIJAQBAJZZ0sz4RatfUmCyPMKg,HUB,MoneyGram,24.9080306,66.69715169999999,OPERATIONAL,"finance, point_of_interest, establishment"
ChIJd5bUDJt0sz4R-VXK_FE03Vo,HUB,Cnergyico PK Limited,24.9175963,66.7054653,OPERATIONAL,"point_of_interest, establishment"
ChIJyV12e6B1sz4Rnfpn_VLgOrg,HUB,China Power Hub Generation Company (CPHGC) Power Station,24.9151651,66.6886835,OPERATIONAL,"point_of_interest, establishment"
ChIJw1MHzQN1sz4RxHEJD0yI8vk,HUB,CPHGC Coal yard,24.9207403,66.68580440000001,OPERATIONAL,"storage, point_of_interest, establishment"
ChIJ36ibGZJ0sz4Rd_k8aq-zPGs,HUB,Hubco Township Heliport,24.91697,66.69445999999999,OPERATIONAL,"airport, point_of_interest, establishment"
ChIJQ7czHMJ1sz4RysDYwjG4Qgc,HUB,Guesthouse and Conference Hall,24.9182003,66.6946746,OPERATIONAL,"lodging, point_of_interest, establishment"
ChIJqy4GQw11sz4RvSCFsmcGvG0,HUB,Hubco beach,24.9221259,66.68298539999999,OPERATIONAL,"point_of_interest, establishment"
ChIJLX6XSwB1sz4RO4uYciwf1WY,HUB,CPHO Residency,24.9119839,66.6947758,OPERATIONAL,"point_of_interest, establishment"
ChIJAQBcAo50sz4Rqu9MlOk1X0s,HUB,Township Swimming Pool,24.9183679,66.6955859,OPERATIONAL,"point_of_interest, establishment"
ChIJbeNt45F0sz4RtMGPLvFggwQ,HUB,Township Mess,24.9183077,66.6959912,OPERATIONAL,"cafe, food, point_of_interest, establishment"
ChIJc0POGo50sz4RyRn4owoSXNU,HUB,Township Gym,24.9188734,66.6958255,OPERATIONAL,"gym, health, point_of_interest, establishment"
ChIJX3j1HY50sz4R-YucNDf6z-A,HUB,Township Bar,24.9183572,66.69605109999999,OPERATIONAL,"point_of_interest, establishment"
ChIJafz6OjB1sz4RqQM43gznoe4,HUB,Hub power plant,24.9189126,66.6959931,OPERATIONAL,"point_of_interest, establishment"
ChIJLS51Go50sz4R-z-PToFP3c8,HUB,Township Tuc Shop,24.9190291,66.6960722,OPERATIONAL,"convenience_store, store, food, point_of_interest, establishment"
ChIJG9ZKZlh1sz4RSd2c83LLV8I,HUB,TSD workshop,24.9130032,66.6969855,OPERATIONAL,"point_of_interest, establishment"
ChIJ259vKAB1sz4RPob0FaQ4Z2k,HUB,Electric üí° hub,24.9187514,66.69699690000002,OPERATIONAL,"general_contractor, point_of_interest, establishment"
ChIJq6pWA5F0sz4R958cQhNV5G0,HUB,A Camp Swimming Pool,24.9151323,66.69767929999999,OPERATIONAL,"point_of_interest, establishment"
ChIJk7rS-YF0sz4R-BuTkJ9iLpI,HUB,Mouza Kund,24.9290035,66.7099376,UNKNOWN,"locality, political"
ChIJxWTWoWd1sz4R_meYMmPiD7I,HUB,CPHGC residencies,24.9208033,66.6985543,OPERATIONAL,"point_of_interest, establishment"
ChIJWWEoWgB1sz4RjowDvQOalrA,HUB,ŸÖÿ≥ÿ¨ÿØ,24.9223777,66.7007963,OPERATIONAL,"mosque, place_of_worship, point_of_interest, establishment"
ChIJ20T1VwB1sz4RSZ-it1xjtFU,HUB,Krrod pump,24.9204354,66.70009689999999,OPERATIONAL,"tourist_attraction, point_of_interest, establishment"
ChIJffE27Y90sz4R4-pY_kFd6mg,HUB,Stack Hubco,24.9203791,66.7001545,OPERATIONAL,"point_of_interest, establishment"
ChIJg7mB7Gp1sz4REfXaQLRFn0k,HUB,Mundywari Beach (ŸÖŸàŸÜ⁄äŸäŸàÿßÿ±Ÿä ÿ≥ÿßŸÖŸàŸÜ⁄äŸä ⁄™ŸÜ⁄åŸä),24.9356,66.6783339,OPERATIONAL,"point_of_interest, establishment"
ChIJd272nTt1sz4RIbCMWOcpm6Y,HUB,Engr. Muhammad Waseem Riaz Office,24.9241286,66.7015139,OPERATIONAL,"point_of_interest, establishment"
ChIJARKwPAB1sz4RoZb_pj9usro,HUB,Churna Beach,24.9400457,66.6832573,OPERATIONAL,"tourist_attraction, point_of_interest, establishment"
ChIJ32x0jOJ1sz4R2coi8ZhhloE,HUB,Allana gador,24.94425069999999,66.6963277,OPERATIONAL,"tourist_attraction, point_of_interest, establishment"
ChIJY7NHT5l1sz4R5S1VlJZrZfw,HUB,Allana Gadoor Village Beach ( Teen Khaji),24.946357,66.6937441,OPERATIONAL,"tourist_attraction, point_of_interest, establishment"
ChIJlT-UtFp1sz4Rppx0rV-rMqQ,HUB,Fishermen Floating Jetty Beach,24.9471794,66.6957044,OPERATIONAL,"tourist_attraction, point_of_interest, establishment"
ChIJB_EC1GJ1sz4RSMImTw_91bI,HUB,SPEC Energy Workshop,24.9297517,66.7031563,OPERATIONAL,"general_contractor, point_of_interest, establishment"
ChIJ70XIMwB1sz4RiEVnFkdgnMM,HUB,ŸÖÿ≥ÿ¨ÿØ,24.9473743,66.7007584,OPERATIONAL,"mosque, place_of_worship, point_of_interest, establishment"
ChIJZ3T-XgB1sz4RkS2wYwwHX0Q,HUB,Al Azeem Petroleum LPG,24.9260655,66.70305499999999,OPERATIONAL,"point_of_interest, establishment"
ChIJO4XR_0N1sz4RABy7wrfabUE,HUB,AL AZEEM PETROLEUM,24.9259938,66.70329339999999,OPERATIONAL,"point_of_interest, establishment"
ChIJS7N0IgN1sz4R78x3WIck38M,HUB,Sahil e Firdous,24.9488402,66.70039419999999,OPERATIONAL,"lodging, point_of_interest, establishment"
ChIJBwxNQgB1sz4Rf6u7Oit6k4w,HUB,Auxiliary Boiler,24.9057152,66.69598719999999,OPERATIONAL,"point_of_interest, establishment"
ChIJT3FSxX11sz4R0OxB60XXneM,HUB,Admin Building,24.9069596,66.69626099999999,OPERATIONAL,"point_of_interest, establishment"
ChIJld6QPZZ0sz4RsX7jTxXyRRo,HUB,Hubco Plant Shuttle Station,24.9081823,66.6966036,OPERATIONAL,"bus_station, transit_station, point_of_interest, establishment"
ChIJq6q6OZZ0sz4RNmMCuOI737g,HUB,Parking Lot,24.9085169,66.6971444,OPERATIONAL,"parking, point_of_interest, establishment"
ChIJ7Tucfs51sz4RQ3sSGQl78wg,HUB,Fire station,24.9092113,66.6971155,OPERATIONAL,"fire_station, point_of_interest, establishment"
ChIJKxDBYpZ0sz4RZkKAYMBk1YE,HUB,Bader Shaheed Mosque,24.9100744,66.6958104,OPERATIONAL,"mosque, place_of_worship, point_of_interest, establishment"
ChIJH-WmxzJ1sz4RUY2w8D3M8LQ,HUB,Facilities office,24.9103633,66.6974401,OPERATIONAL,"point_of_interest, establishment"
ChIJ3UL-1LB1sz4R1-62d2QIxkM,HUB,National Camp Mess,24.9100523,66.6995903,OPERATIONAL,"meal_delivery, point_of_interest, food, establishment"
ChIJjxwYW2h1sz4Rn-0ODl_hZUQ,HUB,CPHGC - Coal Ash Yard,24.9010455,66.7000546,OPERATIONAL,"point_of_interest, establishment"
ChIJ6_To2Yp1sz4RRH3DLf_ATII,HUB,Apprentice Training Centre (ATC),24.9115659,66.6974177,OPERATIONAL,"point_of_interest, establishment"
ChIJHUpDEtQTsz4RNh-NyEKJ5wg,HUB,Khuld Beach Hut 83-N,24.8996672,66.6924512,CLOSED_TEMPORARILY,"point_of_interest, establishment"
ChIJVVVVKJF0sz4ReAI2fH5UKic,HUB,Hubco Stadium,24.9135655,66.6978422,OPERATIONAL,"stadium, point_of_interest, establishment"
ChIJWSg8DAB1sz4Rmrub-lPQDbE,HUB,Platforming & DHT Unit,24.9104658,66.7056005,OPERATIONAL,"point_of_interest, establishment"
ChIJVVUVOpB0sz4RwzpKVufBuz8,HUB,Water Storage and Pumping,24.917838,66.69886559999999,OPERATIONAL,"point_of_interest, establishment"
ChIJ__8PnIV0sz4Ry3agrKXjhcw,HUB,Hubco Police Station,24.9224268,66.70207549999999,OPERATIONAL,"police, point_of_interest, establishment"
ChIJ___TiY90sz4Rg75BiGjgGSM,HUB,Hubco Heliport,24.9210462,66.70098229999999,OPERATIONAL,"airport, point_of_interest, establishment"
ChIJQx6ByoZ0sz4RiI8KQah-6I8,HUB,TCF Hub School Ÿπ€å ÿ≥€å ÿß€åŸÅ ÿ≠ÿ® ÿßÿ≥⁄©ŸàŸÑ,24.9271114,66.7068239,OPERATIONAL,"school, point_of_interest, establishment"
ChIJMxu7dAB1sz4Rp3Z_Soc8pEA,HUB,ŸÖÿ≥ÿ¨ÿØ,24.9455755,66.7053087,OPERATIONAL,"mosque, place_of_worship, point_of_interest, establishment"
ChIJxdowPSJ1sz4RDs63mzPoxbQ,HUB,A.H ELECTRIC AND HARDWARE STORE,24.9264054,66.706738,OPERATIONAL,"electronics_store, point_of_interest, store, establishment"
ChIJH0tDiO51sz4RYQ98yrR3Q6o,HUB,Tm Computer Kanta,24.9265138,66.7076359,OPERATIONAL,"storage, point_of_interest, establishment"
ChIJ7dk_CgB1sz4RqVtWGTzifhw,HUB,MZ SHOP,24.9482659,66.7029038,OPERATIONAL,"store, point_of_interest, establishment"
ChIJH_9gPwB1sz4REwXmExb0QyY,HUB,ŸÖÿ≥ÿ¨ÿØ,24.9479631,66.7037467,OPERATIONAL,"mosque, place_of_worship, point_of_interest, establishment"
ChIJkxs8e211sz4Rq7wtO_kT5wQ,HUB,Khoj Resorts Allana Gadoor Village,24.9516122,66.7016549,OPERATIONAL,"lodging, point_of_interest, establishment"
ChIJVY6nLNF1sz4RvZUvhleyuro,HUB,Basic Health Unit Allana Gadore,24.9468157,66.7076495,OPERATIONAL,"health, point_of_interest, establishment"
ChIJw9dsGZF1sz4RxwJY1qexOZ0,HUB,Byco refinery,24.907528,66.7085857,OPERATIONAL,"point_of_interest, establishment"
ChIJX4qaW2J1sz4RJBBL2MLYVFM,HUB,Bismillah Canteen Service,24.9078584,66.7085589,OPERATIONAL,"lodging, point_of_interest, establishment"
ChIJXQ4f0sV1sz4R8PItTcqDIKs,HUB,Haji Sathar Shope,24.9185867,66.70808079999999,OPERATIONAL,"food, point_of_interest, store, establishment"
ChIJXbr5SgB1sz4RPSbG1N3bloM,HUB,peer bambol,24.9186802,66.7105124,OPERATIONAL,"bakery, food, point_of_interest, store, establishment"
ChIJsdu0Xu51sz4R9WHBiEddXF0,HUB,Hout Gernal Store,24.9202726,66.7096559,OPERATIONAL,"store, point_of_interest, establishment"
ChIJ5w7aWAB1sz4Rd2HwK8e5Lg0,HUB,ŸÖÿ≥ÿ¨ÿØ,24.9217705,66.71038279999999,OPERATIONAL,"mosque, place_of_worship, point_of_interest, establishment"
ChIJezsPIgBzsz4RfT58_RxO99M,HUB,ŸÖÿ≥ÿ¨ÿØ,24.9179329,66.71484029999999,OPERATIONAL,"mosque, place_of_worship, point_of_interest, establishment"
ChIJXz50LwBzsz4R36A5T_9NySk,HUB,ŸÖÿ≥ÿ¨ÿØ,24.9217115,66.7129346,OPERATIONAL,"mosque, place_of_worship, point_of_interest, establishment"
ChIJMQLZfNBzsz4RhVXye9UsCQs,HUB,Hanif palari feed Mill,24.9289127,66.71355849999999,OPERATIONAL,"point_of_interest, establishment"
ChIJk6fqDFJzsz4Rqy6qzGNoNIw,HUB,Jawad poultry services,24.9396216,66.7160859,OPERATIONAL,"point_of_interest, establishment"
ChIJ917L-DVzsz4RyPk_JhYEJMA,HUB,Fast Oil Terminal,24.9372382,66.719625,OPERATIONAL,"storage, point_of_interest, establishment"
ChIJ6cgPdwBzsz4Rk73oc0kOYAM,HUB,ŸÖÿ≥ÿ¨ÿØ,24.9401323,66.71879919999999,OPERATIONAL,"mosque, place_of_worship, point_of_interest, establishment"
ChIJ6d4CD6tzsz4RSvlaltxv5PE,HUB,Byco parking restaurant,24.9401521,66.71886529999999,OPERATIONAL,"parking, point_of_interest, establishment"
ChIJbx5DP1Bzsz4R5FXLTo11bkI,HUB,Byco petrol station,24.9393179,66.719448,OPERATIONAL,"gas_station, point_of_interest, establishment"
ChIJX7DUehBzsz4R25ebUaNWYMI,HUB,Khuzdar Communication And Esy Paisa Shop,24.9415789,66.71917429999999,OPERATIONAL,"point_of_interest, establishment"
ChIJQRNaqvJzsz4RdlKy73zPlPQ,HUB,Gadore Market,24.9415787,66.7194581,OPERATIONAL,"supermarket, grocery_or_supermarket, food, point_of_interest, store, establishment"
ChIJGY9tZ8Bzsz4R-A7yjBEPQkg,HUB,Abdul Shahab Food Corner,24.9442687,66.71824780000001,OPERATIONAL,"restaurant, food, point_of_interest, establishment"
ChIJpzhLOgBzsz4RVaaVw03P8t4,HUB,ŸÖÿ≥ÿ¨ÿØ,24.9459357,66.71850289999999,OPERATIONAL,"mosque, place_of_worship, point_of_interest, establishment"
ChIJCykXOedzsz4ROY1Jsbqa2cw,HUB,Dhaba Hotel,24.9459186,66.7185272,OPERATIONAL,"restaurant, food, point_of_interest, establishment"
ChIJt0rO2j1zsz4RGn3T0FRvFvw,HUB,Afaq Tuc shop,24.9453381,66.71859839999999,OPERATIONAL,"food, point_of_interest, establishment"
ChIJ_WxcUo9zsz4RxRvyGwKaOys,HUB,PSO Petrol Pump,24.9451024,66.7191489,OPERATIONAL,"gas_station, point_of_interest, establishment"
ChIJbzOLFl1zsz4RdjC80u_NFrU,HUB,Khalid PALARI chekan center,24.94328609999999,66.7191023,OPERATIONAL,"point_of_interest, establishment"
ChIJ5TH0CgBzsz4Re8imHZuCSaM,HUB,Aziz Palari Chicken Shop.,24.9429925,66.7192025,OPERATIONAL,"store, point_of_interest, establishment"
ChIJ4Rjgn7hzsz4Rh_dQJSQTCMo,HUB,Hub Motor Rally point,24.966213,66.720803,OPERATIONAL,"point_of_interest, establishment"
ChIJNRxQgvJ1sz4Riy4Ed7M1Bhw,HUB,ParkView Beach Resort,24.9717778,66.703184,OPERATIONAL,"lodging, point_of_interest, establishment"
ChIJyZU0y813sz4RMMwE7EJumpc,HUB,PARCO Refinery site office,24.9825382,66.7097548,OPERATIONAL,"point_of_interest, establishment"
ChIJPQeUZHF0sz4RzM5IjuOR6D4,HUB,Isa,24.9470074,66.7047272,UNKNOWN,"locality, political"
ChIJBVBgejd3sz4R-oLQEJl4SYY,HUB,AMCORP Engineering and Construction - PARCO Refinery Project,24.9858889,66.70763389999999,OPERATIONAL,"point_of_interest, establishment"
ChIJpdHNX-Fzsz4RZ1ohoS3Hk-c,HUB,Hascol Hub Installation,24.9169687,66.7179471,OPERATIONAL,"storage, point_of_interest, establishment"
ChIJpSWKC59zsz4RmLJV2IW8wLo,HUB,Accounting & Data Entry Services,24.9181035,66.7189135,OPERATIONAL,"point_of_interest, establishment"
ChIJOazL4zZzsz4Rvm_fn0MbNl0,HUB,JINN Petroleum Pvt Ltd - HUB Depot,24.9181768,66.7189305,OPERATIONAL,"point_of_interest, establishment"
ChIJiTrtHwBxsz4R1-W3l93ctlg,HUB,ŸÖÿ≥ÿ¨ÿØ,24.9966615,66.7253003,OPERATIONAL,"mosque, place_of_worship, point_of_interest, establishment"
ChIJ7UfXEwBzsz4RsU04qkjFDko,HUB,Haq Farms,24.9487282,66.7376538,OPERATIONAL,"point_of_interest, establishment"
ChIJqSOgXgBzsz4RIqKfKZ6PHpU,HUB,ŸÖÿ≥ÿ¨ÿØ,24.9496654,66.7412098,OPERATIONAL,"mosque, place_of_worship, point_of_interest, establishment"
ChIJ0S9Piuhzsz4R99YBxbQwXxg,HUB,TCF School,24.9492346,66.7437412,OPERATIONAL,"school, point_of_interest, establishment"
ChIJ0TcDhLJzsz4RysBkxG1ufig,HUB,Bismillah masjid,24.9498314,66.7438142,OPERATIONAL,"mosque, place_of_worship, point_of_interest, establishment"
ChIJATUMg35zsz4RBhPuv136i-Q,HUB,Bakery,24.9524183,66.7440288,OPERATIONAL,"bakery, food, point_of_interest, store, establishment"
ChIJ3cC8m4Jzsz4RLOTR6N7xpCo,HUB,A F General Store,24.9513,66.7451184,OPERATIONAL,"store, point_of_interest, establishment"
ChIJLXYLW0Bzsz4RImOkRgR2L_c,HUB,Abdul waheed petroleum,24.9492055,66.74465099999999,OPERATIONAL,"point_of_interest, establishment"
ChIJp5hqHgBzsz4RvRloVZ61Njo,HUB,CRICKET GROUND OF ABBAS GOTH,24.9485668,66.7446466,OPERATIONAL,"point_of_interest, establishment"
ChIJjUFLn7tzsz4RKTCXxsNc9ng,HUB,Goth Haji Shah Baig,24.9519782,66.7434339,UNKNOWN,"sublocality_level_1, sublocality, political"
ChIJycDzQ-dxsz4R47kx5PAM05M,HUB,Salt Lake Hub,24.9810643,66.7373655,OPERATIONAL,"point_of_interest, establishment"
ChIJq9cOZ1Bzsz4RgIXHuFYAhT0,HUB,Gadoor public library,24.949615,66.74519959999999,OPERATIONAL,"library, point_of_interest, establishment"
ChIJzTH4eipzsz4R-ycLAzX8X7Y,HUB,Madarsa tul madina Faizan e bismila,24.9502538,66.7458865,OPERATIONAL,"school, point_of_interest, establishment"
ChIJ_XojCABzsz4Rb3zIuHJdPZY,HUB,Abbas goth RO plant,24.9507268,66.74611349999999,OPERATIONAL,"point_of_interest, establishment"
ChIJ585iRABzsz4RD0JnUAiJ1HI,HUB,Gadoor Cricket Club Academy,24.9504081,66.7478902,OPERATIONAL,"point_of_interest, establishment"
ChIJ-TUeFQBzsz4RAZmZB5_t1RY,HUB,Abbas goth tool tax office,24.95274419999999,66.7479384,OPERATIONAL,"local_government_office, accounting, finance, point_of_interest, establishment"
ChIJFQW6E_Vzsz4RPf-bzkMULIo,HUB,Umar Ali Gadoor Shop,24.9530053,66.7484273,OPERATIONAL,"furniture_store, home_goods_store, point_of_interest, store, establishment"
ChIJfwG6ZABzsz4RfZfW99qK3yU,HUB,ŸÖÿ≥ÿ¨ÿØ,24.9532369,66.7482579,OPERATIONAL,"mosque, place_of_worship, point_of_interest, establishment"
ChIJlQRZce9zsz4R_IsLYpo21uU,HUB,Premier Motors Limited,24.9508026,66.75129749999999,OPERATIONAL,"point_of_interest, establishment"
ChIJiRxUHj9zsz4R4y9T0P1zIF0,HUB,Ittfaq Group IBS,24.9526031,66.7539614,OPERATIONAL,"general_contractor, point_of_interest, establishment"
ChIJ14vzNQBzsz4R96etjFBRhNk,HUB,ŸÖÿ≥ÿ¨ÿØ,24.9635578,66.75232849999999,OPERATIONAL,"mosque, place_of_worship, point_of_interest, establishment"
ChIJO7ukHABxsz4Rk4h9tJ_0JNo,HUB,ŸÖÿ≥ÿ¨ÿØ,24.9990418,66.752293,OPERATIONAL,"mosque, place_of_worship, point_of_interest, establishment"
ChIJIUGX6fxzsz4RBbTihNCR4Pg,HUB,Altama Farm,24.9638453,66.7705193,OPERATIONAL,"campground, lodging, park, point_of_interest, establishment"
ChIJIbos661zsz4R8VBdoe1gPps,HUB,Masjid Zor goth,24.9752154,66.7738513,OPERATIONAL,"mosque, place_of_worship, point_of_interest, establishment"
ChIJq5tgFgBxsz4RiYoiO-WNG7o,HUB,ŸÖÿ≥ÿ¨ÿØ,25.02644339999999,66.7677928,OPERATIONAL,"mosque, place_of_worship, point_of_interest, establishment"
ChIJcxIOpQhxsz4RWFqv__JtXHU,HUB,Sajdi Transport,25.0023808,66.7783279,OPERATIONAL,"point_of_interest, establishment"
ChIJrSfrTstxsz4R5mA3wDhO0IM,HUB,Phullan e Bag,25.0234573,66.7766019,OPERATIONAL,"point_of_interest, establishment"
ChIJBSyFdBpysz4RjR1mb1qaBxg,HUB,Sherwani Farm Houses And Resort,24.9791302,66.7919612,OPERATIONAL,"tourist_attraction, lodging, point_of_interest, establishment"
ChIJAbQNKhpysz4R36hQoMhQBSs,HUB,Hub Rally Track,24.9810716,66.79036769999999,OPERATIONAL,"point_of_interest, establishment"
ChIJJbyLXQBzsz4Rj8XunfD4nnc,HUB,ŸÖÿ≥ÿ¨ÿØ,24.97854969999999,66.7913262,OPERATIONAL,"mosque, place_of_worship, point_of_interest, establishment"
ChIJTf6WDOpzsz4RGvA23_K8utI,HUB,Off Roading Area,24.9858018,66.7920347,OPERATIONAL,"point_of_interest, establishment"
ChIJAwnqXNdzsz4RLsBVDLDUdfc,HUB,Akther Ali And Conpany Stone Crush Plant,24.9865405,66.7930646,OPERATIONAL,"point_of_interest, establishment"
ChIJK8sA5ltxsz4RpklzMD_8Vx4,HUB,Saed Kundwali Peer,25.0070562,66.7886748,OPERATIONAL,"place_of_worship, point_of_interest, establishment"
ChIJjVjArpNxsz4RXAqOa9B1sRA,HUB,Saed Haji Peer,25.0101933,66.7940718,OPERATIONAL,"place_of_worship, point_of_interest, establishment"
ChIJmY8NPAVysz4RePp57puUdSY,HUB,Nimra Mosque,24.9815359,66.79744769999999,OPERATIONAL,"mosque, place_of_worship, point_of_interest, establishment"
ChIJuf4-2OJzsz4R9WlshY4DcgE,HUB,Sada Bahar wadera Zafar restaurant,24.9817724,66.7981171,OPERATIONAL,"restaurant, point_of_interest, food, establishment"
ChIJ8ZPDSABzsz4RmMzBg8Bpt3g,HUB,Hafiz Karyana store,24.9858439,66.8071015,OPERATIONAL,"store, point_of_interest, establishment"
ChIJnwWdZAZysz4RdcttMpBVz1k,HUB,Wadera Muhammad Village,24.982926,66.80317289999999,UNKNOWN,"locality, political"
ChIJmR_ZJz5xsz4RsQCvNIdf9KQ,HUB,Eidoo Goth Peerkass,25.00970899999999,66.7966431,OPERATIONAL,"store, point_of_interest, establishment"
ChIJW8t400dxsz4RTtEd3K--cUM,HUB,Saeedali shah masjid,25.01512,66.8050852,OPERATIONAL,"mosque, place_of_worship, point_of_interest, establishment"
ChIJ3YuLB8lxsz4Rp4f98eToOa4,HUB,Baba Hassan hotel Hayat Goth pirkas,25.0166847,66.80584979999999,OPERATIONAL,"bar, point_of_interest, establishment"
ChIJ8X24c1hxsz4R33QqLm0fQCc,HUB,Goth Saleh Muhammad Primary School,25.0168709,66.8063445,OPERATIONAL,"primary_school, school, point_of_interest, establishment"
ChIJA01asGZxsz4Ruq3vZt8iz5w,HUB,GOVT boys primary School Goth Hayat Bezanjo,25.0168529,66.8063473,OPERATIONAL,"primary_school, school, point_of_interest, establishment"
ChIJT4BeOSBtsz4R1EWPQiaqb1I,HUB,Askar Petroleum Services,24.988405,66.8163022,OPERATIONAL,"gas_station, point_of_interest, establishment"
ChIJo1Y5Hf9tsz4R7bxnyh7pdEA,HUB,Jama Mosque Abdul Hakeem,24.9887195,66.81639849999999,OPERATIONAL,"mosque, place_of_worship, point_of_interest, establishment"
ChIJNxNrLChtsz4Rf9p_E4_Q5b0,HUB,RH Restaurant,24.9886259,66.8165959,OPERATIONAL,"restaurant, food, point_of_interest, establishment"
ChIJ5ztZQQdysz4R65s_I_LrhYA,HUB,Allah Dad Town,24.9858384,66.8070813,UNKNOWN,"locality, political"
ChIJv9mZLgBxsz4R92SPDqeRwxM,HUB,ŸÖÿ≥ÿ¨ÿØ,25.0145044,66.8078637,OPERATIONAL,"mosque, place_of_worship, point_of_interest, establishment"
ChIJCQNmQBtxsz4R3xtEd4UTN6Q,HUB,Qarar bezanjo muhla pirkas hub,25.017395,66.80777750000001,OPERATIONAL,"point_of_interest, establishment"
ChIJz7ptU7Jvsz4RrV81wvyWOMo,HUB,TCF School Peerkas Campus,25.0124417,66.8165735,OPERATIONAL,"school, point_of_interest, establishment"
ChIJC2lMAfhtsz4RKSsDAAzjUlk,HUB,Govt Primary School,24.988584,66.82527189999999,OPERATIONAL,"school, point_of_interest, establishment"
ChIJIyy6IAZvsz4Ru02V6WHbRII,HUB,ASHIQ ALI MAALISHWAALAA,25.0057976,66.8201029,OPERATIONAL,"point_of_interest, establishment"
ChIJO8fgStpvsz4Rax9SStGcE6s,HUB,Balochi kharani song,25.0057964,66.82010919999999,OPERATIONAL,"point_of_interest, store, establishment"
ChIJi7yaJcVvsz4RusUKecioSpE,HUB,Super sony mobile zone,25.0057964,66.82010919999999,OPERATIONAL,"electronics_store, point_of_interest, store, establishment"
ChIJ_3b-2Vxvsz4RO-WomMO7nuI,HUB,PETROL PUMP,25.0057964,66.82010919999999,OPERATIONAL,"point_of_interest, establishment"
ChIJrcZ73Apvsz4RKgK4tcWvlwE,HUB,Lasbela Tailors,25.0057964,66.82010919999999,OPERATIONAL,"clothing_store, point_of_interest, store, establishment"
ChIJe821BHtvsz4RYRuBThr_TwM,HUB,Pics editing,25.0057964,66.82010919999999,OPERATIONAL,"spa, health, point_of_interest, establishment"
ChIJF6Cpy8Bvsz4R59FacPp9gI0,HUB,Hashmi Residency,25.0057964,66.82010919999999,OPERATIONAL,"point_of_interest, establishment"
ChIJQVxZSHBvsz4R6sY6_Iu5Pfw,HUB,M. Hasni Marketing & network,25.0057964,66.82010919999999,OPERATIONAL,"point_of_interest, establishment"
ChIJNROgs5Jvsz4R2ty47Rp4dYw,HUB,ÿ≤€åŸÜ ŸÅ€åÿ¥ŸÜ Ÿπ€åŸÑÿ±ÿ≤,25.0057964,66.82010919999999,OPERATIONAL,"shopping_mall, point_of_interest, establishment"
ChIJbTg3dAhvsz4R2Q4gE-_KPdQ,HUB,ŸÅ€åÿ≤ 5 ŸÖÿ≥ÿ¨ÿØ,25.0057964,66.82010919999999,OPERATIONAL,"mosque, place_of_worship, point_of_interest, establishment"
ChIJq6qqqhpusz4RRqpz811GvTA,HUB,Value Plus,25.0057964,66.82010919999999,OPERATIONAL,"point_of_interest, establishment"
ChIJFeVmKYlvsz4RkeAyBmRx7Xo,HUB,MIX SONG DOWNLOAING CENTER,25.0057964,66.82010919999999,OPERATIONAL,"general_contractor, point_of_interest, establishment"
ChIJq6qqqhpusz4RXSdr7iaZS0w,HUB,Alkaram Packages (Pvt) Ltd,25.0057964,66.82010919999999,OPERATIONAL,"point_of_interest, store, establishment"
ChIJ6cl89wpvsz4RRQDKQnqN_oA,HUB,Saltex butterfly napkins,25.0057964,66.82010919999999,OPERATIONAL,"shopping_mall, point_of_interest, establishment"
ChIJ6cfoSm9vsz4RIpwcGFeMffc,HUB,Masjid e aamna,25.0082749,66.8185251,OPERATIONAL,"mosque, place_of_worship, point_of_interest, establishment"
ChIJD7kM05Fvsz4RPDIkd2qTcj0,HUB,Noor Bakhsh Hotel,25.01167,66.8172256,OPERATIONAL,"lodging, point_of_interest, establishment"
ChIJsfClXB9vsz4R4qFSsnSE2Wo,HUB,Shoukat Rind,25.0075988,66.81944589999999,OPERATIONAL,"lodging, point_of_interest, establishment"
ChIJi959We1vsz4R6vroWsogBsY,HUB,Masha Allah Mutton Meat,25.0082995,66.82159690000002,OPERATIONAL,"point_of_interest, food, establishment"
ChIJC2hFpKdtsz4RXgGG5B6X6e4,HUB,Zameendar Hotel,24.9958605,66.83008509999999,OPERATIONAL,"restaurant, food, point_of_interest, establishment"
ChIJaTdFxx5vsz4RgrNZaJmgzWo,HUB,SA‚Äôs DEN,25.0001016,66.8280828,OPERATIONAL,"point_of_interest, establishment"
ChIJF5QvW4tvsz4RXrykKChNL4A,HUB,Rsj.communication,25.0057964,66.82010919999999,OPERATIONAL,"point_of_interest, establishment"
ChIJk_LIj8pvsz4RKwEBkv5XCnQ,HUB,Mumtaz,25.0057964,66.82010919999999,OPERATIONAL,"school, point_of_interest, establishment"
ChIJp8LWpEtvsz4R28vIJ8rudto,HUB,Shah-e-Madina Pakwan And Tent House,25.0057964,66.82010919999999,OPERATIONAL,"food, point_of_interest, establishment"
ChIJ0dX8TMBpsz4Rfytd-oJhbzk,HUB,Darul Uloom Jamia Siddiqiya,25.0057964,66.82010919999999,OPERATIONAL,"school, point_of_interest, establishment"
ChIJeabBQv1vsz4RGXTdDSPDwpI,HUB,SherwaniAnsari Farm Houses.,25.0057964,66.82010919999999,OPERATIONAL,"point_of_interest, establishment"
ChIJo5Tb7ylvsz4RTLW83JrueqU,HUB,Amil Baba,25.0084022,66.825141,OPERATIONAL,"health, point_of_interest, establishment"
ChIJ26fpWcdvsz4RPBfKqshjscU,HUB,H2 Crete Hub,25.000843,66.834161,OPERATIONAL,"point_of_interest, establishment"
ChIJxX4mar1vsz4RUN_Mu-DYW4I,HUB,Pak-tel,25.0012209,66.8350263,OPERATIONAL,"point_of_interest, establishment"
ChIJC8g350pvsz4RYNe_a1EHsWk,HUB,Peerkas FC hub football ground,25.0036528,66.8328729,OPERATIONAL,"point_of_interest, establishment"
ChIJd2AlVdJvsz4Ru3atu9sGL8w,HUB,Mansoor petrol and desiel agency,25.0036327,66.8335931,OPERATIONAL,"point_of_interest, establishment"
ChIJcxAGfkRvsz4RP_SpE4dWx9Y,HUB,Achanak Hotel,25.0036844,66.8340125,OPERATIONAL,"lodging, point_of_interest, establishment"
ChIJv2P8d3Bvsz4RFfEpwOY5308,HUB,Abrar shop,25.003368,66.8346066,OPERATIONAL,"store, point_of_interest, establishment"
ChIJjZavQgBvsz4RXhiIw3THmqk,HUB,ŸÖÿ≥ÿ¨ÿØ,25.0125283,66.8347387,OPERATIONAL,"mosque, place_of_worship, point_of_interest, establishment"
ChIJR1Lg3eVvsz4RCRn-kkbGzXk,HUB,BABA UMAR HOTEL,25.0086079,66.83645539999999,OPERATIONAL,"lodging, point_of_interest, establishment"
ChIJt5OJNABvsz4RVg33OPO_vdQ,HUB,Muhib autos,25.0160415,66.83985,OPERATIONAL,"car_repair, store, point_of_interest, establishment"
ChIJxTvoZm5usz4RvKJNQiu0XCQ,HUB,Government degree College Hub,25.0112856,66.8392251,OPERATIONAL,"university, point_of_interest, establishment"
ChIJE_xGZABvsz4R2r4chJnmv6o,HUB,ŸÖÿ≥ÿ¨ÿØ,25.0301223,66.8455494,OPERATIONAL,"mosque, place_of_worship, point_of_interest, establishment"
ChIJCRg7VgBvsz4R66AYn7JHghk,HUB,ŸÖÿ≥ÿ¨ÿØ,25.0165677,66.8436735,OPERATIONAL,"mosque, place_of_worship, point_of_interest, establishment"
ChIJz2VmNhxvsz4RXg_TE7OZWRU,HUB,Siddiqsons Cold Rolling Mill Complex,25.0185006,66.8451027,OPERATIONAL,"point_of_interest, establishment"
ChIJJ6-8SCFvsz4R_A9TNB2Qn8U,HUB,CRM Cold Rolling Mill HUB,25.0183969,66.845095,OPERATIONAL,"point_of_interest, establishment"
ChIJq3dD71pvsz4R6QLgQQXOB4I,HUB,JINN Petroleum - Aman Petroleum Service,25.031055,66.8459191,OPERATIONAL,"point_of_interest, establishment"
ChIJQXq9Jwlvsz4R9gMnVr_bSMQ,HUB,Storage Sheds,25.0265846,66.8468177,OPERATIONAL,"storage, point_of_interest, establishment"
ChIJTaQjlsNvsz4R6JiXv55Eyk0,HUB,Max Petroleum,25.0304577,66.8463554,OPERATIONAL,"point_of_interest, establishment"
ChIJ4YVspzlvsz4Rdv8sU-OC9mY,HUB,Aman JIN Petroleum,25.0311868,66.8461911,OPERATIONAL,"gas_station, point_of_interest, establishment"
ChIJxU4_9Atvsz4RK0QBcIckZ1A,HUB,Govt girls degree college Hub,25.0083797,66.84349279999999,OPERATIONAL,"university, point_of_interest, establishment"
ChIJSUblxohvsz4RqC6fS7RdFLg,HUB,Shamshan Ghat,25.010044,66.8431913,OPERATIONAL,"point_of_interest, establishment"
ChIJIz1jZgBvsz4R_BHt0fhVftM,HUB,ŸÖÿ≥ÿ¨ÿØ,25.0122764,66.8413024,OPERATIONAL,"mosque, place_of_worship, point_of_interest, establishment"
ChIJBxU1NgBvsz4Rh_oGnC13Rno,HUB,ŸÖÿ≥ÿ¨ÿØ,25.0112902,66.8447154,OPERATIONAL,"mosque, place_of_worship, point_of_interest, establishment"
ChIJ9XUVPetvsz4R4knsL85P9Js,HUB,TYRE PUNCTURE REPAIR SHOP,25.011297,66.8447126,OPERATIONAL,"car_repair, point_of_interest, establishment"
ChIJUSdldOBvsz4RRlwynW6Iw-E,HUB,Raes Hussain Hotel,25.01138229999999,66.8452215,OPERATIONAL,"restaurant, food, point_of_interest, establishment"
ChIJkYCIrhhvsz4R7UGZ1bxTaXA,HUB,Allah Badshah Oil Shop,25.014062,66.85098099999999,OPERATIONAL,"point_of_interest, establishment"
ChIJPRA9HQBvsz4RjZ-G1RuU9lc,HUB,ŸÖÿ≥ÿ¨ÿØ,25.0113962,66.8502795,OPERATIONAL,"mosque, place_of_worship, point_of_interest, establishment"
ChIJaYYQeQBvsz4RJP000LSl2PY,HUB,Khyber tatara afridi petroleum,25.0288833,66.84723699999999,OPERATIONAL,"gas_station, point_of_interest, establishment"
ChIJS7xMNQBvsz4RYLRvljleNQM,HUB,Shoaib pump,25.0291865,66.8471297,OPERATIONAL,"point_of_interest, establishment"
ChIJ63N65zRvsz4RT3AxlxXSGBg,HUB,Dashti petroleum,25.0291865,66.8471297,OPERATIONAL,"gas_station, point_of_interest, establishment"
ChIJfUOu0apvsz4RrZICFj_-hlk,HUB,SYED AAGHA JAN PETROLEUM,25.0311423,66.84652009999999,OPERATIONAL,"point_of_interest, establishment"
ChIJZZ0V47Vvsz4Rm1UsO73E_aM,HUB,GUL BROTHERS PETROLEUM SERVICE,25.0291925,66.84764129999999,OPERATIONAL,"point_of_interest, establishment"
ChIJJ6xWJPVvsz4RLC1SzrgFygw,HUB,Sajid afridi diesel autos,25.0309489,66.8466974,OPERATIONAL,"gas_station, point_of_interest, establishment"
ChIJR7v4SgBvsz4Ri3TclCP_hNY,HUB,Zaman khan petroleum service,25.0308433,66.8469167,OPERATIONAL,"gas_station, point_of_interest, establishment"
ChIJN2EPFotvsz4RVSfie2xjY7c,HUB,Vance Frontier Petroleum service,25.0292865,66.84778949999999,OPERATIONAL,"point_of_interest, establishment"
ChIJH8E3l1husz4R4B1A3w61y_o,HUB,A One City Housing Society,25.0281902,66.8556135,UNKNOWN,"neighborhood, political"
ChIJfxwGKwBvsz4RHVsMMPZzTg8,HUB,New shaheen petroleum services,25.0133333,66.8552778,OPERATIONAL,"gas_station, point_of_interest, establishment"
ChIJ0V3EYABvsz4Rzp42BYkUT40,HUB,Zehri hair selon,25.01226339999999,66.8564851,OPERATIONAL,"hair_care, point_of_interest, establishment"
ChIJWZN4IgBvsz4RJ7QvDRbALDk,HUB,New Dubai petroleum service,25.0112071,66.8574035,OPERATIONAL,"gas_station, point_of_interest, establishment"
ChIJ5c-ZXT1vsz4RMd8gy70-y9c,HUB,Jinn Petrol Station,25.01256249999999,66.8564375,OPERATIONAL,"point_of_interest, establishment"
ChIJwSKTCYtusz4Rn8oKfCHUw00,HUB,Mayan ji loly Packages,25.0207945,66.8598782,OPERATIONAL,"point_of_interest, establishment"
ChIJaSCQzwRvsz4R-JfVT36rpDE,HUB,Buraq,25.0144689,66.8550226,OPERATIONAL,"gas_station, point_of_interest, establishment"
ChIJ2ajuzsRvsz4RvJpOd3qGDjY,HUB,Gulf Residencia Emarat Builders Hub,25.0139473,66.8550447,OPERATIONAL,"point_of_interest, establishment"
ChIJmZWbMARvsz4RCDS9xPwcLuQ,HUB,Gulf Bar BQ Hotel,25.0141976,66.8552684,OPERATIONAL,"lodging, point_of_interest, establishment"
ChIJ65DjeQBvsz4RzqZS2q5lVss,HUB,ŸÖÿ≥ÿ¨ÿØ,25.0228393,66.8519515,OPERATIONAL,"mosque, place_of_worship, point_of_interest, establishment"
ChIJ7VaMbQBvsz4RDbmC4UPYqAE,HUB,ŸÖÿ≥ÿ¨ÿØ,25.0274274,66.8516776,OPERATIONAL,"mosque, place_of_worship, point_of_interest, establishment"
ChIJOWKY2PZvsz4Rldi0HWcHCDE,HUB,Qatar City Emarat Builders Hub,25.0245887,66.8533803,OPERATIONAL,"point_of_interest, establishment"
ChIJNZtpRWhvsz4Rf3Ge7GtSHBI,HUB,Green Valley Emarat Builders Hub,25.0309854,66.8529053,OPERATIONAL,"point_of_interest, establishment"
ChIJ6VRVVcVusz4RfXcgeMRLrV0,HUB,Habib Rice Products Ltd,25.0276145,66.869461,OPERATIONAL,"point_of_interest, establishment"
ChIJR9j60ENvsz4Ri0Clf1I_LKs,HUB,Qamar uddin plot,25.0173832,66.8572083,OPERATIONAL,"point_of_interest, establishment"
ChIJg24JZylvsz4RRLeERGVdTq4,HUB,boloch falling station,25.0125918,66.8564395,OPERATIONAL,"point_of_interest, establishment"
ChIJN46hIQBvsz4RWNPa_WizLG0,HUB,BARKI-PETROLEUM,25.0120914,66.85753249999999,OPERATIONAL,"point_of_interest, establishment"
ChIJQe_NYwBvsz4RDuvBLbe5Irc,HUB,Mashallah petroleum service,25.0118046,66.857107,OPERATIONAL,"point_of_interest, establishment"
ChIJw4KZ1GFusz4RkvLrePTh-Qs,HUB,Technical Training Centre,25.0194595,66.85597179999999,OPERATIONAL,"university, point_of_interest, establishment"
ChIJQ9hdkq9vsz4Rf2bCIA0kjmY,HUB,NAZAKAT MARRI Petroleum Service,25.0113125,66.8574375,OPERATIONAL,"gas_station, point_of_interest, establishment"
ChIJfWcGBQBvsz4RRcGdOfH8HpE,HUB,ŸÖÿ≥ÿ¨ÿØ,25.0200719,66.8566926,OPERATIONAL,"mosque, place_of_worship, point_of_interest, establishment"
ChIJO1S266tvsz4R-iHs5r0jmzE,HUB,Employment Exchange Office,25.0205111,66.85679689999999,OPERATIONAL,"point_of_interest, establishment"
ChIJ-4mqWnlvsz4RK45ezlHdtOI,HUB,A1 city housing society hub,25.02817679999999,66.8557683,OPERATIONAL,"point_of_interest, establishment"
ChIJhQdbp51vsz4RtGlKM-KJOCI,HUB,Masjid Sharif,25.0288069,66.8555798,OPERATIONAL,"mosque, place_of_worship, point_of_interest, establishment"
ChIJ2WaGGwBvsz4RoeS5lyy6LOI,HUB,ŸÖÿ≥ÿ¨ÿØ,25.026217,66.86131879999999,OPERATIONAL,"mosque, place_of_worship, point_of_interest, establishment"
ChIJJUH5iB5vsz4RSjlpDVXdzVo,HUB,SAF Petroleum Hub site,25.0221569,66.86109789999999,OPERATIONAL,"storage, point_of_interest, establishment"
ChIJf_cvs59vsz4R5l4vwOM5JPA,HUB,Iqbal,25.0221569,66.86109789999999,OPERATIONAL,"grocery_or_supermarket, food, point_of_interest, store, establishment"
ChIJ__g8xGdvsz4Rt4XnDRLX3uE,HUB,Haji Muhammad Ayoub Mengal Godown,25.030612,66.85738359999999,OPERATIONAL,"storage, point_of_interest, establishment"
ChIJ8yzkcldvsz4RoD_XzTg4D8k,HUB,Pakistan Metal Hub,25.0223768,66.8614886,OPERATIONAL,"point_of_interest, establishment"
ChIJ_ZJpYJVusz4RsjzW03oXn5g,HUB,Sheikh Muhammad Akram Lasi Colony,25.0234547,66.8766904,UNKNOWN,"sublocality_level_1, sublocality, political"
ChIJ_0vsRL5usz4RlYyY8d8gjBg,HUB,TCF Safia Rakla Campus Hub,25.0233407,66.88177550000002,OPERATIONAL,"school, point_of_interest, establishment"
ChIJo-3olb9usz4ROZxWJUsVyog,HUB,Aghaz Peeko Center Hub,25.0256897,66.8813859,OPERATIONAL,"clothing_store, point_of_interest, store, establishment"
ChIJX965XvVvsz4REUCRbbfeKLU,HUB,ŸÖÿ≠ÿ™ÿ±ŸÖ ÿπŸÑÿßŸÖ€Å ÿ®ÿ¥€åÿ± ÿßÿ≠ŸÖÿØ ÿ≥⁄©ŸÜÿØÿ±€å ÿµÿßÿ≠ÿ® €î ÿ≠ÿ® ⁄ÜŸà⁄©€å,25.0182396,66.8708753,OPERATIONAL,"school, point_of_interest, establishment"
ChIJWdXbcgBvsz4R-WH6avKSHlE,HUB,ŸÖÿ≥ÿ¨ÿØ,25.0192182,66.8700654,OPERATIONAL,"mosque, place_of_worship, point_of_interest, establishment"
ChIJYdHDTABvsz4RekTvHspSfGs,HUB,ŸÖÿ≥ÿ¨ÿØ,25.0161229,66.8721257,OPERATIONAL,"mosque, place_of_worship, point_of_interest, establishment"
ChIJCZkOl-Vvsz4RlCmEh-fwILM,HUB,Bilal masjid,25.019556,66.8647029,OPERATIONAL,"mosque, place_of_worship, point_of_interest, establishment"
ChIJIzGBurZvsz4RhLQMNxUgL7w,HUB,ScUBatouragency,25.0212914,66.8701884,OPERATIONAL,"travel_agency, point_of_interest, establishment"
ChIJl2NDeABvsz4RdpJrOctePdE,HUB,ŸÖÿ≥ÿ¨ÿØ,25.0196532,66.8730842,OPERATIONAL,"mosque, place_of_worship, point_of_interest, establishment"
ChIJC6rzRlZvsz4RR1XMPSQarYs,HUB,Alizai Town Emarat builder,25.0201044,66.861763,OPERATIONAL,"point_of_interest, establishment"
ChIJU0C-F2pvsz4Ro5v2Ax90iew,HUB,Benazir Nashonoma Program Office,25.022119,66.871421,OPERATIONAL,"point_of_interest, establishment"
ChIJ04_TGABvsz4RiszOFieNa0U,HUB,ŸÖÿ≥ÿ¨ÿØ,25.0173309,66.87543959999999,OPERATIONAL,"mosque, place_of_worship, point_of_interest, establishment"
ChIJ9Weh2mtvsz4Rb3gSZrEj35g,HUB,Hiv Treatment and Support Center,25.0227999,66.8708326,OPERATIONAL,"health, point_of_interest, establishment"
ChIJIYMHQQBvsz4RHgkwR_kOhpo,HUB,Jamia Masjid Arif,25.0226198,66.8712901,OPERATIONAL,"mosque, place_of_worship, point_of_interest, establishment"
ChIJA_jIagBvsz4R7_-_Qu1lRxo,HUB,"Masjid, JGQH Hub",25.0229448,66.87056369999999,OPERATIONAL,"mosque, place_of_worship, point_of_interest, establishment"
ChIJIYGyB-pusz4RMPsn5NwVEgw,HUB,Meezan Bank - Hub Chowki Branch,25.0290869,66.8823434,OPERATIONAL,"bank, finance, point_of_interest, establishment"
ChIJq5iVUcBusz4R2h5jkDvJA2Y,HUB,Efu Life Assurance Ltd,25.0295572,66.8822964,OPERATIONAL,"point_of_interest, establishment"
ChIJtUz888Busz4RNVr28wEV_ek,HUB,Rashid Customer Service,25.0290283,66.8830497,OPERATIONAL,"electronics_store, point_of_interest, store, establishment"
ChIJCeatybhusz4R0fK1S6p7_g4,HUB,Rofi Digital Studio And Color Lab,25.0262496,66.88608959999999,OPERATIONAL,"electronics_store, home_goods_store, point_of_interest, store, establishment"
ChIJZRenRu1usz4RVFQrjGmNTb0,HUB,Agriauto Industry Limited,25.0259618,66.8688816,OPERATIONAL,"car_repair, point_of_interest, store, establishment"
ChIJxwhVCgBvsz4R563COa2B2b8,HUB,ŸÖÿ≥ÿ¨ÿØ,25.0259436,66.869823,OPERATIONAL,"mosque, place_of_worship, point_of_interest, establishment"
ChIJZ_rriGlvsz4RFxMV6ykXajg,HUB,Police station berot,25.0288907,66.8670171,OPERATIONAL,"point_of_interest, establishment"
ChIJT4uIt3lvsz4RBeLFaszfwNM,HUB,Al-Huda Public School Gulshan e Lasbela,25.025734,66.8709693,OPERATIONAL,"primary_school, point_of_interest, school, establishment"
ChIJ6X22bwBvsz4RfkfY5C_2cCI,HUB,ÿ¨ÿßŸÖÿπ ŸÖÿ≥ÿ¨ÿØ ÿ≠ÿ∂ÿ±ÿ™ ÿ®ŸÑÿßŸÑ,25.025645,66.8636345,OPERATIONAL,"mosque, place_of_worship, point_of_interest, establishment"
ChIJMSpOh7Busz4RNFJNJbiIsNM,HUB,Bab-e-Balochistan Shopping Mall HUB,25.0204089,66.89198689999999,OPERATIONAL,"shopping_mall, general_contractor, real_estate_agency, point_of_interest, establishment"
ChIJUWonJwBvsz4RSb2fQg0xkrk,HUB,Jamia masjid aqsa,25.0203487,66.8767301,OPERATIONAL,"mosque, place_of_worship, point_of_interest, establishment"
ChIJeyocpMhvsz4RF4Mgp2FHc0o,HUB,Sihzad gernal store,25.0207233,66.87739669999999,OPERATIONAL,"store, point_of_interest, establishment"
ChIJcegGegBvsz4RgI1av72QdLU,HUB,Jamali General Store,25.0207458,66.87825169999999,OPERATIONAL,"store, point_of_interest, establishment"
ChIJgzQS68Zusz4R5GlVqicOayo,HUB,Balochistan College of Education,25.0320323,66.8873231,OPERATIONAL,"university, point_of_interest, establishment"
ChIJ5w0gWbhvsz4R6b9yhkdiTTo,HUB,ZAFER AMERZAI HOUSE HUB,25.02556989999999,66.8775072,OPERATIONAL,"point_of_interest, establishment"
ChIJC28tOABvsz4RMXHkY7jPv84,HUB,Dargah Ghousia Romani Ya Sharif,25.0250612,66.87719919999999,OPERATIONAL,"place_of_worship, point_of_interest, establishment"
ChIJ930iAvRvsz4RSzou2InQT3w,HUB,Ziya beauty salon,25.0250171,66.8771962,OPERATIONAL,"beauty_salon, point_of_interest, establishment"
ChIJTbvpiLVvsz4RUiimfI54Tmc,HUB,jawad Musa clanic,25.0262288,66.87687850000002,OPERATIONAL,"health, point_of_interest, establishment"
ChIJC-udw2tvsz4R4H2n0qG99Xk,HUB,Jilani Masjid Maktab Taleem Ul Quran ÿ¨€åŸÑÿßŸÜ€å ŸÖÿ≥ÿ¨ÿØ ŸÖ⁄©ÿ™ÿ® ÿ™ÿπŸÑ€åŸÖ ÿßŸÑŸÇÿ±ÿ¢ŸÜ,25.0189375,66.8906875,OPERATIONAL,"mosque, place_of_worship, point_of_interest, establishment"
ChIJx5K4n7lusz4RWq8qowjeg3U,HUB,Bab-e-Balochistan,25.018974,66.8917927,OPERATIONAL,"local_government_office, point_of_interest, establishment"
ChIJrewhVwBvsz4RBUrQKT_-Iqk,HUB,Sikander marri petroleum pump,25.0190323,66.8921756,OPERATIONAL,"point_of_interest, establishment"
ChIJ6359XwBvsz4R_ln7WukFiBM,HUB,ÿßÿ™ŸÅÿßŸÇ petroleum service,25.0194686,66.89185739999999,OPERATIONAL,"gas_station, point_of_interest, establishment"
ChIJkcCAtvFvsz4R62Q5tJB68V4,HUB,Sada Bahar petroleum services,25.0193738,66.8920864,OPERATIONAL,"gas_station, point_of_interest, establishment"
ChIJxXi9Jl5vsz4RppDOQCNsi6Q,HUB,"ALLAH BADSHAH Patrol Pump Hub, BALOCHISTAN",25.0191726,66.89240989999999,CLOSED_TEMPORARILY,"gas_station, point_of_interest, establishment"
ChIJL6C7u2hvsz4RI1g4i8bPyUI,HUB,ÿ¢ÿ∫ÿß ÿ≥ÿ®ÿ≠ÿßŸÜ ÿßŸÑŸÑ€Å €ÅŸàŸπŸÑ,25.0255051,66.8874779,OPERATIONAL,"restaurant, food, point_of_interest, establishment"
ChIJT5H9JHFvsz4Rf5zLRuQ8aJ4,HUB,Shaheen Crockery Store 1,25.0259228,66.88744179999999,OPERATIONAL,"home_goods_store, store, point_of_interest, establishment"
ChIJTSjJA3Nvsz4RMz7M8IqpfX0,HUB,ÿ¥ÿß€Å€åŸÜ ⁄©ŸÖÿ®ŸÑ €Åÿßÿ§ÿ≥,25.0259539,66.8873156,OPERATIONAL,"shopping_mall, point_of_interest, establishment"
ChIJpzipwVdvsz4RHujT0XZwL5o,HUB,Zain Fashion Tailor,25.0259945,66.887395,OPERATIONAL,"point_of_interest, establishment"
ChIJCTQXk05vsz4Rx3QgLT9puYQ,HUB,Shaheen Crockery Store 2,25.0259556,66.88762729999999,OPERATIONAL,"home_goods_store, store, point_of_interest, establishment"
ChIJ-aVo3rhusz4RBYed9s5d4f8,HUB,Rajput CD Bank,25.0254189,66.8869757,OPERATIONAL,"bank, finance, point_of_interest, establishment"
ChIJe9JEOABvsz4RqfieNaS4ypc,HUB,Raees medical and wholesale store,25.0356326,66.8889334,OPERATIONAL,"health, point_of_interest, store, establishment"
ChIJ5d_3aCxvsz4RcqOi1hRN0U8,HUB,ŸÖÿ≥ÿ¨ÿØ ÿ®€åÿ™ ÿßŸÑ ŸÖ⁄©ÿ±ŸÖ,25.0352933,66.8889291,OPERATIONAL,"mosque, place_of_worship, point_of_interest, establishment"
ChIJ06OJpGFvsz4RtwcEL79RJ04,HUB,Bhit abad llahbad town hub,25.0250747,66.8964021,OPERATIONAL,"bakery, food, point_of_interest, store, establishment"
ChIJJSxh7rZusz4RvArJavp5-gU,HUB,mosque,25.0256945,66.8955964,OPERATIONAL,"mosque, place_of_worship, point_of_interest, establishment"
ChIJ8ccdcgBvsz4RNMXhKZOVFqU,HUB,ŸÇÿ®ÿ±ÿ≥ÿ™ÿßŸÜ,25.0269951,66.8988402,OPERATIONAL,"cemetery, point_of_interest, establishment"
ChIJ3UXK9nNvsz4RcNlUwak0KRw,HUB,Balochistan Hub chadhaii,25.024181,66.89528659999999,OPERATIONAL,"point_of_interest, establishment"
ChIJ12v01e1vsz4Raih3RDiJPec,HUB,ÿ¨ÿßŸÖÿπ€Å ÿØÿßÿ±ÿßŸÑÿÆ€åÿ± ŸàŸÅÿßÿ∑ŸÖ€Å ÿßŸÑÿ≤€Åÿ±ÿßÿ° ŸÑŸÑÿ®ŸÜÿßÿ™,25.0275517,66.8954672,OPERATIONAL,"university, point_of_interest, establishment"
ChIJFz84z1Nvsz4R0Bsu9C2mUrg,HUB,Doda goth community Hall II,25.0278977,66.89859659999999,OPERATIONAL,"point_of_interest, establishment"
ChIJGew88A9vsz4RbPqy6mwPxN4,HUB,Jamia Tafheem Ul Islam Tahiria Doda Goth,25.0279977,66.8986908,OPERATIONAL,"school, point_of_interest, establishment"
ChIJT12rHmFvsz4RE9wCNAuOxGs,HUB,ALP CENTER TiT DODA GOTH Allah bad town Hub,25.0280744,66.8985488,OPERATIONAL,"school, point_of_interest, establishment"
ChIJ1VWPFwBvsz4RrcMlRwA7uto,HUB,Dow uni ojha campus Karachi,25.025685,66.894216,OPERATIONAL,"university, point_of_interest, establishment"
ChIJOfK4B8xusz4Ruupv-Qc9occ,HUB,PSO Petrol Pump,25.0354512,66.8981545,OPERATIONAL,"gas_station, point_of_interest, establishment"
ChIJrVhyo65vsz4Ru9JLFfKiGAY,HUB,Ÿ≠ùô∞ùöï ùô∞ùö£ùöíùö£ ùöôùöéùöùùöõùöòùöïùöíùöûùöñ ùöúùöéùöõùöüùöíùöåùöéŸ≠,25.0347577,66.8973274,OPERATIONAL,"gas_station, point_of_interest, establishment"
ChIJY7L6JwBvsz4RphG_vi8PfAs,HUB,Mohammadi Masjid Hub ŸÖÿ≠ŸÖÿØ€å ŸÖÿ≥ÿ¨ÿØ ÿ≠ÿ®,25.0358079,66.8983215,OPERATIONAL,"mosque, place_of_worship, point_of_interest, establishment"
ChIJDdjTEphvsz4RqFQfYNteBtA,HUB,M.KHAN LPG GAS AJANCY,25.0342846,66.8967387,OPERATIONAL,"gas_station, point_of_interest, establishment"
ChIJEcKg0Blvsz4RH79NqPixG9M,HUB,Pak Hub Roplant.pk,25.0340592,66.8967863,OPERATIONAL,"point_of_interest, establishment"
ChIJCa8dewBpsz4RncjX3tQ3kvE,HUB,ŸÖÿ≥ÿ¨ÿØ,25.0267462,66.9064107,OPERATIONAL,"mosque, place_of_worship, point_of_interest, establishment"
ChIJwxAOQFZpsz4RXm8m4I7yPMA,HUB,The Rehbar Public school Charai Hub,25.0274182,66.9063819,OPERATIONAL,"school, point_of_interest, establishment"
ChIJVeiGhBRpsz4RIa7Qh-dF8q0,HUB,ŸÜÿßŸäŸÅ ŸáÿßŸàÿ≥,25.0266253,66.90478329999999,OPERATIONAL,"point_of_interest, establishment"
ChIJ3etffQBpsz4R6QoE3E-CTeQ,HUB,ÿ¨ÿßŸÖÿπ€Å ŸÖÿ≥ÿ¨ÿØ ⁄ØŸÑÿ≤ÿßÿ± ÿ≠ÿ®€åÿ®,25.0254336,66.9037109,OPERATIONAL,"point_of_interest, establishment"
ChIJF4e8XABpsz4RB8Qkm4h3Cm8,HUB,ÿ¨ÿßŸÖÿπ ŸÖÿ≥ÿ¨ÿØ ÿßÿ®Ÿà ÿß€åŸàÿ® ÿßŸÜÿµÿßÿ±€å ⁄ØŸÑÿ¥ŸÜ ÿß€åŸàÿ®,25.022727,66.904235,OPERATIONAL,"mosque, place_of_worship, point_of_interest, establishment"
ChIJU-3nKQBvsz4REn6Cjjg8Ypw,HUB,ÿ¨ÿßŸÖÿπ ÿπŸÑ€å ŸÖÿ≥ÿ¨ÿØ ŸÑÿßŸÜ⁄ØŸàÿ¢ÿ®ÿßÿØ,25.02585,66.9025739,OPERATIONAL,"mosque, place_of_worship, point_of_interest, establishment"
ChIJ-VFIuFdvsz4RKaoOU9PlxE8,HUB,Abdullah bin Abbas masjid,25.0273581,66.90194009999999,OPERATIONAL,"mosque, place_of_worship, point_of_interest, establishment"
ChIJYdCQpP9psz4R3-aVCKv508U,HUB,Inaam ullah jernal store,25.0299375,66.9040156,OPERATIONAL,"store, point_of_interest, establishment"
ChIJRRMTr-lpsz4R66b-hhDH5O0,HUB,Gulzar-e-Madina,25.0299455,66.90401349999999,OPERATIONAL,"mosque, place_of_worship, point_of_interest, establishment"
ChIJXWbxtuJpsz4RveHolmbmx-8,HUB,Inaam super janral store charai,25.0301344,66.90397089999999,OPERATIONAL,"store, point_of_interest, establishment"
ChIJaVJm9uZvsz4RJLiftqRXvKk,HUB,Jameel Communication Charhai,25.030499,66.90289,OPERATIONAL,"point_of_interest, establishment"
ChIJM7pXRABVzj4RsNXH0vP831A,HUB,ABUD GENERAL STORE,25.0303356,66.9025118,OPERATIONAL,"food, point_of_interest, store, establishment"
ChIJU3RdxiVpsz4RRT6g9RvFYC0,HUB,Govt Girls Primary School Palal Goth ⁄Øÿ±ŸÑÿ≤ Ÿæÿ±ÿßÿ¶ŸÖÿ±€å ÿ≥⁄©ŸàŸÑ ŸæŸÑÿßŸÑ ⁄ØŸàŸπ⁄æ,25.0320592,66.9051444,OPERATIONAL,"primary_school, school, point_of_interest, establishment"
ChIJld7nHERvsz4R1HdsWwl4-PY,HUB,Al Ain Housing Society Hub Chowki,25.0199884,66.9032306,OPERATIONAL,"point_of_interest, establishment"
ChIJgenWzbNvsz4R-fWzOzLdDQM,HUB,Rind D Markete,25.0305719,66.9019971,OPERATIONAL,"point_of_interest, establishment"
ChIJXVu30CFpsz4RU5gyQvydxy4,HUB,Fatah Masjid,25.0318539,66.903705,OPERATIONAL,"mosque, place_of_worship, point_of_interest, establishment"
ChIJIWtd2jRpsz4RMWAsF-ALdFw,HUB,Jamia Islamia Mengal Abad Hub Chiwki,25.0340573,66.9043634,OPERATIONAL,"university, point_of_interest, establishment"
ChIJx_o-t1Zpsz4RtQT3iCdaHTI,HUB,Garden city,25.0388047,66.9067807,OPERATIONAL,"point_of_interest, establishment"
ChIJ08CREABpsz4RK3M9yQZQeDc,HUB,ŸÖÿ≥ÿ¨ÿØ,25.0340323,66.9036618,OPERATIONAL,"mosque, place_of_worship, point_of_interest, establishment"
ChIJUbETsfxvsz4R-VuY_i-Uzs0,HUB,Lala General Store,25.0367809,66.9030358,OPERATIONAL,"store, food, point_of_interest, establishment"
ChIJMesjNhdvsz4ReJPkiUGgITo,HUB,Madarsah Bintul Islam Hub,25.035375,66.9028396,OPERATIONAL,"point_of_interest, establishment"
ChIJA7GIzsdpsz4R0_sG1220fig,HUB,Tablighi Markaz Hub Darussalam,25.0392721,66.905013,OPERATIONAL,"point_of_interest, establishment"
ChIJjbmVgIppsz4R74GtxXYC7fg,HUB,SOOMRO HOUSE HUB,25.0326136,66.9040816,OPERATIONAL,"home_goods_store, store, point_of_interest, establishment"
ChIJ_-RkpUppsz4Rn0o-vVr5Ahc,HUB,Ghareeb abbad more main markaz,25.0329545,66.90364199999999,OPERATIONAL,"store, point_of_interest, establishment"
ChIJ04rqUwBvsz4RkwdZsouKAQs,HUB,ŸÖÿ≥ÿ¨ÿØ,25.0366633,66.902604,OPERATIONAL,"mosque, place_of_worship, point_of_interest, establishment"
ChIJswgzOz9vsz4R1F8EraTaQ0I,HUB,Hafiz General Store Mangal Abad,25.0386309,66.9030754,OPERATIONAL,"store, food, point_of_interest, establishment"
ChIJBZxrXQBpsz4RmU6keWm6RJ0,HUB,Tariq Baloshi Market,25.0397766,66.90439239999999,OPERATIONAL,"point_of_interest, establishment"
ChIJXWfQYKFpsz4RKIiA_d-twsA,HUB,Imdad. General store and communication,25.0400621,66.9049102,OPERATIONAL,"store, point_of_interest, establishment"
ChIJVR7tCONpsz4RYaaR004U64E,HUB,Bakhtali bambo plastic store,25.0401864,66.9049684,OPERATIONAL,"store, point_of_interest, establishment"
ChIJKdT6cUJvsz4RYBNPwOiMBRY,HUB,Masha Allah General store and communication,25.0376034,66.9021195,OPERATIONAL,"store, point_of_interest, establishment"
ChIJ6ZINL8dusz4R-I9w5VCMALU,HUB,Mengal Colony,25.029932,66.88636919999999,UNKNOWN,"sublocality_level_1, sublocality, political"
ChIJNaEr2oRrsz4RuQtDU4hrAFY,ITEEHAD TOWN,Metpak Industries (Pvt) Ltd,24.9731564,66.91446119999999,OPERATIONAL,"point_of_interest, establishment"
ChIJpdK19HNrsz4RlrFyxumIqBI,ITEEHAD TOWN,Mir Mine & Minerals,24.9605027,66.92271079999999,OPERATIONAL,"point_of_interest, establishment"
ChIJTckfHkBrsz4R02BJjigL2sw,ITEEHAD TOWN,Rizwan Hanan Autos,24.9774356,66.91731949999999,OPERATIONAL,"car_repair, point_of_interest, store, establishment"
ChIJrZ1aLgBrsz4R4A0NgLpjupg,ITEEHAD TOWN,Azad Godown,24.9771678,66.916187,OPERATIONAL,"storage, point_of_interest, establishment"
ChIJW3h7O_Frsz4RdWYtTRGJDZo,ITEEHAD TOWN,New Jan Autos ŸÜ€åŸàÿ¨ÿßŸÜ ÿ¢ŸπŸàÿ≤,24.9745444,66.9188889,OPERATIONAL,"shopping_mall, point_of_interest, establishment"
ChIJqUF0RLFrsz4R6riSjapW9L0,ITEEHAD TOWN,N3 PUMP,24.9775393,66.91740349999999,OPERATIONAL,"point_of_interest, establishment"
ChIJi4Ysjhlrsz4RDRWhfAPtgi0,ITEEHAD TOWN,Jahanzaib House,24.9743084,66.9156536,OPERATIONAL,"finance, point_of_interest, establishment"
ChIJcfoEyMVrsz4RBibVhT5kVmM,ITEEHAD TOWN,Gigi Industries (Pvt.) Ltd,24.9733596,66.9178426,OPERATIONAL,"point_of_interest, establishment"
ChIJX4B-JmFrsz4RpBzjMf9bSco,ITEEHAD TOWN,Sana Logistics Warehouse,24.9735514,66.9152174,OPERATIONAL,"storage, point_of_interest, establishment"
ChIJAYdahQVrsz4RpjMsoEn1TO4,ITEEHAD TOWN,ÿπÿ®ÿØÿßŸÑŸÜÿßŸÅÿπ €Åÿßÿ±⁄àŸà€åÿ¶ÿ± ÿ¥ÿßŸæ ŸÜÿßÿØÿ±ŸÜ ÿ®ÿßÿ¶€å Ÿæÿßÿ≥ ŸÑÿßŸÑ ⁄©ÿßŸÜŸπ€í ⁄©€í Ÿæ€å⁄Ü⁄æ€í ŸàÿßŸÑ€å ⁄ØŸÑ€å,24.976766,66.9142126,OPERATIONAL,"hardware_store, point_of_interest, store, establishment"
ChIJZ-aChMdrsz4Rn5QZOOmp0ps,ITEEHAD TOWN,Shaheen Hotel,24.9771501,66.9142129,OPERATIONAL,"lodging, point_of_interest, establishment"
ChIJuQcFO6xpsz4RPL2eDuLdaTA,HUB,Siyasherani hub,25.0242825,66.9164868,OPERATIONAL,"point_of_interest, establishment"
ChIJ5SaJ7lhpsz4RETyBMImtTL8,HUB,Nadeem store,25.0209933,66.91553549999999,OPERATIONAL,"store, point_of_interest, establishment"
ChIJP_fNkgFpsz4RBm47ce6vRoE,HUB,ŸÖÿ≥ÿ¨ÿØ ÿßŸÇÿµÿ¶,25.0206512,66.9155969,OPERATIONAL,"mosque, place_of_worship, point_of_interest, establishment"
ChIJK81mkH5psz4R556NBFE8cEY,HUB,Government Boys Middle School Goth Haji Mohammad Shaikh,25.0318169,66.9186028,OPERATIONAL,"school, point_of_interest, establishment"
ChIJDfwXa4Fpsz4RS1us3lHdDDI,HUB,Masjid Ghani Al Tayyaib€î ŸÖÿ≥ÿ¨ÿØ ÿ∫ŸÜ€å ÿßŸÑÿ∑€åÿ®,25.032416,66.9182043,OPERATIONAL,"mosque, place_of_worship, point_of_interest, establishment"
ChIJI3Fe0Adpsz4RpdAbv4lrAKU,HUB,Jama mosque Umar Farooq Sakran A ÿ¨ÿßŸÖÿπ ŸÖÿ≥ÿ¨ÿØ ÿπŸÖÿ± ŸÅÿßÿ±ŸàŸÇ ÿ≥ÿß⁄©ÿ±ÿßŸÜ,25.0275273,66.9287703,OPERATIONAL,"mosque, place_of_worship, point_of_interest, establishment"
ChIJx8Xtpudpsz4RLojBQctNN0s,HUB,Mosque ŸÖÿ≥ÿ¨ÿØ (ÿ≥ÿß⁄©ÿ±ÿßŸÜ A),25.0272967,66.9297292,OPERATIONAL,"mosque, place_of_worship, point_of_interest, establishment"
ChIJnWSllpNpsz4RLWkrGHxalwA,HUB,Football ground,25.0273064,66.9306455,OPERATIONAL,"point_of_interest, establishment"
ChIJmxJcljtpsz4ROq-U-N5xR3A,HUB,Khanqah Rahim Aabad,25.0408417,66.92078959999999,OPERATIONAL,"mosque, place_of_worship, point_of_interest, establishment"
ChIJpdOdEwBpsz4R2u3TGTt3MVs,HUB,ŸÖÿ≥ÿ¨ÿØ,25.040321,66.9223823,OPERATIONAL,"mosque, place_of_worship, point_of_interest, establishment"
ChIJNZWfQYdpsz4R0FTvnllIr9Y,HUB,ÿ¨ÿßŸÖÿπ ŸÖÿ≥ÿ¨ÿØ ÿπŸÑ€å ÿßŸÑŸÖÿ±ÿ™ÿ∂€å,25.04269039999999,66.9187061,OPERATIONAL,"point_of_interest, establishment"
ChIJvxrwIaNpsz4R23qmgTqOOPE,HUB,M Kashif clinic,25.03801859999999,66.92693009999999,OPERATIONAL,"health, point_of_interest, establishment"
ChIJxyE62aZpsz4RHruYhp2VOuo,HUB,"Ehsan Shahid General Store , Wahwara Market Goth haji Hashum Wa hwara shop#3 Sakran",25.0433048,66.9114974,OPERATIONAL,"point_of_interest, store, food, establishment"
ChIJAQAAPCVpsz4RRclSfOXWt_o,HUB,Afridi Farms,25.0451221,66.91726779999999,OPERATIONAL,"point_of_interest, food, establishment"
ChIJ0z5FxhVpsz4RvDEy39LYAR4,HUB,Al Makuran State Agency,25.0420144,66.90797549999999,OPERATIONAL,"general_contractor, point_of_interest, establishment"
ChIJyYVlZwBpsz4RvVVqwnwIWXk,HUB,Al- Jameel clinic,25.0456917,66.91222139999999,OPERATIONAL,"health, point_of_interest, establishment"
ChIJ8xmCQ29psz4RWXhGr3vLQsw,HUB,Goth Haji Chatta Rind,25.0251345,66.9340205,UNKNOWN,"locality, political"
ChIJz3fmuYlpsz4R7M3wJsAHi84,HUB,Sakran Tube Well,25.0505487,66.91954919999999,OPERATIONAL,"point_of_interest, establishment"
ChIJFfO8GDBpsz4RpCMcD8ZPBTY,HUB,Jamah Masjid Aduraheem,25.0495931,66.9129119,OPERATIONAL,"mosque, place_of_worship, point_of_interest, establishment"
ChIJUZMDhb1psz4R-2Msot4obxY,HUB,Faisal,25.0513242,66.912706,OPERATIONAL,"restaurant, point_of_interest, food, establishment"
ChIJAzOG_ZFpsz4RwYGt2RjxzN8,HUB,Umber School Of Modern Sciences Hub Chowki Campus,25.0515472,66.9126701,OPERATIONAL,"point_of_interest, establishment"
ChIJRaylaABpsz4Reou1KjgySfY,HUB,Dera Baba Sanwal Shah Radha Swami Dera,25.0515472,66.9126701,OPERATIONAL,"point_of_interest, establishment"
ChIJg3oLPkZpsz4RzOm8GHflPFU,HUB,Wisdom public school hub chowki,25.0515472,66.9126701,OPERATIONAL,"school, point_of_interest, establishment"
ChIJXcEFL1lpsz4RDeEFOp8EMsI,HUB,M.k sayani tradars,25.0515473,66.9126702,OPERATIONAL,"point_of_interest, establishment"
ChIJqfm_C0Zpsz4Rs9bjaTrDzNY,HUB,Cloth Canter,25.0515473,66.9126702,OPERATIONAL,"pet_store, point_of_interest, store, establishment"
ChIJs3wnKztpsz4Rz1Cpcl4j1xQ,HUB,Hoor ul ain Tailors,25.0515473,66.9126702,OPERATIONAL,"clothing_store, point_of_interest, store, establishment"
ChIJKTkEbFNpsz4RZD9qMGANPwE,HUB,Daraullom islamia madarsa,25.0528992,66.9148026,OPERATIONAL,"mosque, place_of_worship, point_of_interest, establishment"
ChIJw1sAAudpsz4RYqvP_qJllbI,HUB,Arslan state & builders,25.0545876,66.915004,OPERATIONAL,"point_of_interest, establishment"
ChIJd3kEjlxpsz4R_9DeSpYp5bs,HUB,Madrasa Sham Ul Uloom Masjid Muhammadi Gulshan e Baloch,25.054925,66.9148416,OPERATIONAL,"mosque, place_of_worship, point_of_interest, establishment"
ChIJt3-8iRRrsz4RL13ouPOiC20,ITEEHAD TOWN,Dargah Syed Wilayat Ali Shah aur imam bargah,24.9501165,66.9302113,OPERATIONAL,"place_of_worship, point_of_interest, establishment"
ChIJAQAAwBFrsz4RW-C37Wb8qOI,ITEEHAD TOWN,Trading Links International,24.9560344,66.9347946,OPERATIONAL,"storage, point_of_interest, establishment"
ChIJreLwWwlrsz4Rbue0s9phExA,ITEEHAD TOWN,Hijama Alhijama Clinic,24.9638841,66.93369659999999,OPERATIONAL,"health, point_of_interest, establishment"
ChIJoUG85z1rsz4RCKiyETDZL7s,ITEEHAD TOWN,Print City Photocopy,24.9449247,66.9339811,OPERATIONAL,"point_of_interest, store, establishment"
ChIJX42hOS5rsz4RZkrK9mahjLY,ITEEHAD TOWN,The Protec Professional Training Institute (Computer training),24.9451819,66.9359139,OPERATIONAL,"university, point_of_interest, establishment"
ChIJaZ_mCj1rsz4RHwVRFuYTPj0,ITEEHAD TOWN,Yaseen Bendsaw Blades,24.944994,66.93641099999999,OPERATIONAL,"point_of_interest, establishment"
ChIJFxIbIj1rsz4RlMDiZOhpV6g,ITEEHAD TOWN,La Vance Public School,24.9444375,66.93781249999999,OPERATIONAL,"school, point_of_interest, establishment"
ChIJW9C4Xjxrsz4RCPnfnj56iII,ITEEHAD TOWN,Buying House Pakistan (PVT) LIMITED,24.9425186,66.9359657,OPERATIONAL,"home_goods_store, point_of_interest, store, establishment"
ChIJmeQNjhhrsz4RO8-wA84C8_Y,ITEEHAD TOWN,Child Centered Public School,24.9486005,66.9428966,OPERATIONAL,"school, point_of_interest, establishment"
ChIJn4ATvu9rsz4RWx361Y7GGA4,ITEEHAD TOWN,Umer bin khattab Madrassa / School ÿπŸÖÿ± ÿ®ŸÜ ÿÆÿ∑ÿßÿ®€Å ŸÖÿØÿ±ÿ≥€Å / ÿßÿ≥⁄©ŸàŸÑ,24.9559329,66.9269393,OPERATIONAL,"point_of_interest, establishment"
ChIJQcnJtqBrsz4R-xUHKGQLyuo,ITEEHAD TOWN,ÿπŸÑ€å ÿßŸÜÿ¨€åÿ¶ÿ±ŸÜ⁄Ø Ÿàÿ±⁄©ÿ≥ ŸÜÿ≤ÿØ ÿßŸÑŸÜŸàÿ± €ÅŸàŸπŸÑ €åŸàÿ≥ŸÅ ⁄ØŸàŸπ⁄æ ⁄©ÿ±ÿß⁄Ü€å,24.955351,66.9269362,OPERATIONAL,"car_repair, point_of_interest, establishment"
ChIJzQKg8tBrsz4RBPGMvmxTRQs,ITEEHAD TOWN,Al Sana Transport office 02,24.9560283,66.9277079,OPERATIONAL,"point_of_interest, establishment"
ChIJmfzB6Atrsz4RqscC4bZYJ_Q,ITEEHAD TOWN,Sher Jaan office 32,24.9561965,66.92742,OPERATIONAL,"travel_agency, point_of_interest, establishment"
ChIJEzb3bgBrsz4RM70K28JG8_g,ITEEHAD TOWN,Inter city bus terminal,24.9561797,66.9275167,OPERATIONAL,"point_of_interest, establishment"
ChIJs4FhWTtrsz4Rqb7w2cHqHm8,ITEEHAD TOWN,Jamia Masjid Umer bin khattab ÿ¨ÿßŸÖÿπ ŸÖÿ≥ÿ¨ÿØ ÿπŸÖÿ± ÿ®ŸÜ ÿÆÿ∑ÿßÿ®,24.95571009999999,66.9266574,OPERATIONAL,"mosque, place_of_worship, point_of_interest, establishment"
ChIJG3kqFeprsz4RR8R-McqXrM8,ITEEHAD TOWN,Engineering industrial zone,24.9671438,66.9260535,OPERATIONAL,"storage, point_of_interest, establishment"
ChIJZ95DrAFrsz4RTAsXKyNxjxQ,ITEEHAD TOWN,Swat minerals,24.966446,66.9253595,OPERATIONAL,"point_of_interest, establishment"
ChIJEbGE4otrsz4R5mxLq9u6nto,ITEEHAD TOWN,Engineering Industrial land,24.967759,66.9271036,OPERATIONAL,"point_of_interest, establishment"
ChIJAYJva8Vrsz4RW86acXufg9I,ITEEHAD TOWN,Alif Kaka Rock Stone Crushers,24.9650614,66.9243584,OPERATIONAL,"point_of_interest, establishment"
ChIJt8nhKnRrsz4R3nHRGLzgBNE,ITEEHAD TOWN,Sufyan Mineral Resources Company,24.9635119,66.9247026,OPERATIONAL,"point_of_interest, establishment"
ChIJdfB-evRrsz4RQ6NGSwlPCbQ,ITEEHAD TOWN,Ali General Store,24.9641823,66.93060369999999,OPERATIONAL,"point_of_interest, store, food, establishment"
ChIJr3-dpgtrsz4R-2jne4f15oQ,ITEEHAD TOWN,Asif karyana store,24.96424,66.9306536,OPERATIONAL,"convenience_store, point_of_interest, store, food, establishment"
ChIJwa_Sowtrsz4RplY0z8NKqJ0,ITEEHAD TOWN,Masjid Faizan E Ismail,24.9636471,66.930426,OPERATIONAL,"mosque, place_of_worship, point_of_interest, establishment"
ChIJh0CySwBrsz4RH00EAxrL3PA,ITEEHAD TOWN,Govt girls collage women motravil site,24.9650715,66.93112839999999,OPERATIONAL,"university, point_of_interest, establishment"
ChIJW5Jhqmhrsz4R20jB2yBN2oM,ITEEHAD TOWN,MONEEB country store,24.96211479999999,66.92768,OPERATIONAL,"grocery_or_supermarket, point_of_interest, store, food, establishment"
ChIJ0-xxvzRrsz4RoUDMf7HlUq4,ITEEHAD TOWN,MKR MINERALS,24.9649151,66.92343559999999,OPERATIONAL,"point_of_interest, establishment"
ChIJBapjnJhrsz4Rhjlpb55WaE8,ITEEHAD TOWN,NKI 500/220KV Grid Station | K-ELECTRIC,24.9748537,66.9270054,OPERATIONAL,"point_of_interest, establishment"
ChIJc-ydMgBrsz4RrEFEKunkXtA,ITEEHAD TOWN,Scientific Laboratory for Antiquities of Sindh,24.9752184,66.9281958,OPERATIONAL,"point_of_interest, establishment"
ChIJIxpsZwBrsz4RT0a44s4gt6E,ITEEHAD TOWN,Exploration & Excavation Branch Office,24.9751833,66.9282111,OPERATIONAL,"point_of_interest, establishment"
ChIJzcsgRktrsz4RfCukDjh02BI,ITEEHAD TOWN,"Office of PDMI Cell, Department of Culture, Government of Sindh",24.9763293,66.92819659999999,OPERATIONAL,"point_of_interest, establishment"
ChIJuXwgH_lrsz4RonXfr043V3w,ITEEHAD TOWN,Rumi Graveyard,24.9763293,66.92819659999999,OPERATIONAL,"cemetery, point_of_interest, establishment"
ChIJ6_gvnzJrsz4R4Uze63K2rTI,ITEEHAD TOWN,Planning & Development Works Sindh CTA&AD,24.9748714,66.9283592,OPERATIONAL,"point_of_interest, establishment"
ChIJTUplBkBrsz4Rf0a7KAStq-4,ITEEHAD TOWN,Ghazanfar goodown,24.9781732,66.9268089,OPERATIONAL,"point_of_interest, establishment"
ChIJUdRJQQBrsz4Ro7GCOjFYqXo,ITEEHAD TOWN,Lucky Shershah Warehouse And Business center,24.9736134,66.9325948,OPERATIONAL,"storage, point_of_interest, establishment"
ChIJCaYIfYdrsz4RimvCVnBus0c,ITEEHAD TOWN,alwajad restaurent,24.9777797,66.92144929999999,OPERATIONAL,"restaurant, point_of_interest, food, establishment"
ChIJ87ePMQBrsz4RYpimaHA4hhg,ITEEHAD TOWN,ŸÅÿµ€åŸÑ ÿ¢ÿ®ÿßÿØ ÿ≠ŸÖÿ≤€Å ÿ¢ŸπŸà ÿßŸÑ€å⁄©Ÿπÿ±€åÿ¥ŸÜ,24.9777881,66.9212799,OPERATIONAL,"car_repair, point_of_interest, establishment"
ChIJGdnGIW1psz4Rs9LmQdDnG7A,HUB,ŸÜŸàÿ± ŸÖÿ≥ÿ¨ÿØ Noor Mosque,25.0282294,66.9322749,OPERATIONAL,"mosque, place_of_worship, point_of_interest, establishment"
ChIJg3-6CCtpsz4RP0ONZE5Gz5E,HUB,Govt Boy middle School Chattha goth,25.0285134,66.9324127,OPERATIONAL,"school, point_of_interest, establishment"
ChIJ08gPxY1psz4R7-OLMZ7lPtE,HUB,Laiba Public School,25.0251345,66.9340205,OPERATIONAL,"point_of_interest, establishment"
ChIJ_z9wnA5psz4RvVu2WKVz8-Q,HUB,Pak Dairy Baker,25.0251345,66.9340205,OPERATIONAL,"food, point_of_interest, establishment"
ChIJeVkUUlppsz4R__fVHn42Tf0,HUB,Masjid Al Hudda,25.0249237,66.9340757,OPERATIONAL,"mosque, place_of_worship, point_of_interest, establishment"
ChIJWc22m-1psz4R3NdCyUdZDOo,HUB,Shaikh Farm ÿ¥€åÿÆ ŸÅÿßÿ±ŸÖ,25.0444979,66.9272122,OPERATIONAL,"lodging, point_of_interest, establishment"
ChIJ_RvvdLlpsz4RTwlXiXNNoGE,HUB,RIND REST HOUSE,25.0518489,66.93344909999999,OPERATIONAL,"park, point_of_interest, establishment"
ChIJNWt9WwBpsz4RmXowsF9brY8,HUB,⁄ØŸàŸπ⁄æ Ÿà⁄à€åÿ±ÿß ÿ∫ŸÑÿßŸÖ ŸÜÿ®€å ŸÖÿ≠ŸÖÿØ ÿ≠ÿ≥ŸÜ€å,25.0550242,66.9353015,OPERATIONAL,"store, point_of_interest, establishment"
ChIJExHbq4Bpsz4R-w0A4uG2UNI,HUB,Mengal farmhouse sakran,25.054152,66.936409,OPERATIONAL,"point_of_interest, establishment"
ChIJg0mkCztrsz4RmOZKdW9DwNo,NAVAL COLONY,Ameer Motor Driving Training School,24.9395366,66.9368611,OPERATIONAL,"point_of_interest, establishment"
ChIJiShatR1rsz4RKsd2m4e8xhU,NAVAL COLONY,Mazharul Uloom,24.95544079999999,66.948223,OPERATIONAL,"school, point_of_interest, establishment"
ChIJfSCbMTxrsz4Rc2jdvHvZfm4,NAVAL COLONY,Meezan Bank - Hub River Road Branch,24.9435919,66.93440799999999,OPERATIONAL,"bank, atm, finance, point_of_interest, establishment"
ChIJRUTMPQBrsz4RiorohOA9TN8,NAVAL COLONY,Jama masjid Quba,24.9457941,66.93719639999999,OPERATIONAL,"mosque, place_of_worship, point_of_interest, establishment"
ChIJmyw_rCNrsz4RsqmxYTEPH4g,NAVAL COLONY,AC repair and all electronics,24.945792,66.9371931,OPERATIONAL,"point_of_interest, establishment"
ChIJc2V2Ud5rsz4RVId1wd7uK8Q,NAVAL COLONY,Mashallah electronics neval calony,24.94582329999999,66.9372617,OPERATIONAL,"point_of_interest, establishment"
ChIJW2fe54Vrsz4RnFhrSfWjO58,NAVAL COLONY,Haq Paints (Gobi's & Berger),24.9458125,66.9371875,OPERATIONAL,"general_contractor, point_of_interest, establishment"
ChIJTW2zSABrsz4RWzLQbTZgIC8,NAVAL COLONY,Azad construction &Associats,24.9460178,66.9371096,OPERATIONAL,"point_of_interest, establishment"
ChIJPbYNYwBrsz4Ro0CFxZ-IJIM,ITEEHAD TOWN,Jama Masjid Khalid bin Waleed,24.9563605,66.936688,OPERATIONAL,"mosque, place_of_worship, point_of_interest, establishment"
ChIJ-c8UFpBrsz4RxRc8CGk2ngw,ITEEHAD TOWN,SSG RAJPUT HOUSE,24.9574358,66.9370158,OPERATIONAL,"storage, point_of_interest, establishment"
ChIJidEnQntrsz4R_amO3hIvVas,ITEEHAD TOWN,Mir Irani products,24.9557666,66.93531209999999,OPERATIONAL,"bakery, food, point_of_interest, store, establishment"
ChIJaWU9-P9qsz4RYvEDRrhQCBs,ITEEHAD TOWN,Noor Islam,24.97128039999999,66.9518745,OPERATIONAL,"travel_agency, point_of_interest, establishment"
ChIJcWws2Kprsz4R73YYPQ3viFc,ITEEHAD TOWN,Al Farooq Steel Industries,24.9737936,66.9503738,OPERATIONAL,"point_of_interest, establishment"
ChIJcTyeX9tqsz4Rs63Cyp0QLrU,ITEEHAD TOWN,Al Rehman Publlic School,24.9749609,66.9500951,OPERATIONAL,"school, point_of_interest, establishment"
ChIJMdIGO1Vqsz4R7qAFSP8IT_k,ITEEHAD TOWN,M.ishaq and Sons Jewellers,24.973405,66.9521743,OPERATIONAL,"shopping_mall, point_of_interest, establishment"
ChIJ2d71M_xqsz4Rwhq1NlUJOmk,ITEEHAD TOWN,Tex Trade Services Pvt. Ltd,24.9653231,66.9547512,OPERATIONAL,"point_of_interest, establishment"
ChIJd90zBv9qsz4RCbDzR1Y_QxQ,ITEEHAD TOWN,esahulat 62266,24.969622,66.95429469999999,OPERATIONAL,"point_of_interest, establishment"
ChIJ8Qei_1Rqsz4R9WptOOPyFiU,ITEEHAD TOWN,Khurram Grinding,24.974699,66.954031,OPERATIONAL,"point_of_interest, establishment"
ChIJjRUhIy5rsz4RuPxZkPDNeZ8,ITEEHAD TOWN,Hill view residency,24.9662268,66.9367556,OPERATIONAL,"point_of_interest, establishment"
ChIJF-MxrQBrsz4RqQn8GLO4F-M,ITEEHAD TOWN,ABC XYZ Clothing store,24.9654832,66.9394434,OPERATIONAL,"clothing_store, point_of_interest, store, establishment"
