Place ID,Brick Name,Business Name,Latitude,Longitude,Type,Status,Address,Rating,User Ratings,Category
ChIJM4uSX4MaGTkRdxTDF-2W05Q,SUKH NEHAR STOP,Chanan Din Memorial Welfare Hospital,31.6047163,74.3998567,hospital,OPERATIONAL,"Service Rd, Lakhodher, Lahore",5.0,3,AzizBhatti
ChIJDylbvJwaGTkRE30Dhel7NkU,SUKH NEHAR STOP,Public Welfare Hospital & Maternity Centre,31.6023559,74.4007577,hospital,OPERATIONAL,"Mehmood Booti, Lahore",4.0,1,AzizBhatti
ChIJq-2VowMQGTkRyJU-D6ULaWY,HARBANS PURA RIGHT,Mukhtaran Rafiq Welfare Hospital,31.5756642,74.4140591,hospital,OPERATIONAL,"146,Saeed Block Canal Bank Housing Scheme, Fatehgarh, Lahore",3.8,77,AzizBhatti
ChIJMd9qwJMRGTkRceN4dDdr7hA,HARBANS PURA RIGHT,Miraj Din Welfare Hospital,31.5761202,74.4140568,hospital,OPERATIONAL,"HCG7+CJV, Unnamed Road, Godianwala Canal Bank Housing Scheme, Lahore",5.0,1,AzizBhatti
ChIJwVvRLdcPGTkRt35ptKP0298,TAJ BAGH RIGHT,Lal Din welfare Foundation,31.5701876,74.4431895,hospital,OPERATIONAL,"Mehtab Park Street, 20 Main Bazar Canal Park, Asim Town, Lahore",4.0,3,AzizBhatti
ChIJI6RlcwIQGTkRoaOPie0Umz0,HARBANS PURA RIGHT,Fazal Din Welfare Hospital,31.5720551,74.4131148,hospital,OPERATIONAL,"HCC7+R6H, Fatehgarh, Lahore",4.3,4,AzizBhatti
ChIJt8p2_OAPGTkRglk-gRbl3i8,HARBANS PURA LEFT,Gulzar Majeed Welfare Trust Hospital,31.5699375,74.4265625,hospital,OPERATIONAL,"Harbanspura, Lahore",4.2,93,AzizBhatti
ChIJ2a6a8O0bGTkRjmhOZhsaWNA,HARBANS PURA RIGHT,Al Mayeda Welfare Medical Center,31.5751711,74.42517450000001,hospital,OPERATIONAL,"Iftkhar Park, Madina Colony, Lahore",0.0,0,AzizBhatti
ChIJ9QGSdaIRGTkRMYBlrxD9mwY,HARBANS PURA RIGHT,HAFIZ MEDICAL CENTER,31.5882203,74.4304885,hospital,OPERATIONAL,"HCQJ+75Q, chungi warra sattar near Quaid e azam interchange, GT Rd, Wara Sittar, Lahore",4.3,3,AzizBhatti
ChIJfRKg6W8RGTkRLj8KtEDAudQ,SUKH NEHAR STOP,Amanat Clinic & Maternity Home,31.6037962,74.4091833,hospital,OPERATIONAL,"Haidri St, Mominpur, Lahore",5.0,18,AzizBhatti
ChIJAzFvtvwPGTkRsjoOryiwh4Y,HARBANS PURA LEFT,"Canal Medical Center, New Canal Park, Lahore",31.5678517,74.41695469999999,hospital,OPERATIONAL,"HC98+4QW, Sami Town Taj Bagh Scheme, Lahore",4.3,3,AzizBhatti
ChIJE061owMQGTkR3Js20AwLmJo,HARBANS PURA RIGHT,MUKHTARAN RAFIQ FOUNDATION,31.5720837,74.4129713,hospital,OPERATIONAL,"146, Saeed Block Canal Bank Housing Scheme, Fatehgarh, Lahore",4.0,13,AzizBhatti
ChIJE5lHjtERGTkRjaisS4jzI8c,HARBANS PURA RIGHT,Dr. Faheem Qaiser Clinic,31.5841777,74.409032,doctor,OPERATIONAL,"Main Sue Wala Rd, Gate No.1, near Shalimar Housing Scheme, Lahore",0.0,0,AzizBhatti
ChIJA0qusHERGTkRMW0OiehPLGM,HARBANS PURA RIGHT,Al hussain medical and Dental clinic,31.5754375,74.4254375,doctor,OPERATIONAL,"Harbanspura, Lahore",3.0,2,AzizBhatti
ChIJ5xrhLC4RGTkRxfDM2rGyke4,HARBANS PURA RIGHT,Dr Riaz subhani clinic,31.5822295,74.4175814,doctor,OPERATIONAL,"HCJ9+W29, Salamatpura Lahore",5.0,1,AzizBhatti
ChIJE7T2bO4RGTkRHQA2FTxIdx8,HARBANS PURA RIGHT,Kamran Clinic Homeopathic,31.5819352,74.4162052,doctor,OPERATIONAL,"HCJ8+QFH, Street No. 1, Salamatpura Lahore",4.5,2,AzizBhatti
ChIJzVux62wRGTkRgsdcRF6C-JA,HARBANS PURA RIGHT,Ayesha Family and Gynae Clinic,31.584332,74.4072485,doctor,OPERATIONAL,"HCM4+PVQ, Zaitoon Colony, Lahore",0.0,0,AzizBhatti
ChIJS0WM2YoRGTkR-FXLwSZQvs4,HARBANS PURA RIGHT,Bismillah Medicle Store,31.5919172,74.42161759999999,pharmacy,OPERATIONAL,"HCRC+QJ9, Wahga Town, Lahore",5.0,1,AzizBhatti
ChIJZc6UEAARGTkRT2dkDFIfMis,HARBANS PURA RIGHT,Mushtaq Pharmacy & General Store,31.5876535,74.4126605,pharmacy,OPERATIONAL,"Grand Trunk Rd, Daroghe Wala, Lahore",4.8,13,AzizBhatti
ChIJ69Un5ggQGTkRSwTKNmxFWOM,HARBANS PURA RIGHT,Ahmed Medical Store,31.5844857,74.409562,pharmacy,OPERATIONAL,"HCM5+QRV, Sue Wala Rd, Zaitoon Colony Lahore",4.6,5,AzizBhatti
ChIJZ-XafxIRGTkRIFU6P6ErCUk,SUKH NEHAR STOP,Mian Medical Store,31.5975826,74.41331699999999,pharmacy,OPERATIONAL,"HCX7+28P, Mominpura Rd, Wahga Town, Lahore",5.0,2,AzizBhatti
ChIJEX2SJi4RGTkRo-q9Zw1wr6I,HARBANS PURA RIGHT,Waseem Pharmacy & General Store,31.5853386,74.4227595,pharmacy,OPERATIONAL,Shop 3 Kareem Nagar Salamatpura Near Jamia Masjid Hanfia Ghousia Kareem Nagar,5.0,2,AzizBhatti
ChIJOwL1dGkRGTkRHFg7b4FgCLk,HARBANS PURA RIGHT,DocMorris Pharma Plus,31.5895096,74.4258856,pharmacy,OPERATIONAL,"Orange line Station number 2, GT Rd, Lahore",4.2,5,AzizBhatti
ChIJed3jhA4QGTkRTQ7Rq6JIsXY,HARBANS PURA RIGHT,Humza Medical & General Store,31.58795,74.41384,pharmacy,OPERATIONAL,"HCQ7+5GP, GT Rd Slamatpura, Aziz Bhatti Town, Lahore",3.0,1,AzizBhatti
ChIJHf-QtsYRGTkRQNrZYd7N10c,HARBANS PURA RIGHT,Kunooz Pharmacy,31.5896626,74.4274472,pharmacy,OPERATIONAL,"Main GT Rd, near Quaid E Azam Road, interchange, Lahore",5.0,15,AzizBhatti
ChIJAXu4-j0QGTkRZEPwwf1KNho,HARBANS PURA RIGHT,New M Bashir Pharmacy,31.5899215,74.4297733,pharmacy,OPERATIONAL,"HCQH+XW6, Service Road, Wahga Town, Lahore",5.0,1,AzizBhatti
ChIJn91CmtYRGTkRCC8JEmA3qts,HARBANS PURA RIGHT,Manzoor Pharmacy,31.58530039999999,74.4226382,pharmacy,OPERATIONAL,"HCPF+43C, Unnamed Road, Harbanspura, Lahore",0.0,0,AzizBhatti
ChIJqwAPr9oRGTkRodaXvjnAcvU,HARBANS PURA RIGHT,Qasmi Pharmacy,31.59047889999999,74.42190409999999,pharmacy,OPERATIONAL,"HCRC+5QR, GT Rd, opposite Eden high school islam park, gulbahar town, Lahore",0.0,0,AzizBhatti
ChIJp4zP-r0RGTkRP98tzRx79HA,HARBANS PURA RIGHT,HEALTH PHARMACY,31.5894007,74.4334877,pharmacy,OPERATIONAL,"HCQM+QC6, Quaid e Azam interchange, near byco petrol pump, Wara Sittar, Lahore",5.0,1,AzizBhatti
ChIJeS-Ji2YRGTkRNdpOe3zYqNw,HARBANS PURA RIGHT,Subhan Pharmacy,31.5848267,74.4128521,pharmacy,OPERATIONAL,"HCM7+W4Q Pulli Deen Daran, Sue Wala Rd, Zaitoon Colony, Lahore",4.0,4,AzizBhatti
ChIJJYWiYwARGTkR4sTzUxzpamI,HARBANS PURA RIGHT,Khalid Pharmacy,31.58256919999999,74.4131803,pharmacy,OPERATIONAL,"HCM7+27F, Street No. 1, Shalimar Housing Scheme Lahore",5.0,6,AzizBhatti
ChIJkfgheAAbGTkRY5w4-X55g9M,SUKH NEHAR STOP,Arham medical clinic and gayne center,31.5964844,74.4032919,hospital,OPERATIONAL,"Panj peer darbar alam town, Shadi Pura Wahga Town, Lahore",0.0,0,AzizBhatti
ChIJV4A-LpwaGTkRAUvTiiTN9Qc,SUKH NEHAR STOP,"CDGL, MCH Center",31.598771,74.4022593,hospital,OPERATIONAL,"HCX2+GW2, Shadi Pura Shadipura, Lahore",0.0,0,AzizBhatti
ChIJsSaANAARGTkRZSA9aG7FdzM,SUKH NEHAR STOP,CH Medical Store,31.6056604,74.4136374,pharmacy,OPERATIONAL,"JC47+6FR, Shareef Pura Rd, Shareef Pura Sharif Pura, Lahore",0.0,0,AzizBhatti
ChIJ48SQx6ARGTkRu-1hprjrQcM,SUKH NEHAR STOP,Ali raza medical store,31.606033,74.4143725,pharmacy,OPERATIONAL,"JC47+CQ6, Shareef Pura Mominpura, Lahore",0.0,0,AzizBhatti
ChIJkTEsx3MQGTkRng1Cg8XGUF4,SUKH NEHAR STOP,Yasir Medical And Genral Store,31.6039449,74.4143752,pharmacy,OPERATIONAL,"JC37+HQC Ahmed town, Shareef Pura Mominpur, Lahore",5.0,2,AzizBhatti
ChIJP-nR8ogRGTkRt_9sdWxuW0o,SUKH NEHAR STOP,Zayan Medical Store,31.60343259999999,74.4142717,pharmacy,OPERATIONAL,"JC37+9PM Ahmed Town, near Shareef pura, Shareef Pura Mominpur, Lahore",5.0,1,AzizBhatti
ChIJX6XsvnAQGTkRL0YawvsEz1M,SUKH NEHAR STOP,Naimat Pharmacy,31.6046499,74.4123421,pharmacy,OPERATIONAL,"JC36+VW3، Ahmad Town Road, Ahmad Town, Mominpur, Lahore",4.8,5,AzizBhatti
ChIJVy9Sf34RGTkRJNzJTKyuXjs,SUKH NEHAR STOP,Hafiz medical stor sharif pura,31.6061082,74.414795,pharmacy,OPERATIONAL,"JC47+CWV, Sharif Pura, Lahore",4.3,4,AzizBhatti
ChIJ12FQIAARGTkRw-sVdf91kkQ,SUKH NEHAR STOP,Asghar Sons Pharmacy,31.6086799,74.4214161,pharmacy,OPERATIONAL,"Shope num 1, bheini road, near Sharif Pura Underpass, Wahga Town, Lahore",5.0,1,AzizBhatti
ChIJXZECVgARGTkRJnihh4vH_pM,SUKH NEHAR STOP,Bhai Jan pharmacy plus,31.6056922,74.41381109999999,pharmacy,OPERATIONAL,"JC47+7GV, Shareef Pura Rd, Shareef Pura Sharif Pura, Lahore",5.0,3,AzizBhatti
ChIJnzaUTgAPGTkRby_G3WzEP-Q,BUTT CHOWK TAJPURA,Dua Medical & Gyne Center,31.5545225,74.4268984,hospital,OPERATIONAL,"Sultan St, near Golden Masjid, Aziz Bhatti Town, Lahore",3.7,3,AzizBhatti
ChIJmQzkMroPGTkRdy1p3V8GvKg,DAYAL HOUSE RIGHT,Garrison Health Center,31.5459918,74.4384074,hospital,OPERATIONAL,"GCWQ+99V, Lahore",0.0,0,AzizBhatti
ChIJ3aDXWG8PGTkR2d1aYtPFfQQ,DAYAL HOUSE RIGHT,Pulse Medical Complex,31.5258722,74.45356749999999,hospital,OPERATIONAL,"36-S, Commercial Zone, Barki Rd, Imperial Garden Homes Paragon City, Lahore",3.4,24,AzizBhatti
ChIJ7e4A7SAPGTkRrqD1Waq_xQs,DAYAL HOUSE RIGHT,MedEast Hospital,31.5318478,74.4537879,hospital,OPERATIONAL,"C-1, Office Block, Commercial Paragon City, Lahore",4.9,129,AzizBhatti
ChIJr7HF5JkPGTkR-lEO6fXJsPo,DAYAL HOUSE RIGHT,Care Medical Center,31.5342693,74.45186369999999,hospital,OPERATIONAL,"Office Block, 71, Paragon City, Lahore",0.0,0,AzizBhatti
ChIJmXVjGPEPGTkR0Ek8z_DuvLU,DAYAL HOUSE RIGHT,Rasheed Akhtar Hospital (RAH),31.5230049,74.45095169999999,hospital,OPERATIONAL,"Paragon city gate 2, 8 Barki Rd, opposite DHA, phase Lahore",4.1,34,AzizBhatti
ChIJARuCqswPGTkRpci_aQT5UD4,BUTT CHOWK TAJPURA,Al Shifa Medical Center,31.55380419999999,74.4270976,hospital,OPERATIONAL,"HC3G+GRX, Aziz Bhatti Town, Lahore",4.0,4,AzizBhatti
ChIJN-WmIgcPGTkRhfpJ6w8Ohcg,DAYAL HOUSE RIGHT,EPI Center RHD Dograi khurd,31.5289877,74.4452491,hospital,OPERATIONAL,"GCHW+H3X, Dograi Lahore",5.0,1,AzizBhatti
ChIJ_bH8MCEPGTkRViHRjL6UKig,DAYAL HOUSE RIGHT,Perfections 360,31.5268979,74.4470793,doctor,OPERATIONAL,"Perfections 360, grove block, Barki Rd, above Alhadi Medical Centre, near gate one, Paragon City, Lahore",4.3,210,AzizBhatti
ChIJjauLlNoPGTkRAaYOjn9s4FI,DAYAL HOUSE RIGHT,PAK MEDICOSE PHARMACY,31.53204,74.4525627,pharmacy,OPERATIONAL,Bhatta chowk,0.0,0,AzizBhatti
ChIJE-xsOecPGTkRZFK4xZDr7Os,DAYAL HOUSE RIGHT,Forces pharmacy & skin care,31.5315851,74.453127,pharmacy,OPERATIONAL,"94, Broadway Commercial, Paragon City, Lahore",0.0,0,AzizBhatti
ChIJ91bhFQAPGTkRuYj3ntbKgVc,DAYAL HOUSE RIGHT,Paragon Pharmacy,31.53035,74.45313449999999,pharmacy,OPERATIONAL,"Shop No. 1, Zara Mall, Commercial Broadway (Rountdabout, Paragon City, Lahore",0.0,0,AzizBhatti
ChIJ_-9lkpIPGTkRZG6MX4SoqR0,DAYAL HOUSE RIGHT,Auro Pharmacy,31.5305539,74.4514238,pharmacy,OPERATIONAL,"near Alfath store, Paragon City, Lahore",5.0,4,AzizBhatti
ChIJM5ewCWAPGTkR7vQx0MPi6Ys,DAYAL HOUSE RIGHT,Al Hadi Pharmacy,31.5268449,74.4460378,pharmacy,OPERATIONAL,"Shop 3, gate no 1 Barki Rd, Dograi Paragon City, Lahore",0.0,0,AzizBhatti
ChIJjelHPQEPGTkRmSvOqvy3Yzs,DAYAL HOUSE RIGHT,CROWN CARE Dentistry | Dental Clinic | Dentist | DHA | Lahore |,31.531113,74.4538179,dentist,OPERATIONAL,"36 commercial broadway, Paragon City, Lahore",5.0,116,AzizBhatti
ChIJbw0-G9gRGTkRLKeUtWeTKV4,AWAN TOWN,Nagina hospital,31.5816875,74.4629375,hospital,OPERATIONAL,"Lahore Medical & Dental College Rd, Lahore Medical Housing Society, Lahore",5.0,7,AzizBhatti
ChIJQacU_ikQGTkRJ0bXJlLzqe0,AWAN TOWN,Alfalah medical center,31.5764188,74.4463253,hospital,OPERATIONAL,"HCGW+HG8, Nawabpura Lahore Press Club Housing Scheme, Lahore",5.0,5,AzizBhatti
ChIJCZk9Z9gPGTkRPGBkqH1IWoo,AWAN TOWN,Hameeda Ashiq Gujjar Free Hospital,31.574472,74.437764,hospital,OPERATIONAL,"HCFQ+Q4J, Service Road, Asim Town, Lahore",3.9,7,AzizBhatti
ChIJR_0qSh4QGTkR94PoEkSncBc,HARBANS PURA RIGHT,"Ehsan Clinic,HarbancePura,Lahore",31.574578,74.42591809999999,hospital,OPERATIONAL,"HCFG+R9M, Harbanspura, Lahore",3.0,8,AzizBhatti
ChIJEZ6IA8gPGTkRbmIIcgsIikU,HARBANS PURA LEFT,Zahid Medical Clinic,31.5624457,74.4330423,doctor,OPERATIONAL,"Street no 5, Peer Nasir Pir Naseer Aziz Bhatti Town, Lahore",0.0,0,AzizBhatti
ChIJraF5DV3_GDkRZbNfXeRPvnU,TAJ BAGH RIGHT,MEDCARE PHARMACY,31.5728916,74.44765799999999,pharmacy,OPERATIONAL,"A block A, Hajvery Housing Scheme harbanspura, Lahore",5.0,1,AzizBhatti
ChIJvwqAhPoRGTkRJEn9bl-yvzk,TAJ BAGH RIGHT,H.A pharmacy,31.5734182,74.438236,pharmacy,OPERATIONAL,"Mean Service Road, nawa pind Harbanspura, Lahore",0.0,0,AzizBhatti
ChIJl_e_nNIPGTkRmPZ2iyuM9RY,TAJ BAGH RIGHT,Naeem pharmacy,31.5735341,74.438737,pharmacy,OPERATIONAL,"near hajvery datamilk shop, Nawa pind Asim Town, Lahore",2.8,4,AzizBhatti
ChIJHTI-dQARGTkR0Pfy0F6ce3s,MANAWAN MAIN BAZAR,Kishwar Medical Center ( KMC ),31.5977593,74.4531245,hospital,OPERATIONAL,"Sooter Mills Rd, Makkah Garden, Lahore",5.0,1,AzizBhatti
ChIJWSn2684RGTkR99Upu3qkIE4,AWAN TOWN,Manawan Hospital,31.591769,74.45864019999999,hospital,OPERATIONAL,"Grand Trunk Rd, Bata Pur, Lahore",3.8,184,AzizBhatti
ChIJMewD0_AdGTkRHiAR7qTPqwY,MANAWAN MAIN BAZAR,Umer Child & Mothercare Complex,31.5930851,74.4660628,hospital,OPERATIONAL,"& Fisheries Complex, HFV8+6FM Jump Wali Pul, near Total Petrol Pump, Manawan, Lahore",5.0,8,AzizBhatti
ChIJ2dssfNoRGTkRNar3BP-A-jk,AWAN TOWN,Al shifaa Clinic and Medical Laboratory,31.5862278,74.46468610000001,doctor,OPERATIONAL,"hostel, Main Market of Lahore medical and dental scheme opposite, Main Market, Lahore",4.0,3,AzizBhatti
ChIJvXe2hhYRGTkRmEEAx0r38xA,AWAN TOWN,Punjab Ultrasound and Poly Clinic,31.5795023,74.4440072,doctor,OPERATIONAL,"92 E block, Dr Aftab Road, Lahore Press Club housing scheme harbanspura, Lahore",5.0,3,AzizBhatti
ChIJOcgurfURGTkRf6EnVaOZ2wo,MANAWAN MAIN BAZAR,Ayan Clinic,31.5959034,74.45313279999999,doctor,OPERATIONAL,"Sooter Mills Rd, Al-Rehman Garden Phase 3 Phase 3 Al Rehman Garden, Lahore",5.0,1,AzizBhatti
ChIJU5HMxzAQGTkRi0WD121uyg4,MANAWAN MAIN BAZAR,Madina Medical Store,31.5912597,74.44247760000002,pharmacy,OPERATIONAL,"Mominpura, Lahore",2.0,1,AzizBhatti
ChIJlUP7xU4RGTkR3VfZE84KLqg,MANAWAN MAIN BAZAR,Sheraz medical and general store,31.5947491,74.4574751,pharmacy,OPERATIONAL,"HFV4+VXX, Yadgar Rd, near gopalpura, manawah, Phase 2 Al Ghani Garden, Lahore",0.0,0,AzizBhatti
ChIJ376JPSERGTkRj9HizKISjb8,MANAWAN MAIN BAZAR,B Plus Pharmacy & Medical Store,31.5928007,74.4580959,pharmacy,OPERATIONAL,"HFV5+469, Manāwān Phase 2 Al Ghani Garden, Lahore",5.0,2,AzizBhatti
ChIJi2wusJ0RGTkRW241L7_kjm4,MANAWAN MAIN BAZAR,Noorani Medical & General Store,31.5905256,74.4429831,pharmacy,OPERATIONAL,"Main Bazar Ada Chabeel, GT Rd, Jhuggian Mazang Pind, Lahore",4.6,9,AzizBhatti
ChIJHUzy-DIRGTkRFvz0cv1rZ4U,MANAWAN MAIN BAZAR,AL SHAAFI MEDICAL AND GENRAL STORE,31.5907676,74.4427961,pharmacy,OPERATIONAL,"HCRV+844 Adda Chabeel, Jhuggian Mazang Pind, Lahore",5.0,2,AzizBhatti
ChIJ0_tSNxgRGTkRBZjZ6fqQ2dE,MANAWAN MAIN BAZAR,Abdullah Homoeo store,31.5917584,74.4510167,pharmacy,OPERATIONAL,"GT Rd, Daroghawala, Lahore",0.0,0,AzizBhatti
ChIJVf6jEJ0RGTkRy6l1hjdDVQQ,MANAWAN MAIN BAZAR,Mahmood Pharmacy,31.5926473,74.455665,pharmacy,OPERATIONAL,"Sooter Mill, Main Grand Trunk Rd, near Manawan, Stop Tamhara Kot Pind, Lahore",0.0,0,AzizBhatti
ChIJe90YeloRGTkRf7ckVhyPf1o,MANAWAN MAIN BAZAR,Gloria Plus Pharmacy,31.5963714,74.43858469999999,pharmacy,OPERATIONAL,"D، Dera Gujran, Alraheem Garden، H.A Main Boulevard, D.H.A Phase 5 Dera Gujran, Lahore",0.0,0,AzizBhatti
ChIJvw_l0VURGTkRcQ_AK6gQn68,AWAN TOWN,Times Pharmacy +,31.5883714,74.43706,pharmacy,OPERATIONAL,"Grand Trunk Rd, near Quaid E Azam Road, interchange, Lahore",5.0,3,AzizBhatti
ChIJezZgdEURGTkRLFMtRTnoCH4,MANAWAN MAIN BAZAR,Jalal Din Pharmacy,31.5905464,74.4406468,pharmacy,OPERATIONAL,"Adda Shabeel, near Jalal Park, Jhuggian Mazang Pind, Lahore",3.0,1,AzizBhatti
ChIJvTzgW4sRGTkRpqqPJaPiJhE,TAJ BAGH RIGHT,Supreme Pharmacy,31.5785879,74.4592076,pharmacy,OPERATIONAL,"Near Deyal House, Main Bazar Canal Park, Tulspura Harbanspura, Lahore",4.2,10,AzizBhatti
ChIJyfluyM0RGTkRN6NQGV2w5PQ,MANAWAN MAIN BAZAR,Green Pharmacy,31.5922178,74.4528205,pharmacy,CLOSED_TEMPORARILY,"Utility Store Sooter Mill, Service Road, Main Grand Trunk Rd, Manwan",5.0,3,AzizBhatti
ChIJyVISujAQGTkRlNMndkBqJfM,MANAWAN MAIN BAZAR,Sabri Dawakhana,31.5911868,74.4418604,pharmacy,OPERATIONAL,"Dera Gujran, Lahore",0.0,0,AzizBhatti
ChIJiWkaMhMRGTkR5qm3K4N9LWs,MANAWAN MAIN BAZAR,b+care pharmacy opposite munawa hospital maing G T Road Lahore,31.5927884,74.457974,pharmacy,OPERATIONAL,"main GT Rd, opp. munawa hospital, Phase 2 Al Ghani Garden, Lahore",0.0,0,AzizBhatti
ChIJg_VkpIERGTkR0kvct3-BfAU,MANAWAN MAIN BAZAR,Rehan Medical & General Store,31.6037407,74.45456159999999,pharmacy,OPERATIONAL,"JF33+FRV، Momin Pura Road, Chowk Hakeema Wala, Taij Garh. Post Office, Rasoolpura Pind, Lahore",4.0,4,AzizBhatti
ChIJH0NVVrQPGTkRdRKe0qD4izM,DAYAL HOUSE RIGHT,Zafar Hospital,31.5183774,74.4571196,hospital,OPERATIONAL,"Main Barki Rd, near paragon city, Pathānwāla Green City, Lahore",4.1,70,AzizBhatti
ChIJeRhMIvUPGTkRy95absvV_8A,DAYAL HOUSE RIGHT,Paragon Medical Complex,31.5255812,74.45301909999999,hospital,OPERATIONAL,"45 imperial block, Paragon City, Lahore",4.6,11,AzizBhatti
ChIJBxrGKQIPGTkRm70WYyy_w2w,DAYAL HOUSE RIGHT,Eleven pharmacy green city branch,31.516641,74.45986049999999,pharmacy,OPERATIONAL,"Green City Commercial Area, Green City, Lahore",3.1,8,AzizBhatti
ChIJ51hdYAMOGTkRPUkjbATQ2kA,DAYAL HOUSE RIGHT,Basic Health Center Jallo Park,31.5754303,74.4888376,hospital,OPERATIONAL,"HFGQ+5GG, Jallo Park Access Rd, Jallo Village Lahore",2.0,1,AzizBhatti
ChIJtwFzamYPGTkRuzPJMqJIK0w,TAJ BAGH RIGHT,Al Ehsan Welfare Eye Hospital,31.580911,74.4765608,hospital,OPERATIONAL,"HFJG+9J7, Al-Rehman Garden Phase 4 Phase 4 Rehman Gardens, Lahore",5.0,2,AzizBhatti
ChIJ64dLgZcPGTkRerYt-HCUCXM,TAJ BAGH RIGHT,Al-Ghani Clinic and Rehabilitation Center,31.5804395,74.4917826,hospital,OPERATIONAL,"IBL Main Rd, near GOL MASID, IBL Housing Scheme, Lahore",5.0,2,AzizBhatti
ChIJlR4HOpsRGTkRE0jvOP-SbyM,TAJ BAGH RIGHT,Indigo care hospital,31.5787758,74.4596328,hospital,OPERATIONAL,"Main Canal Road Diyal House Stop, near Supreme Pharmacy, Tulspura, Lahore",3.5,11,AzizBhatti
ChIJuZaCCQARGTkRsNn_-_BF0UQ,TAJ BAGH RIGHT,I2H Healthcare,31.5792814,74.46230849999999,hospital,OPERATIONAL,"HFH6+PW7, Canal Rd, Lahore Medical Housing Society, Lahore",0.0,0,AzizBhatti
ChIJnQh8wwYOGTkRwEY6JujX7EM,DAYAL HOUSE RIGHT,"Family Health Center Jallo, Rahnuma FPAP",31.5752937,74.4956413,hospital,OPERATIONAL,"HFGW+476, Jallo Village Jallo",3.0,1,AzizBhatti
ChIJWzQfk2sRGTkRXucSTlCbHZo,MANAWAN MAIN BAZAR,Family Care Clinic Pharmacy فیملی کیئرکلینک فارمیسی,31.5944567,74.4741956,hospital,OPERATIONAL,"Main GT Road, Entrance, near Al Raheem Garden, Phase 4 Manawan, Lahore",3.0,2,AzizBhatti
ChIJWQwM7ZoRGTkRNaICqUDB0Dw,AWAN TOWN,Anfal medical center,31.58683629999999,74.4728741,hospital,OPERATIONAL,"HFPF+P4Q، عمر خان روڈ, Bata Pur, Lahore",5.0,4,AzizBhatti
ChIJX-4rYNkRGTkRezBAJ90SKNw,MANAWAN MAIN BAZAR,Warraich Medical Complex,31.6061037,74.4798983,hospital,OPERATIONAL,"201, Al Rehman Commercial, Main Boulevard Rd, Bismillah Housing Scheme Fahad Town Lahore",5.0,1,AzizBhatti
ChIJ1dcuXnERGTkR551derEBV9Y,AWAN TOWN,AL FAYZAN CLINIC الفیضان ہومیو پیتھک کلینک,31.5923229,74.4674308,doctor,OPERATIONAL,"HFR8+WXF, Al Hafeez Garden, GT Rd, Bata Pur, Lahore",5.0,8,AzizBhatti
ChIJHbUyxT8RGTkRIxLMkEvJTyI,TAJ BAGH RIGHT,Muzaffar clinic & medical store,31.5801789,74.4758774,doctor,OPERATIONAL,"HFJG+29R, Unnamed Road, Al-Rehman Garden Phase 4 Phase 4 Al Rehman Garden, Lahore",4.8,4,AzizBhatti
ChIJ_2za5tkRGTkRW6tAWit8r1M,AWAN TOWN,Tariq homeopathic clinic,31.5891894,74.4780218,doctor,OPERATIONAL,"near Chandni chock, Manāwān Manawan, Lahore",0.0,0,AzizBhatti
ChIJIQTo4t8PGTkRQwFkPITJ-kA,TAJ BAGH RIGHT,Hammad Homeophathic chor,31.5773747,74.4602409,doctor,OPERATIONAL,"HFG6+W3X, Unnamed Road, Royal Garden, Lahore",5.0,2,AzizBhatti
ChIJSdMP6qQRGTkRlK-F6ucEMxs,AWAN TOWN,Noor Medical Store,31.5851557,74.4646389,pharmacy,OPERATIONAL,"7, B Block Lahore Medical Housing Society, Lahore",5.0,1,AzizBhatti
ChIJzyfBOQ8RGTkRfYzAFhL9EOg,AWAN TOWN,Malik pharmacy & general store,31.5843613,74.4822241,pharmacy,OPERATIONAL,"Uc, Main, 108 road, near skyland, Manawan, Lahore",0.0,0,AzizBhatti
ChIJWaz0UAARGTkR3uzYYnU9FsY,MANAWAN MAIN BAZAR,Punjab medical store,31.5941025,74.4755756,pharmacy,OPERATIONAL,"HFVG+J6W, GT Rd, Manawan, Lahore",5.0,3,AzizBhatti
ChIJG845IwARGTkRL8Lf5paYQhM,AWAN TOWN,My chemist,31.5897244,74.48040519999999,pharmacy,OPERATIONAL,"HFQJ+W52 Chand I chowk, Manāwān Manawan, Lahore",0.0,0,AzizBhatti
ChIJp0SsHAARGTkRsgmZ0rZiEaM,AWAN TOWN,Mian Medical Store,31.5867288,74.4821537,pharmacy,OPERATIONAL,"HFPJ+MVW, Rampura, Lahore",0.0,0,AzizBhatti
ChIJO8xfMukRGTkR-Kmnt7AxVFg,MANAWAN MAIN BAZAR,"Zain Medical Store (Batapur, Lahore)",31.5946931,74.4817616,pharmacy,OPERATIONAL,"HFVJ+VPH, GT Rd, Rāmpura Rampura, Lahore",4.6,7,AzizBhatti
ChIJjX8FdDYRGTkR2ZemNDyZTSk,MANAWAN MAIN BAZAR,Zain Medical Store,31.5954556,74.4834003,pharmacy,OPERATIONAL,"HFWM+59J, Service Road, Attoke Awan, Lahore",5.0,1,AzizBhatti
ChIJC7x8bRARGTkR0YDP4skwa0k,AWAN TOWN,Al aser pharmacy,31.5837283,74.4629212,pharmacy,OPERATIONAL,"Shop no 26 Usman Ghani Road LMDC, Lahore Medical Housing Society, Lahore",0.0,0,AzizBhatti
ChIJU4luJNQRGTkRKP5HvjExcWw,MANAWAN MAIN BAZAR,Pharmachy Icha,31.5947263,74.4757411,pharmacy,OPERATIONAL,"HFVG+V7Q, Fahad Town Lahore",5.0,2,AzizBhatti
ChIJ8RQAvJoRGTkRcapje5Ariiw,AWAN TOWN,Ali CH,31.5807015,74.4645328,pharmacy,OPERATIONAL,"HFJ7+7RM Lahore Medical Scheme, Lahore Medical Housing Society Lahore",0.0,0,AzizBhatti
ChIJP9VpfAARGTkRsT5TKg1s0xU,AWAN TOWN,Hammad pharmacy,31.5874569,74.4631646,pharmacy,OPERATIONAL,"HFP7+X7M Ali Alam garden binder house, Lahore Medical & Dental College Rd, Lahore Medical Housing Society, Lahore",0.0,0,AzizBhatti
ChIJw4JmMAMRGTkRgII1sP7yCQo,MANAWAN MAIN BAZAR,Ichra pharmacy,31.5946065,74.4758808,pharmacy,OPERATIONAL,"HFVG+R9R, Fahad Town Lahore",4.8,4,AzizBhatti
ChIJ5cClpf4RGTkR66867IMsQLY,AWAN TOWN,Life Zone Pharmacy,31.5906711,74.4682698,pharmacy,OPERATIONAL,"HFR9+78, Bata Pur, Lahore",4.8,6,AzizBhatti
ChIJe_qv8NsRGTkRKgUd4axWn40,AWAN TOWN,Health Hub Pharmacy,31.5849912,74.4647059,pharmacy,OPERATIONAL,"Shop # 11-12 building commercial area, Lahore Medical Housing Society phase 1, Lahore",5.0,8,AzizBhatti
ChIJh5zm5eARGTkRTIgZwuHOsA8,MANAWAN MAIN BAZAR,Al Barkat Pharmacy البرکت فارمیسی,31.5958715,74.48100889999999,pharmacy,OPERATIONAL,"64-A Commercial Bismillah Housing Scheme, Attoke Awan, Lahore",4.5,2,AzizBhatti
ChIJz2Vv8E8RGTkR9qtUG-TMfzM,MANAWAN MAIN BAZAR,Fazal Don’s Pharma Plus,31.5952786,74.4807859,pharmacy,OPERATIONAL,"HFWJ+48C, Fahad Town Lahore",0.0,0,AzizBhatti
ChIJ-UJLEukRGTkRV43F2ZqRtKU,MANAWAN MAIN BAZAR,Ahmed Homeopathic Clinic,31.59502,74.47985,pharmacy,OPERATIONAL,Fahad Town Lahore,0.0,0,AzizBhatti
ChIJT5IHoIQHGTkRxsuBtjakejY,TAJ BAGH RIGHT,Pak Pharmacy,31.58007959999999,74.4758961,pharmacy,OPERATIONAL,"Plot 15 Main Boulevard, opposite Society Head office, Al-Rehman Garden Phase 4 Phase 4 Al Rehman Garden, Lahore",4.0,4,AzizBhatti
ChIJYdecu5YRGTkRhSniFlHSQUA,AWAN TOWN,Hammad Pharmacy,31.5869824,74.4820115,pharmacy,OPERATIONAL,"HFPJ+QRR, Manawan, Lahore",3.7,3,AzizBhatti
ChIJvw4iQwARGTkRjzm49LSwqso,AWAN TOWN,Healmed Plus Pharmacy,31.5863686,74.47297089999999,pharmacy,OPERATIONAL,"HFPF+G6R, Rizwan Gardens, Lahore",0.0,0,AzizBhatti
ChIJJ_GuSNkPGTkRQMWMExhdTyI,TAJ BAGH RIGHT,Smile Cure Dental Clinic,31.5794591,74.4759119,dentist,OPERATIONAL,"Mian Plaza, Main Road, Al-Rehman Garden Phase 4 Lahore",0.0,0,AzizBhatti
ChIJr8ygR7IOGTkRkPiYdr1xado,BARKI HADYARA,Sharif Hospital,31.4958326,74.4858852,hospital,OPERATIONAL,"Main Burki Road, DHA Phase VII، Near LSE, Bhangali Village, Lahore",4.1,38,AzizBhatti
ChIJUbJof8ELGTkR4edtOCLa1Bs,BARKI HADYARA,Ali Dental Clinic,31.47787559999999,74.50990999999999,hospital,OPERATIONAL,"Barki Rd, Durgpura Lahore",5.0,1,AzizBhatti
ChIJCRdtSOELGTkRxMoGkSEkflk,L.G.H,Khalid Pharmacy,31.477493,74.5110823,pharmacy,CLOSED_TEMPORARILY,"Barki Rd, Barki",0.0,0,AzizBhatti
ChIJe95_MoUPGTkRoz00pelP4k8,DAYAL HOUSE RIGHT,Masha Allah Pharmacy,31.5451419,74.4902723,pharmacy,OPERATIONAL,"Village Maindianwala, Main Road, Mandiana Wala Dhuri, Lahore",5.0,2,AzizBhatti
ChIJVVVVJR0SGTkR6X41NyBxehA,RAJ GARH,Malik Family Clinic,31.5944836,74.50164939999999,hospital,OPERATIONAL,"HGV2+QMR, Jallo More Lahore",3.0,1,AzizBhatti
ChIJp3FyEpETGTkRIM_nMThdbSg,RAJ GARH,Shaheen clinic,31.594573,74.5016213,doctor,OPERATIONAL,"HGV2+QMR, Jallo More Bata Pur, Lahore",0.0,0,AzizBhatti
ChIJcfZmaQISGTkR7j1ADRcpR50,GHURKI HOSPITAL,Mahmood pharmacy And General Store,31.5900486,74.5010507,pharmacy,OPERATIONAL,"opposite Ghurki Trust Teaching Hospital, Jallo More Lahore",5.0,5,AzizBhatti
ChIJqeRJoUkTGTkRbN1ADrGXlyI,GHURKI HOSPITAL,Pharmacy,31.5899833,74.50259110000002,pharmacy,OPERATIONAL,"HGR3+249, Jallo More Lahore",2.3,4,AzizBhatti
ChIJyYMbSXsBGTkRU_eUku3ekqs,GHURKI HOSPITAL,Chaudhary Pharma Plex,31.5898867,74.5011035,pharmacy,OPERATIONAL,"Opposite Ghurki Hospital, Jallo More Lahore",4.0,1,AzizBhatti
ChIJjauyMNgFGTkRBfcdNvD3-pA,TAJ BAGH RIGHT,SATTAR PHARMACY,31.5858558,74.4986685,pharmacy,OPERATIONAL,"Khaira, Lahore",5.0,5,AzizBhatti
ChIJB4eKlNgTGTkRDXksLeNGW_A,RAJ GARH,Khalid Abid Pharmacy,31.59665009999999,74.50022369999999,pharmacy,OPERATIONAL,"G.T Road Service Lane, Jallo More Lahore",0.0,0,AzizBhatti
ChIJRTyYUJoPGTkRAhneH5GwhUo,DAYAL HOUSE RIGHT,Haji Nawaz Pharmacy,31.5770034,74.4926134,pharmacy,OPERATIONAL,"Main Road Jallo، Pind, Lahore",5.0,6,AzizBhatti
ChIJ5yY8kwMOGTkRwN-_PkWXbJ4,DAYAL HOUSE RIGHT,Alkarim Medical Centre,31.5769127,74.4920331,pharmacy,OPERATIONAL,"HFGR+PRM, Jallo Rd, Jallo Village Jallo",5.0,2,AzizBhatti
ChIJLWk7skwTGTkRcCsuiG2PTgQ,RAJ GARH,GreenPlus Pharmacy,31.5944836,74.50164939999999,pharmacy,OPERATIONAL,"Shop at, opposite Ghurki Trust & Teaching Hospital, Jallo More Lahore",0.0,0,AzizBhatti
ChIJo1Ako-gLGTkRnIaU5njhx1w,L.G.H,FAISAL MEDICAL AND GENERAL STORE,31.4763092,74.51254109999999,pharmacy,OPERATIONAL,"Barki Rd, Barki Lahore",4.6,12,AzizBhatti
ChIJtRzKrrYLGTkRuECVntHmeQY,L.G.H,Habib Medical and General Store,31.4771307,74.51244319999999,pharmacy,OPERATIONAL,"Barki Main Bazar, Barki Lahore",0.0,0,AzizBhatti
ChIJFz6E7Q8LGTkRLcq1c7hd9mY,L.G.H,Kashif Bahi,31.476661,74.5124014,pharmacy,OPERATIONAL,"FGG6+MX6, Barki Lahore",0.0,0,AzizBhatti
ChIJmZY5EY4NGTkRKjgW_p7IlZg,BARKI HADYARA,Mian Family Care Clinic and Maternity Home,31.5304898,74.546084,hospital,OPERATIONAL,"near police choki, Minhala, Lahore",0.0,0,AzizBhatti
ChIJDdwtEIUNGTkRWwlNyoG9GHw,BARKI HADYARA,Arshad Medical Store,31.5484071,74.5241935,pharmacy,OPERATIONAL,"Road, Natho Ke Manhala",0.0,0,AzizBhatti
ChIJdd_njb4KGTkRCmMYtvRnT9Y,L.G.H,AMSUA TRUST HOSPITAL,31.4309813,74.57325589999999,hospital,OPERATIONAL,"Barki Rd, Lahore",3.5,6,AzizBhatti
ChIJXbeTfaALGTkRGIGfvslWuXo,L.G.H,Senior Citizen HealthCare Center,31.44793749999999,74.5575625,hospital,OPERATIONAL,"CHX5+52 Bees & Trees, Hudiara",0.0,0,AzizBhatti
ChIJjyn9RK0LGTkR4fVTwwaq46g,L.G.H,Khalid Sharif pharmacy,31.4428645,74.56955049999999,pharmacy,OPERATIONAL,"Muhala Araina, Hudiara",5.0,1,AzizBhatti
ChIJ635zQikLGTkRU2Z-VVwNMr0,L.G.H,Amir Madicos pharmacy,31.4441924,74.5652772,pharmacy,OPERATIONAL,"Chv8+m4m, Hudiara, Lahore",0.0,0,AzizBhatti
ChIJW2E83wMLGTkRP8DqwUgHKL4,L.G.H,Amjad Pharmacy & General Store,31.4403015,74.56132749999999,pharmacy,OPERATIONAL,"CHR6+4GG, Barki Rd, Hudiara",0.0,0,AzizBhatti
ChIJXfOh6jsLGTkR_A2B8foGD2g,L.G.H,Zain pharmacy,31.4412396,74.56091070000001,pharmacy,OPERATIONAL,"Barki Rd, main adda Hudiara, Lahore",0.0,0,AzizBhatti
ChIJ2TmLIwULGTkRQvcIai0dd6w,L.G.H,Ashiq Pharmacy,31.4411092,74.5607817,pharmacy,OPERATIONAL,"Bus Stop Hadyara Adda, Main Barki Rd, Hudiara, Lahore",0.0,0,AzizBhatti
ChIJj4Q0XbwPGTkRqjH1jUviSTg,BUTT CHOWK TAJPURA,HMC Hospital,31.54455369999999,74.41966630000002,hospital,OPERATIONAL,"1-A/1 Guldasht Town Lahore, Punjab A, Lahore",2.8,17,AzizBhatti
ChIJJcLSufMPGTkRtDihmCwR4VI,BUTT CHOWK TAJPURA,Zaib Clinic ; Dr Jahanzeb Khan,31.5534124,74.4136481,doctor,OPERATIONAL,"HC37+9F6, Unnamed Road, Aziz Bhatti Town, Lahore",4.9,10,AzizBhatti
ChIJfy8erq8PGTkRxWa0hj1-05k,BUTT CHOWK TAJPURA,Abdullah Medical store,31.55575189999999,74.42097609999999,pharmacy,OPERATIONAL,"HC4C+899, Yazdani Rd, Aziz Bhatti Town, Lahore",0.0,0,AzizBhatti
ChIJ____L5QPGTkRJurUhzIxRXk,BUTT CHOWK TAJPURA,Hajvery Medical Store,31.5458015,74.42532609999999,pharmacy,OPERATIONAL,"GCWG+95R, Gujjar Pura Aziz Bhatti Town, Lahore",2.0,1,AzizBhatti
ChIJbSI16OwPGTkRz7KdDEza7zE,BUTT CHOWK TAJPURA,Pakistan Medicose And General Store,31.5517956,74.42109289999999,pharmacy,OPERATIONAL,"HC2C+PC8, Hussain Rd, Aziz Bhatti Town, Lahore",4.4,5,AzizBhatti
ChIJ5SwmQQAPGTkRQSEwYvrrZaM,BUTT CHOWK TAJPURA,مظہر میڈیکل سٹور Mazhar Medical Store,31.5491415,74.4275188,pharmacy,OPERATIONAL,"near Ek Minar wali Masjid, Gujjar Pura Chongi, Lahore",5.0,4,AzizBhatti
ChIJvedWHwAPGTkRNK-M0iK6RKk,BUTT CHOWK TAJPURA,Shahzad Medical Store,31.5465745,74.4261459,pharmacy,OPERATIONAL,"GCWG+JFC, Main Bazar, Chungi, Zarrar Shaheed Rd, Gujjar Pura Cantt, Lahore",5.0,2,AzizBhatti
ChIJ44Ojg0UPGTkRmapdMfN59UU,BUTT CHOWK TAJPURA,Ali pharmacy & Super store,31.5513279,74.41957579999999,pharmacy,OPERATIONAL,"HC29+GRP, Aziz Bhatti Town, Lahore",5.0,1,AzizBhatti
ChIJTwdO4QoPGTkRNRniwOLXqgU,BUTT CHOWK TAJPURA,Data Medical Store,31.5511296,74.41888449999999,pharmacy,OPERATIONAL,"HC29+CHR, Hussain Rd, Aziz Bhatti Town, Lahore",5.0,2,AzizBhatti
ChIJ-YbytuAPGTkR7LmcJkv1_ts,BUTT CHOWK TAJPURA,Lahore Vet Store,31.5459136,74.4176037,pharmacy,OPERATIONAL,"GCW9+929, Zarrar Shaheed Rd, Shahid Town Guldasht Town, Lahore",5.0,7,AzizBhatti
ChIJO1pQvJwPGTkR8MHZbSp3-vs,BUTT CHOWK TAJPURA,Maple Pharmacy,31.544595,74.41980199999999,pharmacy,OPERATIONAL,"GCV9+RWM, Block A Guldasht Town, Lahore",4.0,1,AzizBhatti
ChIJC7wsMRAbGTkRq3BnG9VNaao,SUKH NEHAR STOP,Rashid pharmacy or General Store,31.60271599999999,74.400865,pharmacy,OPERATIONAL,"Band Rd, Mehmood Booti, Lahore",5.0,1,AzizBhatti
ChIJBd42l9kbGTkRtrsllW3_E68,SUKH NEHAR STOP,Chand Medical Store,31.5989934,74.4032625,pharmacy,OPERATIONAL,"HCX3+H8R, Shadi Pura Shadipura, Lahore",5.0,2,AzizBhatti
ChIJqefksXcbGTkRsScHzzXVY_M,SUKH NEHAR STOP,Al syed pharmacy,31.601939,74.40082389999999,pharmacy,OPERATIONAL,"Band Rd, Mehmood Booti, Lahore",5.0,4,AzizBhatti
ChIJgYvKc6IbGTkRq5e0pHClCtU,SUKH NEHAR STOP,Mastwar pharmacy,31.5970318,74.4056573,pharmacy,OPERATIONAL,"Pharmacy, Muhamadiya street, Afshan Pk Rd, Shadi Pura Lahore",0.0,0,AzizBhatti
ChIJVfxmdFkRGTkR4tdX9pwBJxk,MANAWAN MAIN BAZAR,Ghani Family Health Clinic,31.605277,74.4764807,doctor,OPERATIONAL,"Block C, Metro City, 293 St. 2, Al-Raheem Phase 4 Fahad Town Manawan, Lahore",0.0,0,AzizBhatti
ChIJQULIYTARGTkRO37tnRoQEbE,MANAWAN MAIN BAZAR,Malik Pharmacy,31.6005463,74.47205749999999,pharmacy,OPERATIONAL,"JF2C+6R8, Main Blvd, Lahore",4.3,3,AzizBhatti
ChIJceVIMQARGTkR5FKAZwtcgzE,MANAWAN MAIN BAZAR,Healthwire Pharmacy,31.6012365,74.4720462,pharmacy,OPERATIONAL,"Al Ahmed Garden Housing, 15 D Commercial GT Rd, D Manawan, Lahore",5.0,1,AzizBhatti
ChIJ-WYLllgMGTkREAijxrMHR24,BARKI HADYARA,Malik Medical Store,31.5282696,74.54517249999999,pharmacy,OPERATIONAL,"GGHW+833, Manhala Rd, Manhala",5.0,1,AzizBhatti
ChIJ0-nXjFYPGTkRLigePmMkv0I,DAYAL HOUSE RIGHT,Dr Abdul Shakoor Best ENT Specialist,31.5183681,74.457118,doctor,CLOSED_TEMPORARILY,"Zafar Hospital Main Barki, Road, Lahore",4.9,53,AzizBhatti
ChIJhf1R9gIPGTkRUbePxYRWzfg,DAYAL HOUSE RIGHT,Eleven Pharmacy & Mart,31.5233216,74.45058379999999,pharmacy,OPERATIONAL,"155 Barki Rd, Paragon City, Lahore",3.5,15,AzizBhatti
ChIJSavqbNEPGTkRyP911WehO_A,DAYAL HOUSE RIGHT,New Boots Pharmacy,31.5259632,74.4473467,pharmacy,OPERATIONAL,"GCGW+9WX, Paragon City, Lahore",4.5,2,AzizBhatti
ChIJIf7S3ysPGTkRZHtg2v0rRy0,DAYAL HOUSE RIGHT,Pulse pharmacy,31.5259637,74.45358,pharmacy,OPERATIONAL,"36-S commercial zone imperial, Paragon City, Lahore",4.2,5,AzizBhatti
ChIJgR8zH5cPGTkRf_YPx0tfa6I,DAYAL HOUSE RIGHT,Servaid Pharmacy Paragon City,31.5248393,74.4529847,pharmacy,OPERATIONAL,"Shop No 76,77's imperial commercial market paragon city S, Lahore",5.0,1,AzizBhatti
ChIJeXZf-MoPGTkRWE-FCPiEP9g,DAYAL HOUSE RIGHT,Al-Ahad Dental Care,31.524838,74.4531296,dentist,OPERATIONAL,"75 S Commercial Area, Imperial Garden Homes Paragon City, Lahore",5.0,30,AzizBhatti
ChIJEcNbwUoRGTkRpD6SxnZ3G0k,HARBANS PURA RIGHT,Bismillah Medical Store,31.58419689999999,74.4059668,pharmacy,OPERATIONAL,"HCM4+M9G, Sue Wala Rd, Zaitoon Colony, Lahore",5.0,5,AzizBhatti
ChIJNej_vtARGTkRML2rwwDTqAU,HARBANS PURA RIGHT,Grace medical store,31.57609,74.4261829,pharmacy,OPERATIONAL,"HCGG+CFM, grave yard, near bhola peer darbar, Harbanspura, Lahore",5.0,1,AzizBhatti
ChIJo5ELA5IRGTkRWsUax1bpIgA,HARBANS PURA RIGHT,Bismillah Medical Store,31.5746178,74.4258147,pharmacy,OPERATIONAL,"HCFG+V84, Unnamed Road, Harbanspura, Lahore",5.0,1,AzizBhatti
ChIJCQwsG5YRGTkREDt-KUivMmo,HARBANS PURA RIGHT,Ali Madical Store,31.57459739999999,74.4258571,pharmacy,OPERATIONAL,"HCFG+R8X, Unnamed Road, Harbanspura, Lahore",0.0,0,AzizBhatti
ChIJiTpGNuAPGTkRJZz3WIdvVB0,HARBANS PURA RIGHT,Chaudhry Medical Store,31.572198,74.4266567,pharmacy,OPERATIONAL,"244 Jehangir Rd, Harbanspura, Lahore",4.7,9,AzizBhatti
ChIJBbR6uJkRGTkR8jiyG8mpt8I,HARBANS PURA RIGHT,S R Pharmacy,31.5841383,74.40715879999999,pharmacy,OPERATIONAL,"Sue Wala Road, Mian Barkat Colony Rd, Zaitoon Colony, Lahore",4.5,6,AzizBhatti
ChIJ_Tq35JMPGTkRWJKPJH_Stnw,HARBANS PURA RIGHT,MS PHARMACY,31.57319,74.4267431,pharmacy,OPERATIONAL,"HCFG+7MH more, Main Bazar Harbanspura, Lahore",5.0,1,AzizBhatti
ChIJXxy309MRGTkRZlwNGU5wAK8,HARBANS PURA RIGHT,Max Care Clinic - Dr. Ahsan Rana,31.5875163,74.4278429,doctor,OPERATIONAL,"Main Rajbah Road, Ring Road, opposite Satar Town, near Quaid-e-Azam Interchange, Wara Sittar, Lahore",4.0,4,AzizBhatti
ChIJ4X_hooYRGTkRhhP2vPt9gIE,HARBANS PURA RIGHT,Dar-ul-Shifa Clinic,31.5870212,74.4195568,doctor,OPERATIONAL,"HCP9+RR3, Sharif Garden Lahore",5.0,1,AzizBhatti
ChIJKTipwM8RGTkR8nwYsoJuhmI,SUKH NEHAR STOP,Life care + pharmacy,31.5999362,74.4293605,pharmacy,OPERATIONAL,"Mateen Avenue, Wahga Town, Lahore",4.0,1,AzizBhatti
ChIJif-iMgAPGTkRNRJAGjxm1BI,BUTT CHOWK TAJPURA,Defence Plus Pharmacy,31.5451725,74.4248507,pharmacy,OPERATIONAL,"GCWF+3W9, Gujjar Pura Rd, Gujjar Pura Aziz Bhatti Town, Lahore",0.0,0,AzizBhatti
ChIJC4AZNwAPGTkRw01W0c06xyw,HARBANS PURA LEFT,Zahid sons pharmacy,31.5670127,74.4288486,pharmacy,OPERATIONAL,"Shop no 5, railway phatak, Harbanspura Rd, opposite royal auto workshop, Harbanspura, Lahore",5.0,26,AzizBhatti
ChIJLQAbXt4PGTkR8fyI4Ydj2b8,HARBANS PURA LEFT,Green + Pharmacie,31.5698368,74.4317441,pharmacy,OPERATIONAL,"HC9J+WMQ, Road, Harbanspura, Lahore",4.8,6,AzizBhatti
ChIJK_Xv6qcPGTkRnZ67_IaXdBQ,HARBANS PURA LEFT,DOGAR PHARMACY . Franchise of SERVAID,31.5670551,74.4292798,pharmacy,OPERATIONAL,"HC8H+QPV, Harbanspura Rd, Hajipura, Lahore",0.0,0,AzizBhatti
ChIJTRBMDzcRGTkR3KL2jSuJepQ,HARBANS PURA RIGHT,Ayesha Family and Gynae Clinic,31.5814074,74.4181354,doctor,OPERATIONAL,"HCJ9+G6Q, Salamatpura Lahore",0.0,0,AzizBhatti
ChIJkWvVWd8PGTkRnX2ChjFAh1o,HARBANS PURA RIGHT,Shahid Pharmacy,31.5742947,74.43418179999999,pharmacy,OPERATIONAL,"Service Road, Harbanspura, Lahore",4.1,7,AzizBhatti
ChIJpath8YYRGTkRkKpYXWRxdlc,HARBANS PURA RIGHT,Hafiz Medical Store,31.576454,74.430495,pharmacy,OPERATIONAL,"HCGJ+H5Q، Main Bazar, Harbanspura, Punjab, Harbanspura, Lahore",0.0,0,AzizBhatti
ChIJyav8qBARGTkRs8BrJ3cmfOE,HARBANS PURA RIGHT,Madina Medical Store& General store,31.5756383,74.4322494,pharmacy,OPERATIONAL,"HCGJ+7V5, Unnamed Road, Harbanspura, Lahore",0.0,0,AzizBhatti
ChIJqbvl0yAQGTkR0JzlKI8oPGc,HARBANS PURA RIGHT,Hazarat Karmanwala Medical Store,31.5767724,74.4345874,pharmacy,OPERATIONAL,"HCGM+MR8, Service Road, Harbanspura, Lahore",0.0,0,AzizBhatti
ChIJbfD5XpcRGTkRVnZneYhlpnc,HARBANS PURA RIGHT,Tulip pharma,31.57609,74.4261829,pharmacy,OPERATIONAL,"HCGG+CFM, Harbanspura, Lahore",5.0,4,AzizBhatti
ChIJy2LwB4APGTkREN34y0kcQp0,HARBANS PURA RIGHT,Life Plus Pharmacy,31.5735433,74.4330456,pharmacy,OPERATIONAL,"Life Plus Pharmacy, 244 Jehangir Rd, Harbanspura, Lahore",4.9,11,AzizBhatti
ChIJL6Ts8IQRGTkRIMDSpg_3WFQ,HARBANS PURA RIGHT,Farhan Pharmacy,31.5788868,74.434883,pharmacy,OPERATIONAL,"Road, Qalandar Pura Harbanspura, Lahore",0.0,0,AzizBhatti
ChIJgTvvbwARGTkRuRNjFKbXJq0,HARBANS PURA RIGHT,Al -Rehman Pharmacy,31.5927665,74.42614019999999,pharmacy,OPERATIONAL,"Rajbah Road, near Eid Gah, Slamat Pura Wahga Town, Lahore",0.0,0,AzizBhatti
ChIJJdwOkZEPGTkRmzfQAFow1Lc,TAJ BAGH RIGHT,Ibraheem Hijama Clinic,31.5726354,74.4488654,doctor,OPERATIONAL,"House #37, Hajvery Housing Scheme Block A Harbanspura, Lahore",5.0,15,AzizBhatti
ChIJEYH7oCQRGTkRFrPRDtyOQhs,AWAN TOWN,GREEN PHARMACY,31.5786414,74.45848029999999,pharmacy,OPERATIONAL,"Diyal house, Tulspura Lahore",4.8,6,AzizBhatti
ChIJg5qySq8PGTkRTTkwaRxIXII,TAJ BAGH RIGHT,Hammad Pharmacy,31.5769798,74.4595075,pharmacy,OPERATIONAL,"HFG5+QRR, Main Bazar Dyal House Rani Pind Road, Royal Garden, Lahore",0.0,0,AzizBhatti
ChIJvTIZTcQRGTkRcsmezOLOKVo,TAJ BAGH RIGHT,Life Care Pharmacy,31.5778523,74.4601181,pharmacy,OPERATIONAL,"HFH6+42X, Service Road, Royal Garden, Lahore",5.0,2,AzizBhatti
ChIJS00fdwARGTkRlnUi6u7MTJw,TAJ BAGH RIGHT,Al Rehman Pharmacy,31.5779623,74.4606702,pharmacy,OPERATIONAL,"HFH6+57C, Royal Garden, Lahore",5.0,1,AzizBhatti
ChIJbapyTTQRGTkRmWv55MYefZM,TAJ BAGH RIGHT,Rafique Plus Pharmacy,31.577072,74.4590937,pharmacy,OPERATIONAL,"HFG5+RJQ, Guller per road, Harbanspura, Lahore",0.0,0,AzizBhatti
ChIJWdPhAx0RGTkRc519qFsc4Mw,MANAWAN MAIN BAZAR,Green Plus Pharmacie Sooter Mill Branch,31.5927548,74.4573137,pharmacy,OPERATIONAL,"HFV4+4W3, Phase 2 Al Ghani Garden, Lahore",5.0,1,AzizBhatti
ChIJVzKhyegRGTkROcm8H5UGaK0,AWAN TOWN,Herbal and Nutrition clinic,31.5924782,74.4806699,hospital,OPERATIONAL,"Main Bazar, Manāwān Manawan, Lahore",5.0,2,AzizBhatti
ChIJQdaCwMMRGTkRhu3Yxo5dees,MANAWAN MAIN BAZAR,Amin Hayat Memorial Medical Centre,31.5944608,74.4724221,hospital,OPERATIONAL,"HFVC+QXM, GT Rd, Rehmat Town, Wahga Town, Lahore, Punjab, Qazi Town, Lahore",4.5,15,AzizBhatti
ChIJQc0Nny0RGTkRjmIlgZ1ncig,AWAN TOWN,Madina Medical Store,31.5901345,74.4729278,hospital,OPERATIONAL,"HFRF+353، عمر خان روڈ, Bata Pur, Lahore",5.0,1,AzizBhatti
ChIJY5rlIwARGTkRkERnan1wMAo,MANAWAN MAIN BAZAR,Green Plus Pharmacie,31.59509049999999,74.48076499999999,pharmacy,OPERATIONAL,"Bismillah housing scheme Gate no 1, Grand Trunk Rd, Manāwān Bata Pur, Lahore",2.3,3,AzizBhatti
ChIJ2zS1Q-4RGTkRH6dVfkA2KtY,MANAWAN MAIN BAZAR,Al shifa pharmacy,31.595561,74.4845366,pharmacy,OPERATIONAL,"Rāmpura Bata Pur, Lahore",5.0,30,AzizBhatti
ChIJORibe_sRGTkRyihoCsn_jbY,MANAWAN MAIN BAZAR,Clinix,31.5938351,74.467539,pharmacy,OPERATIONAL,"Property number 567/1, serial number 778 Main G.T Road circle wahga Town, Manawan, cantt, Lahore",4.8,4,AzizBhatti
ChIJY7QCdJoPGTkReFtJTeIIXy8,BUTT CHOWK TAJPURA,"Redox pharmay, Super store and health Center",31.5484524,74.40854039999999,pharmacy,OPERATIONAL,"GCX5+9CG, Al-Faisal Town, Lahore",0.0,0,AzizBhatti
ChIJ98v9DMMPGTkR3AFg8xETeys,BUTT CHOWK TAJPURA,Boots Super Pharmacy,31.5445876,74.4197895,pharmacy,OPERATIONAL,"GCV9+RWM, Block A Guldasht Town, Lahore",4.8,4,AzizBhatti
ChIJAYDfHQAPGTkR6L0PPXAPBdU,BUTT CHOWK TAJPURA,ASM MEDICOSE Pharmacy,31.5435806,74.4215182,pharmacy,OPERATIONAL,"Shop No 1, B Block Rehmanpura Ichara, Lahore",0.0,0,AzizBhatti
ChIJufOG1PwPGTkRXxaKSj-zEy0,HARBANS PURA LEFT,Mehboob pharmacy,31.5690399,74.4173594,pharmacy,OPERATIONAL,"Hc98+jv Taj Bagh Pull، near Gourmet bakers, Lahore",4.5,8,AzizBhatti
ChIJsSnw6eIPGTkR-4dj0NaGaIA,HARBANS PURA RIGHT,Nawab Pharmacy,31.5705399,74.41887009999999,pharmacy,OPERATIONAL,"Shop No 3, Ch Akeel Centre, Manzoor Colony Main Rd, Amir Town Canal Bank Housing Scheme, Lahore",5.0,1,AzizBhatti
ChIJoz3gcYoPGTkRyKPVd-NIu78,HARBANS PURA LEFT,Drug emporium,31.5694394,74.4172127,pharmacy,OPERATIONAL,"HC98+QVG, Canal Rd, Canal Bank Housing Scheme, Lahore",0.0,0,AzizBhatti
ChIJhYuyvgEPGTkRGAlZpimx5pM,HARBANS PURA RIGHT,Bsp pharmacy,31.5705552,74.4188742,pharmacy,OPERATIONAL,"HCC9+6GH, Jehangir Rd, Canal Bank Housing Scheme, Lahore",3.5,2,AzizBhatti
ChIJ6ZVCJ6sPGTkROPaePXNr7FI,HARBANS PURA RIGHT,New Supreme Pharmacy,31.5701067,74.41665019999999,pharmacy,OPERATIONAL,"18- Main Canal Rd, Amir Town Canal Bank Housing Scheme, Lahore",4.5,2,AzizBhatti
ChIJr7LcLXsPGTkRc8hPFaKj0Rk,HARBANS PURA LEFT,32 Smile Avenue Medical Dental & Aesthetic Hospital,31.5690374,74.4161906,dentist,OPERATIONAL,"Smile Avenue Medical Dental & Aesthetic Hospital, 32 Service Rd, near Bank-Al-Habib, Ghazi Pul Muslimabad Taj Bagh, Lahore",5.0,76,AzizBhatti
ChIJkwvuM5IPGTkRIAat0lUMcfA,BUTT CHOWK TAJPURA,Al Shifa Clinic and Ultrasound Center,31.5458094,74.4200429,hospital,OPERATIONAL,"C Block Ghazi Rd، near Khizar Medical and Super Store, Block C Shahid Town Guldasht Town, Lahore",4.0,3,AzizBhatti
ChIJuRj--gEPGTkRJU_d-Vtz7mI,BUTT CHOWK TAJPURA,"HMC Physical Therapy by Dr. Hassan Rana, PT",31.5439193,74.4219533,hospital,OPERATIONAL,"1-A, 1 Zarrar Shaheed Rd, B Block Guldasht Town, Lahore",4.9,62,AzizBhatti
ChIJb3LZSGQPGTkRL0tC5-LzeKI,DAYAL HOUSE RIGHT,Mother care Hospital,31.5316387,74.4532929,hospital,OPERATIONAL,"Paragon City, Lahore",3.4,8,AzizBhatti
ChIJ_eAl7VkPGTkR5Y5eJy2RSxY,BUTT CHOWK TAJPURA,Dr. Werdah Qamar Consultant Gynaecologist/Gynae Health Clinic,31.5456213,74.4200753,hospital,OPERATIONAL,"39/C Street # 1, Guldasht Town, 39/C Cantt, Lahore",4.8,19,AzizBhatti
ChIJtcuBzggQGTkRktHhLIOJT_s,HARBANS PURA RIGHT,Al-Amal Welfare Society®,31.5842634,74.41184369999999,hospital,OPERATIONAL,"Salamat Pura Rd, Shalimar Housing Scheme Lahore",3.0,1,AzizBhatti
ChIJl-oPagYbGTkR9h2HnGaVfn4,SUKH NEHAR STOP,HEART & DIABETIC CLINIC(DR.KALIMULLAH),31.59192569999999,74.4054872,hospital,OPERATIONAL,"apposite punjab college, link bund road, behind PSO pump, Daroghawala, Lahore",5.0,4,AzizBhatti
ChIJY1pssKsPGTkRe6BRiSXp108,BUTT CHOWK TAJPURA,Redox community pharmacy,31.55161439999999,74.41924139999999,pharmacy,OPERATIONAL,"HC29+JMX, Aziz Bhatti Town, Lahore",4.5,2,AzizBhatti
ChIJ6Us1SgARGTkRMPjP86bJMsk,HARBANS PURA RIGHT,Ahmed Care pharmacy,31.5730328,74.41902639999999,pharmacy,OPERATIONAL,"HCF9+6JG, Main Road, Amir Town Canal Bank Housing Scheme, Lahore",5.0,1,AzizBhatti
ChIJ70Z0YygbGTkRMcuGffI9wUM,SUKH NEHAR STOP,Abdul Rasheed Homoeopathic Clinic,31.5897959,74.404489,doctor,OPERATIONAL,"HCQ3+WQ9, Wahga Town, Lahore",5.0,1,AzizBhatti
ChIJnXTb-EQRGTkRPJ6yuTMM9hg,HARBANS PURA RIGHT,Abdul Rasheed Free Homoeopathic clinic,31.5866548,74.4140948,doctor,OPERATIONAL,"HCP7+MJ9, Unnamed Road, Sharif Garden, Lahore",5.0,4,AzizBhatti
ChIJV_6xn8oPGTkRZt-_6x9CEYo,DAYAL HOUSE RIGHT,WE pharmacy,31.52661659999999,74.4466169,pharmacy,OPERATIONAL,"GCGW+JJX, Paragon City Main Blvd, Imperial Garden Homes Paragon City, Lahore",1.0,1,AzizBhatti
ChIJhw-l0_gRGTkRNHU9Eaeiq4c,AWAN TOWN,Yaqoob vetrinery pharmacy Gawala Colony Harbanspora,31.5775936,74.4400412,pharmacy,OPERATIONAL,"HCHR+22J, Lahore Press Club Housing Scheme, Lahore",5.0,2,AzizBhatti
ChIJoU8vJEoPGTkR13llnLr5cSQ,HARBANS PURA LEFT,Hajvery homeopathic medical center,31.5693548,74.4266556,hospital,OPERATIONAL,"HC9G+PMR, Main street, Jinnah Park Harbanspura, Lahore",5.0,1,AzizBhatti
ChIJCcgjE-EPGTkRe5kB40eN4-E,HARBANS PURA LEFT,منظور گایینی سنٹر اینڈ فارمیسی,31.5694414,74.42483709999999,hospital,OPERATIONAL,"HC9F+QWG, Taj Bagh Scheme, Lahore",4.7,3,AzizBhatti
ChIJ0Su0_3kPGTkRqcB9Lh-D9PI,DAYAL HOUSE RIGHT,Zanjani Children & Family Clinic,31.5271975,74.4555227,hospital,OPERATIONAL,"House number, 292 Street 6, Paragon City, Lahore",5.0,55,AzizBhatti
ChIJP1UiyY4RGTkR7YLyY3Xwpgg,AWAN TOWN,Medicare Pharmacy,31.5864005,74.47308439999999,pharmacy,OPERATIONAL,"HFPF+H69, Omer Khan Road, near Ghous Garden Phase 4, Rizwan Gardens, Lahore",5.0,4,AzizBhatti
ChIJeaZgfzcRGTkRPEPLmVLQWao,TAJ BAGH RIGHT,SEHAT CLINIC,31.577495,74.45898540000002,hospital,OPERATIONAL,"HFG5+XHX, Royal Garden, Lahore",5.0,1,AzizBhatti
ChIJcSzCIgALGTkRJ4xQRPt5jxs,L.G.H,Pak Clinic Pharmacy,31.4768166,74.5126111,hospital,OPERATIONAL,"office block, 81 Barki Rd, inside pak Clinic, near city school paragon city, Barki Lahore",0.0,0,AzizBhatti
ChIJy7gqsvQPGTkRdEZOKygiNyg,BUTT CHOWK TAJPURA,CDGL MCH center Al faisal town,31.54944,74.4106127,hospital,OPERATIONAL,"GCX6+Q6H, Cantt, Lahore",0.0,0,AzizBhatti
ChIJbaVOtPMPGTkRnHptw-UDves,BUTT CHOWK TAJPURA,Zeb Clinic,31.5534002,74.41367699999999,doctor,OPERATIONAL,"Main entrance of paradise, house scheme Harbanspura Rd, opposite salli town, Aziz Bhatti Town, Lahore",5.0,7,AzizBhatti
ChIJ1aPJH10LGTkRCbS1M-zUgzw,L.G.H,Doctor Javed Iqbal MBBS,31.43999119999999,74.5621699,doctor,OPERATIONAL,"Hudiara, lahore, Hudiara, Main, stop Lahore",0.0,0,AzizBhatti
ChIJS1oErjsHGTkRB_y9iIFwwO8,MAIN MOLANA SHAUKAT ALI RO,MAP Medical Center,31.4183542,74.3594146,hospital,OPERATIONAL,"Street 1 Khayaban-E-Kareem Rd, Khayaban-e-Kareem, Lahore",5.0,1,DHA
ChIJiQ3kkRQHGTkRiMQG9Q1rpz4,MAIN MOLANA SHAUKAT ALI RO,Jamila munir Family clinic & diagnostic center,31.4230029,74.362522,hospital,OPERATIONAL,"Plot 155 , Ammar block Infront of The educator school, Nishter Colony, Lahore",5.0,15,DHA
ChIJO24j9KgHGTkR8tgKstgsYNM,MAIN MOLANA SHAUKAT ALI RO,Nishter Family Clinic,31.4221386,74.36189999999999,hospital,OPERATIONAL,"C9C6+VQ2, Salman Block Nishter Colony, Lahore",3.0,2,DHA
ChIJtXFrTgAHGTkRak5k2_bIQk0,MAIN MOLANA SHAUKAT ALI RO,Al Sheikh - Medical and Dental Care,31.4354381,74.37220959999999,hospital,OPERATIONAL,"Kamahan - Lidher Rd, Gulshan Yaseen Colony, Lahore",5.0,2,DHA
ChIJj4tQbEUHGTkR-gXWNJyil9o,MAIN MOLANA SHAUKAT ALI RO,Kunwal Clinic,31.4234299,74.3702442,hospital,OPERATIONAL,"Waseem Park, 173 Lahore – Kasur Rd, Sufiabad Nishter Colony, Lahore",5.0,1,DHA
ChIJPzPPgBQHGTkR2zviRU5NB-o,MAIN MOLANA SHAUKAT ALI RO,Salamat hospital & gynae center,31.4261161,74.3642845,hospital,OPERATIONAL,"Sufiabad Main Rd, Sufiabad Lahore",4.9,8,DHA
ChIJU7MjOaIHGTkRZq8HtYlQM3o,MAIN MOLANA SHAUKAT ALI RO,Sehar Clinic & Maternity Home,31.4117222,74.36587229999999,hospital,OPERATIONAL,"Youhanabad, Lahore",0.0,0,DHA
ChIJ07rH1wwHGTkRTue5AYVDwfY,MAIN MOLANA SHAUKAT ALI RO,Amal Family Clinic & Physiotherapy Centre,31.4037273,74.3613348,hospital,OPERATIONAL,"C936+FGW, Lahore – Kasur Rd, Satellite Town, Lahore",5.0,21,DHA
ChIJP0LVvv8GGTkRH6ZjR_rKKuQ,MAIN MOLANA SHAUKAT ALI RO,Medix Hospital,31.43253889999999,74.35697770000002,hospital,OPERATIONAL,"Awan Market, Lahore",4.1,61,DHA
ChIJ0X5jr80HGTkR2GPNYwBHWNo,MAIN MOLANA SHAUKAT ALI RO,Shehzeen clinic and maternity home,31.420084,74.363547,hospital,OPERATIONAL,"Plot 840, Nishter Colony, Lahore",4.8,17,DHA
ChIJRWRiV6AHGTkRH8fqv9_Bc28,MAIN MOLANA SHAUKAT ALI RO,Serosh Hospital,31.4116162,74.3617371,hospital,OPERATIONAL,"A-Block plot, Youhanabad main bazar, 2 Lahore – Kasur Rd, Lahore",5.0,1,DHA
ChIJgfwqRAAHGTkR-VzN0vEzW1c,MAIN MOLANA SHAUKAT ALI RO,Bajwa Medical Center,31.4075498,74.360282,hospital,OPERATIONAL,"Main Lahore – Kasur Rd, near sua, Asal pars ram, Lahore",5.0,1,DHA
ChIJNbC9a5wHGTkRCT9e2sLKaQU,MAIN MOLANA SHAUKAT ALI RO,Abdul Hameed Family Clinic,31.40738679999999,74.36211519999999,hospital,OPERATIONAL,"Shop no 2, 21km Lahore – Kasur Rd, near Minhaj School, Dullu Khurd, Lahore",5.0,2,DHA
ChIJY8atJX4HGTkR8vXdCx7FVyk,MAIN MOLANA SHAUKAT ALI RO,Siddiuqe clinic,31.4333636,74.369164,doctor,OPERATIONAL,"C9M9+8MV, Unnamed Road, Usman park, Lahore",5.0,1,DHA
ChIJF1bwsT0HGTkRezxXHu5gwsc,MAIN MOLANA SHAUKAT ALI RO,Adil medical clinic عادل میدیکل کلینک,31.4221453,74.3630833,doctor,OPERATIONAL,"374B, ammar block, Lahore – Kasur Rd, Nishter Colony, Lahore",5.0,5,DHA
ChIJS1YMjnkHGTkRUc9gIq3rxtM,MAIN MOLANA SHAUKAT ALI RO,Dr Clinic,31.4187825,74.36691309999999,doctor,OPERATIONAL,"C998+GQ7, 22 Feet Rd, Nishter Colony, Lahore",0.0,0,DHA
ChIJXwV-8qoHGTkR7IftFogOfYg,MAIN MOLANA SHAUKAT ALI RO,Bari Homeopathic Clinic,31.4206152,74.3677476,doctor,OPERATIONAL,"375 Hassan Block, Nishter Colony, Lahore",4.5,4,DHA
ChIJUQQC66EHGTkRQwXhJzhRbjQ,MAIN MOLANA SHAUKAT ALI RO,RANDHAWA HOMOEOPATHIC CLINIC & STORE,31.4109118,74.3634005,doctor,OPERATIONAL,"Main Bazar, near catholic church, Youhanabad, Lahore",4.8,21,DHA
ChIJmbVEoaIHGTkR5loY1cjogok,MAIN MOLANA SHAUKAT ALI RO,Dr Safdar Ali Zahid Clinic,31.4124911,74.37441729999999,doctor,OPERATIONAL,"C96F+XQV, Millad Chowk Dulu Kalan Lahorr, Dullu",4.6,7,DHA
ChIJ261YTaAHGTkRAbSkzZmKqaE,MAIN MOLANA SHAUKAT ALI RO,Christian Medical Store,31.41141559999999,74.361656,pharmacy,OPERATIONAL,"Main Bazar, Lahore – Kasur Rd, Youhanabad, Lahore",4.8,6,DHA
ChIJmdrExKYHGTkRC7AinvO5pPU,MAIN MOLANA SHAUKAT ALI RO,Basharat Pharmacy,31.4159609,74.3624415,pharmacy,OPERATIONAL,"Lahore – Kasur Rd, opp. Glaxo Factory, Khayaban-e-Kareem, Lahore",5.0,2,DHA
ChIJPVWYzP8HGTkReBCeAYCvq4A,MAIN MOLANA SHAUKAT ALI RO,Bashir Medical Store,31.4118633,74.3605034,pharmacy,OPERATIONAL,"C966+P6P, Main Bazar, Youhanabad, Lahore",0.0,0,DHA
ChIJAUDu-_YHGTkR1xAj3P-IVVs,MAIN MOLANA SHAUKAT ALI RO,Bukhari Medical and General Store,31.4227681,74.370462,pharmacy,OPERATIONAL,348 Yasir Block Bukhari Chowk Nishter colony Main Ferozpur Road Lahore LAHORE (L033,1.0,1,DHA
ChIJjxQJ_ykHGTkRmaJYfQ3Pb6Y,MAIN MOLANA SHAUKAT ALI RO,Ali Medical Store,31.4075498,74.360282,pharmacy,OPERATIONAL,"C956+247, Lahore – Kasur Rd, Dullu Khurd, Lahore",0.0,0,DHA
ChIJQeQapKgHGTkRybteyv4RdpU,MAIN MOLANA SHAUKAT ALI RO,Aman Medical Store,31.4212061,74.3635913,pharmacy,OPERATIONAL,"Shop 1, Plot 1, Ferozpur Rd, Osama Block, Nishtar Colony, Nishter Colony, Lahore",5.0,1,DHA
ChIJayaanaUHGTkR4hVvHWyb2IQ,MAIN MOLANA SHAUKAT ALI RO,Golra Sharif Medical General Store,31.4203637,74.3674771,pharmacy,OPERATIONAL,"C9C8+4XX, Ferozpur Rd, Nishtar Colony, Nishter Colony, Lahore",5.0,3,DHA
ChIJG7ztPKgHGTkRMsz9YakHoNk,MAIN MOLANA SHAUKAT ALI RO,Al-Makkah Medical Store,31.4218768,74.3596019,pharmacy,OPERATIONAL,"C9C5+PRX, Ferozpur Rd, Nishtar Bazar, Nishter Colony, Lahore",5.0,1,DHA
ChIJORmTqKgHGTkRanAA_kJpM4g,MAIN MOLANA SHAUKAT ALI RO,Bismillah Medical Store & Pharmacy,31.4210562,74.36402340000001,pharmacy,OPERATIONAL,"Ferozpur Rd Nishter Colony Main Bazar, Nishter Colony, Lahore",5.0,3,DHA
ChIJZS2zWgUHGTkRyUsCicsACvg,MAIN MOLANA SHAUKAT ALI RO,Unicare Pharmacy & General store,31.4273292,74.3576874,pharmacy,OPERATIONAL,"C9G5+W38, Lahore – Kasur Rd, Sufiabad, Lahore",5.0,1,DHA
ChIJw6mL_LAHGTkRJUz0qD3b3O4,MAIN MOLANA SHAUKAT ALI RO,Noble Medical Store,31.4126884,74.3639527,pharmacy,OPERATIONAL,"Shop No. 295C, Youhanabad, Lahore",0.0,0,DHA
ChIJkwD_bwAHGTkRL_9cTER-cjA,MAIN MOLANA SHAUKAT ALI RO,Bismillah medical store,31.4220658,74.37585159999999,pharmacy,OPERATIONAL,"C9CG+QMC, Mubarak Town, Lahore",5.0,3,DHA
ChIJzUiSOWEHGTkROxksJU2Bizw,MAIN MOLANA SHAUKAT ALI RO,Arman Medical Store,31.412625,74.36446289999999,pharmacy,OPERATIONAL,"Street Number 3, C Youhanabad, Lahore",1.0,1,DHA
ChIJU1DOOwQHGTkRMRwwPj1zdXQ,MAIN MOLANA SHAUKAT ALI RO,Shakir medical store,31.4205616,74.36492,pharmacy,OPERATIONAL,"C9C7+6XF, Nishter Colony, Lahore",5.0,1,DHA
ChIJNVySOLwHGTkRKeGgZ-RDDsU,MAIN MOLANA SHAUKAT ALI RO,دارالحکمت دواخانہ اینڈ پنسار سٹور,31.4202079,74.3635374,pharmacy,OPERATIONAL,"C9C7+3CM, Nishter Colony, Lahore",0.0,0,DHA
ChIJO-x0SPIHGTkRR84nqnsIq-s,MAIN MOLANA SHAUKAT ALI RO,Hamza medical store,31.4115007,74.3614463,pharmacy,OPERATIONAL,"A, Hamza Medical Store main bazar youhana Abad Feroz pure road, Block, Lahore",5.0,3,DHA
ChIJkTNc3agHGTkR0H0h1hyAjkQ,MAIN MOLANA SHAUKAT ALI RO,Ayyan Razzaq Medical Store,31.422844,74.363173,pharmacy,OPERATIONAL,"142 Ammar Block, Nishter Colony, Lahore",5.0,3,DHA
ChIJP9_XRuAHGTkRq3Y1PHdGZek,MAIN MOLANA SHAUKAT ALI RO,Medix Pharmacy,31.421139,74.3635747,pharmacy,OPERATIONAL,"844, C9C7+JF6 Hassan block, Lahore – Kasur Rd, Ghuman Chowk Nishter Colony, Lahore",4.9,9,DHA
ChIJh8nMZfgGGTkRq8iqC7zkahQ,DEFFENCE,Community Medical Center,31.4400791,74.3576322,hospital,OPERATIONAL,"C9R5+23J, Gulshan Yaseen Colony, Lahore",5.0,2,DHA
ChIJN0XWBQAHGTkRI-LTPPnYLMc,DEFFENCE,Anna Health Care Lahore,31.4402418,74.3662457,hospital,OPERATIONAL,"House No. C47-A, Defence Garden, Lahore",0.0,0,DHA
ChIJHchNPfQGGTkR4CLNLn6BeLk,DEFFENCE,Ichhra Vety Clinic,31.4481528,74.3544032,hospital,OPERATIONAL,"177A shami park chungi, Lahore – Kasur Rd, Sitara Colony, Lahore",5.0,2,DHA
ChIJE-bWAA8GGTkRcWvay49e-Qc,PUNJAB SOCIETY,Al-Shifa Zafar Memorial Hospital,31.46089599999999,74.3590876,hospital,OPERATIONAL,"ANF Mart, Shoukat Town Nishtar Town, Lahore",3.6,48,DHA
ChIJ3alQl80PGTkRux4miZLG4NI,MISRI SHAH,True Health Care Clinic - Pharmacy - Lab,31.4556181,74.3660771,hospital,OPERATIONAL,"52-f pchs Ghazi Rd, 52-f Block F DHA Phase 3, Lahore",5.0,6,DHA
ChIJRc4Dmo4GGTkRVudFXUvcvFM,PUNJAB SOCIETY,Lahore Care Hospital,31.4588796,74.35095989999999,hospital,OPERATIONAL,"F953+X37, Ghazi Rd, stop Nishtar Town, Lahore",4.7,2661,DHA
ChIJAUmtPYsGGTkRHyWGU9QXV2U,MISRI SHAH,Dr Pasha Clinic,31.454338,74.35485539999999,doctor,OPERATIONAL,"st no 4 must near general hospital, Iqbal Rd, Gul Colony, Lahore",5.0,2,DHA
ChIJR7aOj0gEGTkREpRfc51Cjlk,MISRI SHAH,Dr Awais Muhammad Butt,31.4558944,74.3661587,doctor,OPERATIONAL,"Naeem Surgical Hospital (Executive Block Punjab Cooperative Housing Society, Ghazi Rd, Block F Punjab CHS, Lahore",5.0,9,DHA
ChIJW5bJe2cGGTkRAzSu30NHaDo,MISRI SHAH,GyneMed Clinic,31.4551702,74.3670048,doctor,OPERATIONAL,"Punjab Co-operative Housing Authority Main Blvd, 543/17- E Block E Punjab CHS, Lahore",5.0,126,DHA
ChIJpWsSPlwHGTkRA4vK_-Bc4Rw,MISRI SHAH,Alauddin Clinic,31.4541283,74.37023599999999,doctor,OPERATIONAL,"Unnamed Road, Bahadrabad, Lahore",3.7,3,DHA
ChIJtcsbrTgHGTkR8lxJb43K7_k,DEFFENCE,Yasir medical store,31.4473442,74.3626644,pharmacy,OPERATIONAL,"C9W7+W3V, Kacha kamha road, Sitara Colony, Lahore",0.0,0,DHA
ChIJ7VQfhMYHGTkRZ89notFI8tk,DEFFENCE,Haji Medical Store,31.4515053,74.3556438,pharmacy,OPERATIONAL,"F924+J72, Main Bazar, Muft pura Sitara Colony, Lahore",0.0,0,DHA
ChIJa3UjUF4GGTkRFIqLw5D0mBc,DEFFENCE,Shahbaz Medical Store,31.4520121,74.3621929,pharmacy,OPERATIONAL,"Main Bazar, Sitara Colony, Lahore",4.6,9,DHA
ChIJsT0GQ14HGTkRQtEZNXCIPTQ,MISRI SHAH,AL MADINA MEDICAL & GENERAL STORE,31.4523452,74.36619449999999,pharmacy,OPERATIONAL,"ST#3 SHOP#1 PAK TOWN CHUNGI AMAR SIDHU, Lahore",5.0,2,DHA
ChIJld5Ce_cGGTkR89ThK1ZuC9E,DEFFENCE,Ahmed Medical Store,31.4424048,74.3555064,pharmacy,OPERATIONAL,"C9R4+X59, Ferozpur Rd, Amar Sidhu, Gulshan Yaseen Colony, Lahore",2.0,1,DHA
ChIJbX5A0g8HGTkR783ekdwvKdA,DEFFENCE,Waqas Medical store,31.4518535,74.36272869999999,pharmacy,OPERATIONAL,"F927+P3X, Sitara Colony, Lahore",4.0,2,DHA
ChIJA9Ya3WcHGTkRedHiJB278So,DEFFENCE,Rana Medical Store,31.44778809999999,74.3660847,pharmacy,OPERATIONAL,"C9X8+4C8, Main Bazar, Muft pura Gul Colony, Lahore",0.0,0,DHA
ChIJgbv_M14GGTkRj_PTHnpf3dc,MISRI SHAH,Nosher Medical Store,31.4529481,74.36209989999999,pharmacy,OPERATIONAL,"F936+5R7، kamahan road. pull bandian walla, Gul Colony, Lahore",4.0,9,DHA
ChIJoyHeAIEHGTkRHIMfkdcF2RY,DEFFENCE,Nazeer Medical Store Shangai Road Lahore,31.4516153,74.3612706,pharmacy,OPERATIONAL,"F926+MG6, Shanghai Rd, Bandiānwāla Sitara Colony, Lahore",5.0,1,DHA
ChIJjfdRHQAHGTkRkxzRz-XfppU,DEFFENCE,Sadiq Medical & General Store,31.4510852,74.359216,pharmacy,OPERATIONAL,"F925+CP4, Shanghai Rd, Sitara Colony, Lahore",0.0,0,DHA
ChIJWclnb_8GGTkRhl09Zi_ii8Y,MAIN MOLANA SHAUKAT ALI RO,Aftab Medical Store,31.4349444,74.35797769999999,pharmacy,OPERATIONAL,"Attari Saroba Rd, Awan Market, Lahore",3.5,2,DHA
ChIJeTeuAAMHGTkR7dfNjMTgv-Q,DEFFENCE,Mian Medical Store,31.4383363,74.3707311,pharmacy,OPERATIONAL,"Mian Pharmacy.Umer Park, Shama Colony Rd, Lahore",0.0,0,DHA
ChIJSeV1KgAHGTkR8PMXbt9s_yA,DEFFENCE,Mehar Medicos,31.4520121,74.3621929,pharmacy,OPERATIONAL,"F926+RV4, Main Bazar, near Shahbaz medical store, Sitara Colony, Lahore",5.0,2,DHA
ChIJE5wATwAHGTkRKfR1e5njb48,DEFFENCE,Usman Naseer Medical Store,31.4479506,74.3568006,pharmacy,OPERATIONAL,"C9X4+6X7, Sitara Colony Lahore",0.0,0,DHA
ChIJw7uRd10GGTkRmgsMRH60Wzo,MISRI SHAH,Descent Medical and General Store,31.4521945,74.36799189999999,pharmacy,OPERATIONAL,"F929+V5H, Pak Town Main Road Near Baraf Khana, Main Bazar, maer Sidhu Bahadrabad, Lahore",4.0,3,DHA
ChIJ3-V3n1AGGTkRCc8_Dobh3iw,DEFFENCE,Rana Medical Store,31.4420637,74.3660464,pharmacy,OPERATIONAL,"C9R8+RC, Gulshan Yaseen Colony, Lahore",4.1,7,DHA
ChIJK3rbUwAHGTkRxklLBUuXSQs,DEFFENCE,Chand Medical and General Store,31.439688,74.35702169999999,pharmacy,OPERATIONAL,"C9Q4+VRC, Gulshan Yaseen Colony, Lahore",0.0,0,DHA
ChIJf3j7SQAHGTkROCg8BDfHjRo,DEFFENCE,Life Care Medical store & cosmetic,31.4401363,74.3750287,pharmacy,OPERATIONAL,"C9RG+32M, Gulshan Yaseen Colony, Lahore",5.0,4,DHA
ChIJ69Xa5MYHGTkRq_a1h2EYofc,DEFFENCE,Iqbal Dental Clinic,31.4497334,74.35675069999999,dentist,OPERATIONAL,"2 Main Bazar, Sitara Colony, Lahore",0.0,0,DHA
ChIJNVMW5ncGGTkRQIkcy_vxzzk,WAHDAT ROAD,DHA Medical Centre Phase III,31.4767432,74.3716309,hospital,OPERATIONAL,"F9GC+MMR, Street 29, Sector W Phase 3 DHA Phase 3, Lahore",4.1,138,DHA
ChIJfRJU4XcGGTkRIwiIRzk4uhE,WAHDAT ROAD,DHA MEDICAL CENTER & DIALYSIS CENTRE,31.477036,74.3716244,hospital,OPERATIONAL,"F9GC+RJ9, Street 22, Sector W DHA Phase 3, Lahore",3.8,6,DHA
ChIJkx2fdOQFGTkRXsM1zV7lbGg,WAHDAT ROAD,Dua clinic,31.4799375,74.3661875,hospital,OPERATIONAL,"F9H8+XFH Street no.2 Walton road, Model, colony cannt, Lahore",5.0,1,DHA
ChIJKbVlEM4HGTkRnXZFN2Z-o00,WAHDAT ROAD,Farkhanda and Jamil Memorial Hospital,31.47571069999999,74.35891699999999,hospital,OPERATIONAL,"Walton Rd، near Workshop Stop, Al-Noor Town Al Noor Town, Lahore",4.2,10,DHA
ChIJoZCUSNcFGTkRlC-nhhOsr54,WAHDAT ROAD,Mohsin Medical Complex.,31.4820919,74.3692657,hospital,OPERATIONAL,"F9J9+RPJ, Street No. 1, Peer Colony Qadri Colony, Lahore",3.8,18,DHA
ChIJRWm_DTIEGTkRb2KQURx-KmA,GULAB DEVI HOSPTAL,Sadequia Free Medical Center,31.4869976,74.35408009999999,hospital,OPERATIONAL,"F9P3+QJW، near walton railway station, Walton Railway Officers Colony, Lahore",3.0,1,DHA
ChIJPcYZOH4GGTkRIMF_NFi9M6s,WAHDAT ROAD,Kashif Ploy Clinic,31.4724886,74.3601267,hospital,OPERATIONAL,"5 Khayaban-e-Iqbal, Al Noor Town, Lahore",3.0,1,DHA
ChIJdRYNyNAFGTkRAK5WBDroajA,WAHDAT ROAD,Dr Mursleen Clinic,31.4835653,74.3692681,doctor,OPERATIONAL,"Main street qadri colony street no 2, Walton Rd, near bhola chowk, Qadri Colony, Lahore",4.9,25,DHA
ChIJtzvriq0HGTkRH58lsfANTQU,PUNJAB SOCIETY,Yasir Munir street( Mian Meer Clinic),31.4649904,74.35885619999999,doctor,OPERATIONAL,"E877/29 Yasir, Munir St",4.3,4,DHA
ChIJhyIGgRkHGTkRb-7-IlLFQ9A,WAHDAT ROAD,Kashif Homoeo Medical Hall(Bismillah clinic),31.4726099,74.3602781,doctor,OPERATIONAL,"st# 8, Link St 6, Walton Cantt Al Noor Town, Lahore",5.0,1,DHA
ChIJa0DoS-kHGTkR535owIBza7o,WAHDAT ROAD,Dr Asif clinic,31.4755446,74.36026389999999,doctor,OPERATIONAL,"workshops stop, Main Bazar, E-25/0 St 6, Al-Noor Town Lahore",5.0,26,DHA
ChIJUarRkHkGGTkRFNyKJqV2VgU,PUNJAB SOCIETY,Dr Shafiq Cheema-BestNephrologist-Clinic,31.4638903,74.3675423,doctor,OPERATIONAL,"F Block Phase 5, 153/1, DHA Phase 3, Lahore",4.0,41,DHA
ChIJ0eKXQhMGGTkRhFJjEYHvE68,PUNJAB SOCIETY,Dr.InMe,31.462987,74.383575,doctor,OPERATIONAL,"Phase IV Main, DHA Phase 4 Sector CCA Dha Phase 4, Lahore",5.0,3,DHA
ChIJmxvl9wcFGTkRk3aESYBDC9k,WAHDAT ROAD,Apna Walton Poly Clinic,31.4785598,74.359435,doctor,OPERATIONAL,"F9H5+CQF, Service Rd, Farooq Colony Lahore",5.0,1,DHA
ChIJ-5hl4GMGGTkRDxE5mqk712c,MISRI SHAH,Dr.Anwar Clinic,31.459781,74.3632071,doctor,OPERATIONAL,"F957+W78, Road, Javed Colony Gul Colony, Lahore",4.0,2,DHA
ChIJQTJNcJwFGTkRhUps1dVJUds,PUNJAB SOCIETY,Faisal Medical Store Branch 2,31.4688664,74.3672926,pharmacy,OPERATIONAL,"1, BANK STOP, Shop #e/17 b, Walton Rd",4.8,16,DHA
ChIJM4a9UYgGGTkRpmgTqq0htug,PUNJAB SOCIETY,Malik Medical And General Store,31.4621598,74.3565382,pharmacy,OPERATIONAL,"Bulleh Shah Road Ghazi Road, near Defence Road, Nishtar Town, Lahore",5.0,2,DHA
ChIJd3Ylt6EHGTkRsiSgkirzFKw,WAHDAT ROAD,Abdullah Medical Store,31.4755358,74.3617141,pharmacy,OPERATIONAL,"F9G6+6PJ, Main Bazaar AL Noor Town Rd, Al-Noor Town Al Noor Town, Lahore",0.0,0,DHA
ChIJPbnXL4oFGTkRbhPYXDlKQFY,WAHDAT ROAD,Abdullah Haseeb Medical store,31.4768282,74.3598307,pharmacy,OPERATIONAL,"F9G5+PWP, Farooq Colony, Lahore",0.0,0,DHA
ChIJxVVrbJkFGTkRjPHJ1eFRnr0,WAHDAT ROAD,Mughal Medical Store,31.4764977,74.3636143,pharmacy,OPERATIONAL,"F9G7+HH7, Model colony 2 qadria masjid, Farooq Colony, Lahore",4.8,5,DHA
ChIJSbI8QAAHGTkRi9OLRscT1PQ,WAHDAT ROAD,Raheem medical store,31.4760713,74.3607473,pharmacy,OPERATIONAL,"F9G6+C7H, St 6, Al-Noor Town Al Noor Town, Lahore",0.0,0,DHA
ChIJkYyFoGkGGTkRlJKBayRprvo,MISRI SHAH,Punjab Medical Store PCHS,31.4582731,74.37472869999999,pharmacy,OPERATIONAL,"F95F+8V5, Road, Block C Punjab CHS, Lahore",4.4,14,DHA
ChIJAd18m1IFGTkRddWoIb1huW4,WAHDAT ROAD,DANISH PHARMACY,31.4759995,74.3605711,pharmacy,OPERATIONAL,"Street No 2, Main bazar Farooq Colony, Walton",5.0,1,DHA
ChIJxfZCu38GGTkRxiB_ZXw0MMk,WAHDAT ROAD,Zainab Medical Srore,31.4743093,74.36089199999999,pharmacy,OPERATIONAL,"F9F6+P9C, Al-Noor Town Al Noor Town, Lahore",0.0,0,DHA
ChIJ_xAa8XUGGTkRFqeb-HZ6cmQ,WAHDAT ROAD,Hassan Pharmacy,31.47768,74.37729999999999,pharmacy,OPERATIONAL,"Sector W DHA Phase 3, Lahore",3.0,2,DHA
ChIJQcfvfUgHGTkRVpYqWJI6Kjs,PUNJAB SOCIETY,Alasr Pharmacy,31.4614139,74.3609372,pharmacy,OPERATIONAL,"shop 18, imdad market, Main Ghazi Rd, opposite Total Pump, Cantt, Lahore",3.8,12,DHA
ChIJYzTwKe8HGTkROH1OxeE6Wp4,PUNJAB SOCIETY,Masood pharmacy,31.4720343,74.35812039999999,pharmacy,OPERATIONAL,"2B-XX, Khayaban-e-Iqbal, DHA Phase 3, Lahore",0.0,0,DHA
ChIJoeu0EnQGGTkRxPZqAxJavrY,PUNJAB SOCIETY,Muhammadi Medical Store,31.4733776,74.37782779999999,pharmacy,OPERATIONAL,"20 GF Y Block، Commercial Market، Phase III Sector Y DHA Phase 3, Lahore",4.7,13,DHA
ChIJj3xzjUIFGTkRCsK2AuKUO_s,MISRI SHAH,Noor pharmacy,31.4614931,74.3708588,pharmacy,OPERATIONAL,"block AA, Street 7, Lahore",5.0,1,DHA
ChIJn4nGPU0HGTkRPSqN8YD11lo,PUNJAB SOCIETY,Chisti pharmacy,31.4680284,74.3560935,pharmacy,OPERATIONAL,"Kainchi, Amer Sidhu Road, Amar Sidhu Nishtar Town, Lahore",3.0,1,DHA
ChIJZ6v5VA4GGTkRgPUyvD4eAr4,PUNJAB SOCIETY,Medicines,31.4633191,74.3668067,pharmacy,OPERATIONAL,"Ghazi Rd, Sector X DHA Phase 3, Lahore",4.0,30,DHA
ChIJHxbzYIAGGTkRFmzk4bF2HUc,PUNJAB SOCIETY,Mahmood Pharmacy,31.4730888,74.3573584,pharmacy,OPERATIONAL,"F9F4+6WQ, Khayaban-e-Iqbal, Al-Noor Town Al Noor Town, Lahore",3.2,10,DHA
ChIJZ8at4CIHGTkRAd6ZykXgNvs,WAHDAT ROAD,Mukhtar son's pharmacy and clinic,31.4758756,74.3608854,pharmacy,OPERATIONAL,"E-28, Muhammedi market workshop, bazar Walton Rd, Al-Noor Town Cantt, Lahore",0.0,0,DHA
ChIJw1QZ80cHGTkRdh8CFl5s-Hw,MISRI SHAH,The Dental Co Dental Clinic in DHA Lahore,31.4617105,74.3707731,dentist,OPERATIONAL,"10 - AA Sector Market DHA Phase 4, Lahore",5.0,41,DHA
ChIJZdEUZCwHGTkR8T4SOcrZ19c,PUNJAB SOCIETY,Dentist @ Home/ Home Dental Services,31.4745922,74.3783823,dentist,OPERATIONAL,"6-Z commercial, DHA Phase 3",5.0,3,DHA
ChIJKYJT-XMGGTkRgpf4xroMPJo,PUNJAB SOCIETY,Dental Aesthetics,31.4721118,74.3763565,dentist,OPERATIONAL,"187 Y Street 11, Sector Y DHA Phase 3, Lahore",4.5,330,DHA
ChIJvzOkaVYHGTkRw8oyOsnNCxA,DEFFENCE,Royal Physio Clinic,31.4372308,74.3788175,hospital,OPERATIONAL,"Atta Bakhsh Rd, Azam chock kamahan, Lahore",0.0,0,DHA
ChIJGSJJRVYHGTkRMksm3z-jUL8,MEHMOOD,EPI Center BHU Ballar,31.4070702,74.39596159999999,hospital,OPERATIONAL,"Plot 331, Transport Housing Society Transport Housing Society (Gts Society), Lahore",3.7,3,DHA
ChIJj1OAIwAHGTkRd3dlYdfdq2A,MEHMOOD,Safdar Medical Store,31.4281092,74.38437689999999,pharmacy,OPERATIONAL,"Shop no 6 A, block market, A Block, Aashiana-e-Quaid Housing Scheme, Lahore",5.0,4,DHA
ChIJrZT2FwwHGTkRdj2Wn9Pg1Uk,MEHMOOD,BASHIRI JALALI PHARMACY,31.428194,74.3842894,pharmacy,OPERATIONAL,"C9HM+7PF, Aashiana-e-Quaid Housing Scheme, Lahore",5.0,3,DHA
ChIJzU2XFZoHGTkRfsoSOGx5RJk,KAMAHAN CHUNGI AMER SIDHU,Health Street Clinic,31.4483862,74.39196319999999,hospital,OPERATIONAL,"Kamahan gol chaker, Plot 117 flyover, near dha phase 5, Bankers Town, Lahore",4.6,17,DHA
ChIJJ21EgYgHGTkRvlNoznAk70c,ITTEFAQ HOSPITAL,Life Saver Medical Complex,31.4621082,74.4141497,hospital,OPERATIONAL,"Plaza no. 36, Block-CCA phase-5, DHA, Lahore",4.9,56,DHA
ChIJr1e9ZK8HGTkRc3EFR7g5BIk,KAMAHAN CHUNGI AMER SIDHU,Dr. Muhammad Gulraiz Farrukh General Physician & Family Physician & Surgeon (Farrukh Medical Complex) FMC,31.4491827,74.39275409999999,hospital,OPERATIONAL,"Plaza No: 60, Block B, Block B Bankers Town, Lahore",5.0,17,DHA
ChIJqVjrOoYHGTkR3xONLSIFJPU,KAMAHAN CHUNGI AMER SIDHU,Anas hospital,31.4440415,74.3971546,hospital,OPERATIONAL,"C9VW+JV6، Housing Society Block A Phase 1 State Life, Lahore",0.0,0,DHA
ChIJc0uzpyMGGTkRsrMBHKVfRCY,KAMAHAN CHUNGI AMER SIDHU,Dr Jawad Zaheer Clinic,31.454728,74.397142,doctor,CLOSED_TEMPORARILY,"27-A Commercial Area, Sui Gas Main Boulevard, Sui Gas Society Phase 1 Lahore",4.4,34,DHA
ChIJF1D0YXcHGTkRDm8AP-UHeuY,KAMAHAN CHUNGI AMER SIDHU,WALi MEDICAL STORE,31.4434963,74.39379819999999,pharmacy,OPERATIONAL,"ABS tower, society, A-Extension Block A State Life Phase 1 State Life, Lahore",5.0,2,DHA
ChIJwd8hYC4GGTkRkvKljNJn2_o,KAMAHAN CHUNGI AMER SIDHU,Moon Pharmacy,31.4428757,74.39681809999999,pharmacy,OPERATIONAL,"State life housing society opps Pso pump, near rana chowk Lahore cant, Block A State Life Phase 1 State Life, Lahore",5.0,1,DHA
ChIJHTPYrcsHGTkRa9sRg5UlKpg,KAMAHAN CHUNGI AMER SIDHU,Med Valley Pharmacy,31.4435394,74.3994611,pharmacy,OPERATIONAL,"main Kamahan - Lidher Rd, near Ahmed Dry Cleaners, oppsite lahore, gramer school, Block B State Life Phase 1 State Life, Lahore",0.0,0,DHA
ChIJVw2oMQAHGTkR7CuZxLU8Egk,KAMAHAN CHUNGI AMER SIDHU,ALI PHARMACY / ALI MEDI CARE &REHAB CENTER,31.4435113,74.39945639999999,pharmacy,OPERATIONAL,"Main Kamahan - Lidher Rd, madina chock Block B State Life Phase 1 State Life, Lahore",5.0,1,DHA
ChIJwbqC4wIHGTkRaKwAn_5CeIU,KAMAHAN CHUNGI AMER SIDHU,City Pharmacy,31.4428334,74.3965885,pharmacy,OPERATIONAL,"Shop#7, Opposit PSO Petrol Pump, Rana Chowk, Block A State Life Phase 1 State Life, Society",0.0,0,DHA
ChIJR-H1fQAHGTkRnV0s5EwcSyI,KAMAHAN CHUNGI AMER SIDHU,Family Pharmacy,31.4398997,74.3882802,pharmacy,OPERATIONAL,"C9QQ+X82, Kamahan - Lidher Rd, Block B State Life Phase 1 State Life, Lahore",4.0,1,DHA
ChIJkVcjtpsHGTkRcrPYiAp_Wto,KAMAHAN CHUNGI AMER SIDHU,Health Mart plus pharmacy,31.4422777,74.3946677,pharmacy,OPERATIONAL,"C9RV+VVV, Kamahan - Lidher Rd, Rana chowk State Life Phase 1 State Life, Lahore",5.0,1,DHA
ChIJsVlqqUsHGTkRLJKn9bg_Xqc,KAMAHAN CHUNGI AMER SIDHU,Medicure Pharmacy,31.44232929999999,74.3994236,pharmacy,OPERATIONAL,"F, Plaza # 1076-F Commercial Phase-1 State Life Society, Block, commercial Lahore",3.3,8,DHA
ChIJUczJCgAHGTkRjb6MFrYDYmY,KAMAHAN CHUNGI AMER SIDHU,BIO CHEM PHARMACY,31.4427763,74.39821649999999,pharmacy,OPERATIONAL,"BIO CHEM PHARMACY Plaza, 1003, housing society Block F Phase 1 State Life, Lahore",0.0,0,DHA
ChIJmdTeQwAHGTkRuougq_-SBh0,KAMAHAN CHUNGI AMER SIDHU,Al Haseeb Medical Store,31.4483562,74.3889837,pharmacy,OPERATIONAL,"C9XQ+8F2, Bankers Town, Lahore",0.0,0,DHA
ChIJ2-YEhZgHGTkRf4X1S6aSPqI,KAMAHAN CHUNGI AMER SIDHU,Punjab Pharmacy,31.4485322,74.3917213,pharmacy,OPERATIONAL,"C9XR+CM9, LRR Exit Rd, Block B Bankers Town, Lahore",4.1,21,DHA
ChIJFfUoXwYHGTkRClb5jnXZXZw,KAMAHAN CHUNGI AMER SIDHU,Blue Star Pharmacy & Stationery and Mart,31.4438372,74.3999628,pharmacy,CLOSED_TEMPORARILY,"Plaza No.1007, Block B, Phase 1 Commercial Area, Ground Floor State Life Cooperative Housing Society, near Lahore Grammer School, Block B State Life Phase 1 State Life, Lahore",5.0,2,DHA
ChIJh4Iq0a8HGTkR8DFzycnNKWk,KAMAHAN CHUNGI AMER SIDHU,Jodha Sons Pharmacy,31.4480814,74.387074,pharmacy,OPERATIONAL,"C9XP+6RG, Bankers Town, Lahore",5.0,2,DHA
ChIJv5um1rQHGTkRy-GzVFZ1ejM,DEFFENCE,Asif Medical Store,31.4346336,74.3777908,pharmacy,OPERATIONAL,"B, Masjid toheed ahly hadees Atta Baksh Road Kamahan, Block Banker's, Town, Lahore",0.0,0,DHA
ChIJey5bk8wHGTkRUG5MVuiM5Lk,KAMAHAN CHUNGI AMER SIDHU,Malik House,31.4433114,74.38921119999999,pharmacy,OPERATIONAL,"C9VQ+8MG, Unnamed Road, State Life Phase 1 State Life, Lahore",5.0,2,DHA
ChIJe0FiFB4HGTkRpAFQ_vwJoaM,MISRI SHAH,Madni Pharmacy,31.4504498,74.3844783,pharmacy,OPERATIONAL,"Lahore Ring Rd, near mughal auto, Mohallah Muhammad Pura Bahadrabad, Jaranwala",0.0,0,DHA
ChIJFy96XgAHGTkRQcImOSjEGSM,KAMAHAN CHUNGI AMER SIDHU,FAZAL DIN'S PHARMA PLUS BANKERS & STATE LIFE SOCIETY,31.4495742,74.3938113,pharmacy,OPERATIONAL,"C9XV+RGF, Plaza 1, Block A Bankers Town, Lahore",4.0,4,DHA
ChIJvxRqbl0HGTkR-zZ4qvSyyUY,KAMAHAN CHUNGI AMER SIDHU,Alina Dental Clinic,31.4489939,74.393709,dentist,OPERATIONAL,"Sui gas interchange, B, Block B Bankers Town, Lahore",5.0,3,DHA
ChIJbd5wN0UFGTkRj_44bfk7v6g,SABZAZAR SCHEME,Doctors Hospital Lab Collection & Medical Center,31.4876313,74.4010596,hospital,OPERATIONAL,"51-G, Street 123, Sector M Dha Phase 1, Lahore",4.8,19,DHA
ChIJTe3SW_wFGTkRr4gM3B8PxZM,SABZAZAR SCHEME,National Hospital & Medical Centre Lahore,31.4846247,74.3973523,hospital,OPERATIONAL,"Sector L Dha Phase 1, Lahore",3.3,825,DHA
ChIJO-APCfAPGTkRJwgTqAV_bT4,ITTEFAQ HOSPITAL,Naheed medical center,31.484521,74.40943709999999,hospital,OPERATIONAL,"Plot 433, Q block Commercial Area Sector Q DHA Phase 2, Lahore",4.5,2,DHA
ChIJqYrxovcFGTkRaJ0vCJ1ItXc,SABZAZAR SCHEME,Doctors Hospital and Medical centre Phase 1,31.48353239999999,74.39552019999999,hospital,OPERATIONAL,"F9MW+C66, Street 123, Sector L Dha Phase 1, Lahore",5.0,5,DHA
ChIJUQBhbgoFGTkRmDQjt-k7yOk,SABZAZAR SCHEME,Iffat Anwar Medical Complex,31.4835314,74.3940911,hospital,OPERATIONAL,"Plot 115, Sector G Dha Phase 1, Lahore",4.8,4,DHA
ChIJNxMkjA4GGTkR48vxKsRCH4I,PUNJAB SOCIETY,Fauji Clinic,31.4716718,74.38934689999999,hospital,OPERATIONAL,"opposite govt girls school charrar Cantt, Sector K Dha Phase 1, Lahore",0.0,0,DHA
ChIJqQ66DqwJGTkRqf1rRuW7RPU,ITTEFAQ HOSPITAL,"Integrated Medical Care Hospital, Lahore",31.4674721,74.4125043,hospital,OPERATIONAL,"153/1, F Block Phase 5 D.H.A, Lahore",3.8,276,DHA
ChIJs6v8W3EGGTkRagRPwgwQ3QU,PUNJAB SOCIETY,Lahore Health Care,31.4714792,74.37604370000001,hospital,OPERATIONAL,"194/1, Y Block, Phase 3, Defense Housing Authority, Sector Y DHA Phase 3, Lahore",4.4,42,DHA
ChIJi4hZ3foPGTkRX6DdpqZV5Lc,SABZAZAR SCHEME,Health Bridge Hospital,31.4863361,74.41021839999999,hospital,OPERATIONAL,"E-194 Ghazi Rd, near Q Block Market, D.H.A Real Cottages, Lahore",3.6,103,DHA
ChIJJ6Qo1v4FGTkRSF2ShwerqXQ,SABZAZAR SCHEME,Madina Medical Center,31.4862971,74.4026803,hospital,OPERATIONAL,"FCP3+G37, Street 175, Sector M Dha Phase 1, Lahore",5.0,1,DHA
ChIJW9CDEwEJGTkRXybMwKtpKfE,ITTEFAQ HOSPITAL,Health and Wellness Centre,31.471781,74.41028759999999,hospital,OPERATIONAL,"FCC6+P47 LUMS, Sector U Phase 5 D.H.A, Lahore",4.8,5,DHA
ChIJ9a4MBjsHGTkRtVCGZtH5fYI,PUNJAB SOCIETY,WOMEN WELCARE CLINIC,31.4774732,74.3881593,doctor,OPERATIONAL,"J-Block, DHA Ph-1 Mughal Market",5.0,3,DHA
ChIJRT2SaM8HGTkRkdLB86qt7f4,M-BOLEVARD DHA,Novimed specialist clinic,31.47062009999999,74.3908858,doctor,OPERATIONAL,"14 S Ghazi Rd, Sector S DHA Phase 2, Lahore",3.3,21,DHA
ChIJNYJ1WyUHGTkRz4tot1STurk,M-BOLEVARD DHA,Dr.Rumana Yasin ENT Specialist,31.47007839999999,74.389423,doctor,OPERATIONAL,"Block, AMT Medical & Dental Center, 430-EE Ghazi Rd, opposite to Attock Petroleum, near Hope Up Lift Foundation School, DHA Phase 4 Sector EE Dha Phase 4, Lahore",5.0,31,DHA
ChIJj2k8NP8PGTkRjTHwP9uPzJk,PUNJAB SOCIETY,SAMC-Samra Amin Medical centre,31.4637856,74.38407389999999,doctor,OPERATIONAL,"SAMC Samra Amin Medical centre, 13 DD Sector CCA Dha Phase 4, Lahore",3.5,31,DHA
ChIJccZ5EX4HGTkRN5ON_KdnXGU,PUNJAB SOCIETY,Anxiety Treatment In Pakistan Dr. Ghulam Hassan,31.4676103,74.3814773,doctor,OPERATIONAL,"F99J+2HX, Sector DD DHA Phase 3, Lahore",5.0,4,DHA
ChIJherj0sgHGTkRwKYxeEQhDFk,PUNJAB SOCIETY,Eye Care,31.4675568,74.3818297,doctor,OPERATIONAL,"430 EE Ghazi Rd, Sector DD Dha Phase 4, Lahore",5.0,19,DHA
ChIJebTAE_0FGTkRDmcfTUjcAqA,SABZAZAR SCHEME,Ashraf Clinic,31.48211,74.39587999999999,doctor,OPERATIONAL,"Sector H Dha Phase 1, Lahore",3.7,3,DHA
ChIJqb7x1nAPGTkRQJ7zm_bkd5A,SABZAZAR SCHEME,Doctor Atif Shazad,31.4838971,74.4075464,doctor,OPERATIONAL,"7-11 Ghazi Rd, DHA Sector Q DHA Phase 2, Lahore",5.0,2,DHA
ChIJ2ZJI4AMGGTkRnkqyMd8lwM0,M-BOLEVARD DHA,Khalid Pharmacy,31.4749594,74.4009659,pharmacy,OPERATIONAL,"FCF2+X9W, Sector S DHA Phase 2, Lahore",4.4,38,DHA
ChIJERNV1AMGGTkR5u2b2mq60vM,ITTEFAQ HOSPITAL,Care & Cure Pharmacy,31.4755524,74.4025674,pharmacy,OPERATIONAL,"Sector R DHA Phase 2, Lahore",5.0,1,DHA
ChIJ3V-mu_AHGTkR3ZPKN8xp7XQ,M-BOLEVARD DHA,Fahad pharmacy,31.4707443,74.38989029999999,pharmacy,OPERATIONAL,"41 K block, dha phase 1 Sector K Dha Phase 1, Lahore",0.0,0,DHA
ChIJE9TMFeIHGTkRIDWIz9aKCPs,M-BOLEVARD DHA,Al-Asr pharmacy,31.4698877,74.3879415,pharmacy,OPERATIONAL,"AL-Asr pharmacy, Main Ghazi Rd, opposite D.M school, DHA Phase 4 Sector EE Dha Phase 4, Lahore",0.0,0,DHA
ChIJxb_3f_gHGTkR2t9ubE9aopk,MISRI SHAH,Hafiz Pharmacy,31.4638861,74.38844689999999,pharmacy,OPERATIONAL,"Plot C 240, Sector FF Dha Phase 4, Lahore",4.7,10,DHA
ChIJ8WZzXhMGGTkRlsFQjznJAf8,PUNJAB SOCIETY,Mahmood Pharmacy,31.4624389,74.3835529,pharmacy,OPERATIONAL,"F97M+2CG, Ground Floor, Plaza 63, Block DD, CCA, DHA Phase 4 Lahore",3.3,21,DHA
ChIJ4zKUbhEGGTkR1QwzMDpByFw,MISRI SHAH,Siddique Sons Pharmacy,31.464745,74.3890589,pharmacy,OPERATIONAL,"F97Q+VJV، Sector FF, Central Commercial Area, Phase IV, DHA, Lahore, Sector FF Dha Phase 4, Lahore",3.2,5,DHA
ChIJ_____w8GGTkRPZ092qAYsA4,M-BOLEVARD DHA,Green Plus Pharmice,31.4692084,74.3940247,pharmacy,OPERATIONAL,"bhati plaza shope no 1 qunche amersadhu, Sector S DHA Phase 2, Lahore",4.8,4,DHA
ChIJu3ddAewHGTkRLzLJx4-sQ1k,PUNJAB SOCIETY,Servaid,31.4775856,74.3880312,pharmacy,OPERATIONAL,"Shop No 1, Mughal Market، Plot C St 70، J block Sector J Dha Phase 1, Lahore",5.0,5,DHA
ChIJE_rx2QMHGTkRIvy12S7S6cY,PUNJAB SOCIETY,Hyatt Pharmacy,31.4636454,74.3864449,pharmacy,OPERATIONAL,"194 cc, Sector CCA Dha Phase 4, Lahore",3.3,7,DHA
ChIJz00EbhD_GDkRmCSN57PGod8,M-BOLEVARD DHA,Medik Pharmacy,31.474739,74.4000834,pharmacy,OPERATIONAL,"Palm avenew, 1 Street No 2, Sector B Sukh Chayn Gardens, Lahore",4.8,4,DHA
ChIJU-CqrZ4HGTkRCbBFN7OZr60,M-BOLEVARD DHA,The Care Pharmacy,31.471215,74.3901889,pharmacy,OPERATIONAL,"14 K commercial, Sector K Dha Phase 1, Lahore",5.0,1,DHA
ChIJSRfBmzsHGTkR1KjWX7Dh9mg,M-BOLEVARD DHA,AMT Dental Practice,31.46986059999999,74.3902363,dentist,OPERATIONAL,"430 EE, DHA Phase 4 DHA Phase 3, Lahore",5.0,26,DHA
ChIJoWeMuAMGGTkRtoRNfBMDkF4,M-BOLEVARD DHA,AN Dental Surgery,31.4740972,74.4017672,dentist,OPERATIONAL,"30-T, Civic Commercial Area Sector T DHA Phase 2, Lahore",5.0,10,DHA
ChIJZc_0n20GGTkRrLppfKSB-IE,PUNJAB SOCIETY,Ideal Smile Dentistry,31.4643445,74.3859928,dentist,OPERATIONAL,"185-CCA, DD Phase 4, DHA, Sector CCA Dha Phase 4, Lahore",4.7,165,DHA
ChIJq88YSO4FGTkRJA6nBsILdoE,SABZAZAR SCHEME,Madina Medical Store,31.4945635,74.3924428,hospital,OPERATIONAL,"F9VR+RXG, Nishat Colony Lahore",5.0,1,DHA
ChIJ5z_Bp8YFGTkRop70Sw1IOR0,SABZAZAR SCHEME,Uswa Trust Hospital,31.4947453,74.37546569999999,hospital,OPERATIONAL,"F9VG+V5W, New Super Town Lahore",5.0,1,DHA
ChIJ_4ktOu4FGTkRWHiwesWObUU,SABZAZAR SCHEME,Ayesha Hospital,31.4949671,74.3928825,hospital,OPERATIONAL,"Ayesha hospital nishat colony, Cantt, Lahore",3.7,83,DHA
ChIJJfwD5EkPGTkRGXNMbIDaDJk,LAL PUL RIGHT,PIA Crew Medical Center,31.51341,74.41228199999999,hospital,OPERATIONAL,"GC76+9W7, Unnamed Road, Cantt, Lahore",5.0,2,DHA
ChIJ7RNx0PEFGTkRR1u6QMOyBZA,SABZAZAR SCHEME,Hassan Clinic & Medical Centre,31.4949528,74.3945536,hospital,OPERATIONAL,"Nishat Colony Main Rd, Nishat Colony Lahore",5.0,4,DHA
ChIJk45TEMQFGTkRnoroI5Blg24,WAHDAT ROAD,Prime Care Hospital,31.4933531,74.37580899999999,hospital,OPERATIONAL,"Main Boulevard, Defence Road, Super Town, Lahore",4.1,63,DHA
ChIJ08a6jVgPGTkR3cbGjNvpIhA,SABZAZAR SCHEME,Family Health Clinic Ali Ahmed Street No. 01,31.4962994,74.4068605,hospital,OPERATIONAL,"FCW4+GP9, Nadirabad Lahore",5.0,1,DHA
ChIJVc2bufcFGTkRFe3BkKFV6rg,SABZAZAR SCHEME,Ramay Clinic & Home Care Services,31.4945,74.4037796,doctor,OPERATIONAL,"Ramay Clinic, Bedian Rd, beside Royal Palace Marriage Hall, Ali View Garden Ali View, Lahore",4.8,63,DHA
ChIJ76KR9JMFGTkRT_J9VtXK4aY,WAHDAT ROAD,Sina Online Homeopathic Clinic & Store,31.4883733,74.3800839,doctor,OPERATIONAL,"F9QJ+82W Aadil Hospital Bus Stop, Iqbal Park, Lahore",5.0,3,DHA
ChIJTcAbBlgPGTkR8foUH-ZVgQU,SABZAZAR SCHEME,Dr. Khaled Mirza Clinic,31.4935325,74.4059388,doctor,OPERATIONAL,"FCV4+C94, Bedian Rd, Phase-1 Nadirabad, Lahore",4.8,30,DHA
ChIJlYwYsg0FGTkRTXI2ycnQFXk,WAHDAT ROAD,Orooj Clinic,31.4910353,74.3746266,doctor,OPERATIONAL,"Link 2 , Super Town, Main Boulevard, Defence",5.0,32,DHA
ChIJMWpjReMFGTkRKeQkVmRY7GE,SABZAZAR SCHEME,Noor Pharmacy,31.4848654,74.3931826,pharmacy,OPERATIONAL,"Sector G Dha Phase 1, Lahore",5.0,1,DHA
ChIJwyC97_AFGTkR2-B71r2BpDM,SABZAZAR SCHEME,NISHAT Medical & Super Store,31.4938125,74.3976875,pharmacy,OPERATIONAL,"Nishat Colony, Lahore",4.0,107,DHA
ChIJRexmgWAFGTkRLpxh0ZnXQAQ,SABZAZAR SCHEME,Mini Cantt Pharmacy,31.4902059,74.38712439999999,pharmacy,OPERATIONAL,"Faisal Ghuman Rd, Nishat Colony Lahore",4.6,8,DHA
ChIJZQDvOe4FGTkRVzHG05FAB3Y,SABZAZAR SCHEME,Salman Medical Store,31.4948089,74.39278519999999,pharmacy,OPERATIONAL,"F9VV+W47, Nishat Colony Main Rd, Nishat Colony Lahore",4.0,5,DHA
ChIJx3uPy6gFGTkR68JkuN8etqw,SABZAZAR SCHEME,Shareef Pharmacy & General Store,31.4952324,74.3951846,pharmacy,OPERATIONAL,"Milad Chowk Rd, Nishat Colony Lahore",0.0,0,DHA
ChIJrU3w2vEFGTkRdx2ytEJhlUM,SABZAZAR SCHEME,Hameed Pharmacy,31.4949617,74.3944489,pharmacy,OPERATIONAL,"Main Bazar, Nishat Colony Main Rd, Nishat Colony, Lahore",4.7,3,DHA
ChIJp41Yb44FGTkRSviYqn1jp-c,SABZAZAR SCHEME,Abid Pharmacy & General Store,31.4949149,74.392273,pharmacy,OPERATIONAL,"F9VR+XW8, Main Road, Nishat Colony Lahore",5.0,1,DHA
ChIJPxxWLt0FGTkRh3RtQgLwjoE,WAHDAT ROAD,Al-Ghanem Pharmacy,31.4890954,74.3798245,pharmacy,OPERATIONAL,"New Super Town, Lahore",0.0,0,DHA
ChIJeSUGfk8FGTkRj8sCl0sAt0A,SABZAZAR SCHEME,Barkat Pharmacy,31.4943287,74.3877012,pharmacy,OPERATIONAL,"381- Nishat colony main RD, Main road, opposite Hafiz bakery, Nishat Colony, Lahore",5.0,1,DHA
ChIJu-mRrXIFGTkR9v-bzg6uuD4,SABZAZAR SCHEME,AR Pharmacy,31.4948723,74.3918728,pharmacy,OPERATIONAL,"E 304 B, Main Road, Nishat Colony Cantt, Lahore",5.0,1,DHA
ChIJ-e8iMnQFGTkRf4iPUn0_fK4,WAHDAT ROAD,Hassan Medical Store,31.4874205,74.38020290000001,pharmacy,OPERATIONAL,"E-152, Street # 9, D.H.A. Main Blvd, L.C.C.H.S Iqbal Park, Lahore",4.9,8,DHA
ChIJc9YAr4wFGTkRDsVn3U63n0Q,SABZAZAR SCHEME,Apple Pharmacy (Project of Green Pharmacie),31.4911323,74.3870616,pharmacy,OPERATIONAL,"Faisal Ghuman Road, Civil Defence, opposite Garrison Academy, Nishat Colony Cantt, Lahore",3.5,4,DHA
ChIJO8AuPgAFGTkR2H9ttsyeeyE,SABZAZAR SCHEME,Khan medical store,31.5041946,74.3839366,pharmacy,OPERATIONAL,"G93M+MHM, R A Bazaar Cantt, Lahore",0.0,0,DHA
ChIJWar3_J8FGTkRs_P3t3kENMg,SABZAZAR SCHEME,MAHMOOD PHARMACY,31.49555459999999,74.3872447,pharmacy,OPERATIONAL,"E5 Opp: Park, Faisal Ghuman Rd, Nishat Cantt Nishat Colony, Lahore",3.3,7,DHA
ChIJjUXcLpIFGTkRjVYaPtTOi5Q,SABZAZAR SCHEME,Inayat medicine company,31.5032081,74.38296969999999,pharmacy,OPERATIONAL,"G93M+75P, R. A Bazaar, Lal kurrti, Cantt, Nowshera,k P k, R A Bazaar Cantt, Lahore",0.0,0,DHA
ChIJLQNIPt0FGTkRI1A13dwA3PU,WAHDAT ROAD,Bait-ul-Adyiat Homeopathic Store,31.4883734,74.38051349999999,pharmacy,OPERATIONAL,"F9QJ+86R, Khurshid Plaza, Jinnah Ave, New Super Town, Cavalry Ground, Lahore, Punjab, New Super Town, Lahore",5.0,1,DHA
ChIJI3NEFmIDGTkRykgsk1m0aQA,SABZAZAR SCHEME,Hayat Pharmacy,31.4842386,74.38713059999999,pharmacy,OPERATIONAL,"27B, Street 7, Avenue 3 Judicial Housing Society, Phase 3, 12, near DHA Phase, EME Sector, Lahore",4.8,6,DHA
ChIJG48D4vYFGTkRcpNw5x8vJUU,SABZAZAR SCHEME,Al Rehman Medical Hall,31.4952048,74.4016631,pharmacy,OPERATIONAL,"FCW2+3M6, Bedian Rd, Ali View Garden Ali View, Lahore",3.0,2,DHA
ChIJSzcVI_0FGTkRuvKhemO9Gco,SABZAZAR SCHEME,Trust pharmacy Store H Block,31.482563,74.3951039,pharmacy,OPERATIONAL,"F9MW+22H, Street 147, Sector H Dha Phase 1, Lahore",4.3,8,DHA
ChIJo_Oh8vMFGTkRcA95StCNo-0,SABZAZAR SCHEME,Teeth & Co Dental Clinic,31.4879995,74.3961838,dentist,OPERATIONAL,"N 23, Dha Phase 1, Lahore",5.0,8,DHA
ChIJI9uRfuMFGTkRkQOn5_XIlTQ,SABZAZAR SCHEME,CaliforniaCare-Dental,31.4852249,74.3912947,dentist,OPERATIONAL,"39 F-block, Phase 1، Sector F. Defense, Sector F Dha Phase 1, Lahore",4.8,13,DHA
ChIJDYWzqg0dGTkRli-NKXVVlmY,SABZAZAR SCHEME,Asad Dental And Maxillofacial Surgery Clinic - Teeth Whitening - Scaling and Polishing - Dental Clinic in DHA LHR,31.4825962,74.3957226,dentist,OPERATIONAL,"87-H, Block H Commercial, Dha Phase 1, Lahore",5.0,65,DHA
ChIJwU-TlbIFZiMRbAAJ45B9P0U,WAHDAT ROAD,Wahdat Dental Care Centre DHA | Best Dentist Clinic in Lahore,31.4889619,74.3800287,dentist,OPERATIONAL,"D.H.A main boulevard, New, near Adil Hospital, super town, Lahore",5.0,2,DHA
ChIJqbOy1Z4FGTkRvMMxzsu4270,LAL PUL RIGHT,PAF Hospital,31.5179555,74.3855521,hospital,OPERATIONAL,"14, Munir Road, Munir Chowk, (Near PAF Cinema), Punjab, Cantt, Lahore",4.5,135,DHA
ChIJvWXtifIFGTkRW1gbBo3Lj8A,SABZAZAR SCHEME,Fauji Foundation Hospital,31.49973469999999,74.39474779999999,hospital,OPERATIONAL,"Bedian Rd، near Askari 3, Cantt, Lahore",3.7,333,DHA
ChIJK2YaM3oFGTkRuE5_jtz-Seo,LAL PUL RIGHT,B-well pharmacy,31.5189921,74.38172999999999,pharmacy,OPERATIONAL,"G99J+HMX, Cantt, Lahore",4.5,2,DHA
ChIJEx_yLYAFGTkRsEo8J6pgRHI,LAL PUL RIGHT,The Well Pharmacy,31.5194773,74.3818328,pharmacy,OPERATIONAL,"G99J+QQR, Cantt, Lahore",0.0,0,DHA
ChIJH10v1Z4FGTkRToxKSPlBn6M,LAL PUL RIGHT,Shaheen Pharmacy,31.5184197,74.38552159999999,pharmacy,OPERATIONAL,"G99P+966, Cantt, Lahore",4.3,6,DHA
ChIJq6qqanEIGTkR7RAwd_rtzdA,MEHMOOD,Hamza Medical Store,31.4226935,74.4129904,pharmacy,OPERATIONAL,"CCF7+35H, Deo Kalan, Lahore",4.0,2,DHA
ChIJe8nMmtcJGTkRQQhbx4lnz8U,ITTEFAQ HOSPITAL,Hameed Latif Medical Center,31.4621987,74.41451119999999,hospital,OPERATIONAL,"FC67+VQ9, CCA, Street 20, Sector C Phase 5 D.H.A, Lahore",3.9,35,DHA
ChIJsWEbSNgHGTkR2R0xH5BTrBs,KAMAHAN CHUNGI AMER SIDHU,Ahmad Hospital,31.4483176,74.39281249999999,hospital,OPERATIONAL,"144/1, 5 B Commercial Ring Road, Block B Bankers Town, Lahore",4.5,36,DHA
ChIJ648zKQAJGTkRVuzaoBt2THA,BHATA CHOWK BAIDIAN ROAD,Rehman Family clinic,31.4469501,74.4128945,doctor,OPERATIONAL,"CCW7+Q4P, Kamahan - Lidher Rd, Leel, Lahore",0.0,0,DHA
ChIJ2S8oo-AJGTkRvRWfyGnyKEU,BHATA CHOWK BAIDIAN ROAD,Qayyum Homeo Clinic,31.4522719,74.41281459999999,doctor,OPERATIONAL,"Madina Market, Street, Leel Lahore",0.0,0,DHA
ChIJ92jQTgAJGTkRYgWX1-WpHvI,BHATA CHOWK BAIDIAN ROAD,Babar Medical Store,31.43559419999999,74.42288239999999,pharmacy,OPERATIONAL,"CCPF+65J Village herpalke, near askari 11, Harpalke, Lahore",0.0,0,DHA
ChIJcYasJgAJGTkRkiHhAtXv5N8,BHATA CHOWK BAIDIAN ROAD,Ans Medical Store,31.45075509999999,74.4207558,pharmacy,OPERATIONAL,"FC2C+882, Kirian Wala, Lahore",0.0,0,DHA
ChIJxe8_4A4JGTkR9QJ0xOzh7Y4,KAMAHAN CHUNGI AMER SIDHU,City Pharmacy,31.44516399999999,74.4092264,pharmacy,OPERATIONAL,"2-C Block C Formanites Housing Scheme, Lahore",4.8,13,DHA
ChIJTxZZbQAJGTkR8JnjZZGIqLw,BHATA CHOWK BAIDIAN ROAD,Siddique & Sons Pharmacy & General,31.4508777,74.4210255,pharmacy,OPERATIONAL,"5 Kamahan - Lidher Rd, phase DHA, Lahore",0.0,0,DHA
ChIJyVfSAAAJGTkRKmzfdb9HV1k,MEHMOOD,NN pharmacy,31.4424155,74.4124057,pharmacy,OPERATIONAL,"CCR6+XX6, Formanites Housing Scheme Lahore",0.0,0,DHA
ChIJHfW1iJAFGTkR7CSsKFqDf_k,MODEL TOWN,Medlane Medical Complex,31.4828835,74.4198261,hospital,OPERATIONAL,"E-73, Main Double Road, Alfalah Town, Bedian Rd",4.8,24,DHA
ChIJQ1cVvNUFGTkRUXgqpVVuY_o,MODEL TOWN,Amber Hospital,31.4794088,74.42334939999999,hospital,OPERATIONAL,"Manawala Bedian Rd, Mana Wala, Lahore",4.1,27,DHA
ChIJI7RPcgAJGTkRFEuJRjCh5yA,MODEL TOWN,Spirit Welfare Hospital,31.4836599,74.43136710000002,hospital,OPERATIONAL,"FCMJ+FG9, Gohawa, Lahore",5.0,1,DHA
ChIJSWDdCrMIGTkRp7bbCyHMTnU,MODEL TOWN,Ahtisham Sarwar Hospital,31.4810123,74.4216938,hospital,OPERATIONAL,"Haji Park Al Amin Housing Society, Lahore",3.0,3,DHA
ChIJy2O5M00PGTkRyeJ5waWAXsI,MODEL TOWN,Ali Hospital,31.482902,74.41982100000001,hospital,OPERATIONAL,"FCM9+5W8 Bhatta Chowk, Bedian Rd, Alfalah Town Phase 1 Cantt View Housing Scheme, Lahore",5.0,6,DHA
ChIJY1XWi7MIGTkRKPZigZiApos,MODEL TOWN,Geo Hospital Bhatta Chowk LHR,31.4817909,74.4215701,hospital,OPERATIONAL,"FCJC+PJ8, Bedian Rd, Haji Park Gohawa, Lahore",3.9,44,DHA
ChIJp5RKaUgJGTkRefJDIcca1MQ,ITTEFAQ HOSPITAL,KHURSHID CLINIC,31.4624895,74.4136113,doctor,OPERATIONAL,"CCA، Building 70, Sector C Phase 5 D.H.A, Lahore",3.0,2,DHA
ChIJScYb6QAJGTkRxL4p5rk7uR0,ITTEFAQ HOSPITAL,NASIR'S CLINIC,31.4784544,74.4158673,doctor,OPERATIONAL,"FCH8+98W, Unnamed Road, Punjab Small Industries Cooperative Housing Society Phase 1 Cantt View Housing Scheme, Lahore",3.0,3,DHA
ChIJjWybNocJGTkRn3jumSc9lyI,ITTEFAQ HOSPITAL,"Allergy Centre, Australian Polyclinic, Lahore. Allergist, Immunologist",31.4621635,74.4144987,doctor,OPERATIONAL,"19 CCA DHA Phase 5, Lahore",4.9,14,DHA
ChIJzft0CrQIGTkRaeAKDNxJ5JU,MODEL TOWN,Tayyab Medical Store,31.4794265,74.4232643,pharmacy,OPERATIONAL,"Mana Wala, Lahore",2.0,2,DHA
ChIJpZVciOEJGTkRS2j-M_aqE7w,ITTEFAQ HOSPITAL,GET WELL PHARMACY,31.4622874,74.413491,pharmacy,OPERATIONAL,"Plaza 70CCA, near tawatandoor restraunt, Sector C Phase 5 D.H.A, Lahore",3.9,8,DHA
ChIJCbj-oX8JGTkRyb-DRASR8mg,ITTEFAQ HOSPITAL,My Drug Store,31.46145989999999,74.4139908,pharmacy,OPERATIONAL,"31/1, CCA, Phase 5 D.H.A, Lahore",5.0,3,DHA
ChIJ7_sNBHUJGTkRaW02bGkN3Dk,ITTEFAQ HOSPITAL,We Pharmacy,31.47740079999999,74.4134689,pharmacy,OPERATIONAL,"Plot Street Number 4-D, near LUMS University, Punjab Small Industries Cooperative Housing Society Revenue Employees Cooperative Housing Society, PSIC",5.0,11,DHA
ChIJv7T6PKwIGTkRNDkY4l_zheQ,ITTEFAQ HOSPITAL,Hafiz Medical Store,31.4775766,74.4142389,pharmacy,OPERATIONAL,"FCH7+2MP, Unnamed Road, Punjab Small Industries Cooperative Housing Society Phase 1 Cantt View Housing Scheme, Lahore",4.5,4,DHA
ChIJL07CkHEJGTkRNZ9s1J2gA7U,ITTEFAQ HOSPITAL,Health+Pharmacy,31.4611087,74.41392820000002,pharmacy,OPERATIONAL,"Plaza 82 ,Centrally, Commercial Area, Sector C Phase 5 D.H.A, Lahore",3.8,4,DHA
ChIJ_TOQM54JGTkRqj6Ya213bP8,ITTEFAQ HOSPITAL,Friends Pharmacy,31.476811,74.41488609999999,pharmacy,OPERATIONAL,"Punjab Small Industries Cooperative Housing Society society, Lahore",0.0,0,DHA
ChIJh7rVZwAJGTkReSNG4qiojN0,ITTEFAQ HOSPITAL,New Pakistan Pharmacy,31.4700978,74.4176642,pharmacy,OPERATIONAL,"DHA Ph 5, D Block Galla, Mana Wala, Lahore",0.0,0,DHA
ChIJUUyaTQAJGTkRETvsfHqxESU,ITTEFAQ HOSPITAL,Mahmood Pharmacy,31.4630566,74.4147626,pharmacy,OPERATIONAL,"FC77+6WC, Sector C Phase 5 D.H.A, Lahore",3.3,4,DHA
ChIJF8wz8WUJGTkR1D1z4jeyeQU,MODEL TOWN,Sultan Pharmacy,31.4796937,74.42323929999999,pharmacy,OPERATIONAL,"FCHF+V78, Haji Park Mana Wala, Lahore",3.7,6,DHA
ChIJL5Y2zREJGTkRRgca4sC4tp0,ITTEFAQ HOSPITAL,Smart MED Pharmacy,31.468281,74.4229541,pharmacy,OPERATIONAL,"Sector B Phase 5 D.H.A, Lahore",4.8,10,DHA
ChIJlREJprYIGTkR88oQ_g9fxiU,MODEL TOWN,Well Phamacy,31.4780234,74.4240049,pharmacy,OPERATIONAL,"FCHF+6J7, Bedian Rd, Mana Wala, Lahore",4.4,7,DHA
ChIJhR2WRKIIGTkRt8cu0knSnjI,ITTEFAQ HOSPITAL,Siddique Sons Pharmacy,31.4622448,74.41358199999999,pharmacy,OPERATIONAL,"FC67+VCW, Sector C Phase 5 D.H.A, Lahore",4.7,10,DHA
ChIJ0Yl2J_0FGTkRfAUYyZjfzrs,ITTEFAQ HOSPITAL,CSH Pharmacy,31.4618125,74.4153125,pharmacy,OPERATIONAL,"FC68+P4M, 60 CCA, Sector C Phase 5 D.H.A, Lahore",4.8,9,DHA
ChIJgUAwJkYJGTkRghZAVUOXxhI,MODEL TOWN,Khalid omer pharmacy,31.4797693,74.4232025,pharmacy,OPERATIONAL,"FCHF+W74, Bedian Rd, near Malik Chiragh Din Hospital manawala stop, Haji Park Gohawa, Lahore",0.0,0,DHA
ChIJD4UtyAsJGTkR-bd8fju86Ks,M-BOLEVARD DHA,Punjab Pharmacy DHA Phase 5,31.4614312,74.41306,pharmacy,OPERATIONAL,"CCA, Ground Floor, Plaza 75, C, Sector E Phase 5 D.H.A, Lahore",4.8,5,DHA
ChIJe-0HRaIIGTkR0q344CGdBXI,ITTEFAQ HOSPITAL,D Square (D²),31.46186659999999,74.4140862,dentist,OPERATIONAL,"2nd Floor، Commercial Area , Phase 5, DHA, 34 CCA, Lahore",4.8,29,DHA
ChIJe9YxXRMJGTkRbhYhWBm66DQ,MODEL TOWN,Ahmed Dental Clinic,31.4775774,74.42444239999999,dentist,OPERATIONAL,"Main Bedian Rd, Manzoor Colony Mana Wala, Lahore",0.0,0,DHA
ChIJrTIJZBgJGTkRbImidpdoUi8,ITTEFAQ HOSPITAL,Aligno - DHA Phase 5,31.46323,74.4141199,dentist,OPERATIONAL,"4th Floor, Street 6, Sector C Phase 5 D.H.A, Lahore",0.0,0,DHA
ChIJwYmbcOEPGTkRFvbmlBdULRI,MODEL TOWN,Tufail Medical Center,31.4933272,74.4198047,hospital,OPERATIONAL,"71-S, Khuda Buksh Colony, Lahore",0.0,0,DHA
ChIJg3oAM2UPGTkRZJPaFRL4aag,MODEL TOWN,TABA Medical Complex,31.4961727,74.4268407,hospital,OPERATIONAL,"FCWG+FP8, Near AR Complex, Netsol Technologies, Service Bhatta choke Lane, Lahore Ring Rd, Tibba, Lahore",5.0,3,DHA
ChIJhRSWZisPGTkRZqtjP1KKYmM,ISLAM PURA,Mayo Poly Clinic,31.5103798,74.4315321,hospital,OPERATIONAL,"46-A, DHA Phase 8 Eden City, Lahore",5.0,3,DHA
ChIJJTD2De0PGTkRpjTkUF9s4UM,MODEL TOWN,Darul Shifa Hospital,31.4930512,74.4215117,hospital,OPERATIONAL,"KB Commercial Rd, Khuda Buksh Colony Lahore",4.8,63,DHA
ChIJrSzW808PGTkR2_OoLLtf1go,MODEL TOWN,Ahmad Clinic,31.4939113,74.4184886,hospital,OPERATIONAL,"FCV9+H99, Khuda Buksh Colony KB Society, Lahore",5.0,1,DHA
ChIJcUhrhQMPGTkRzjDM6jx4mi8,SABZAZAR SCHEME,Dr.Farhan ( General Physician),31.5031943,74.4126272,doctor,OPERATIONAL,"house # d/28, divine, gardens, near metro cash & carry, Block D Divine Gardens, Lahore",5.0,37,DHA
ChIJ7fou0y8PGTkR-Ug5Sc7Y-js,SABZAZAR SCHEME,Divine Health & Fitness Clinic,31.50216159999999,74.41481670000002,doctor,OPERATIONAL,"Shop#1 Ground Floor Commercial Arcade, Block B Divine Gardens, Lahore",5.0,5,DHA
ChIJczQS9E8PGTkR_UzsmAfsIH4,MODEL TOWN,The Face Aesthetic Clinic,31.4941151,74.4185602,doctor,OPERATIONAL,"7SF, AB Height, Defence Airport Road Near Honda Showroom Opp Byco Petrol Pump Lahore Pakistan",5.0,3,DHA
ChIJPxdqVVQPGTkRjbaBuihr8gI,SABZAZAR SCHEME,Trust Medical Store,31.484898,74.4086891,pharmacy,OPERATIONAL,"Sector Q DHA Phase 2, Lahore",5.0,1,DHA
ChIJIag_ZAAPGTkRB4YsECP4wfg,SABZAZAR SCHEME,Jameel Medical & General Store,31.4873961,74.41240909999999,pharmacy,OPERATIONAL,"FCP6+XX3, Kohār Phase 2 Cantt View Housing Scheme, Lahore",4.0,8,DHA
ChIJ4558WlQPGTkRngJp34U9owQ,SABZAZAR SCHEME,Ali Medicos,31.48541489999999,74.4093651,pharmacy,OPERATIONAL,"Rehman Gardens, Lahore",0.0,0,DHA
ChIJZRJikVcPGTkRhcOIzzc6kyc,SABZAZAR SCHEME,Shoukat Medical Store,31.4920967,74.40747739999999,pharmacy,OPERATIONAL,"FCR4+RXX, Nadirabad, Lahore",0.0,0,DHA
ChIJUQZlfAAPGTkRsWbXgb6xLcU,MODEL TOWN,Defence Medical Store,31.4858015,74.4264645,pharmacy,OPERATIONAL,"FCPG+9HG, Zahoor Rd, Gohawa, Lahore",0.0,0,DHA
ChIJGTRHMAAPGTkRWHKCQ0098rc,MODEL TOWN,Ali Medical & General Store,31.4933559,74.42658709999999,pharmacy,OPERATIONAL,"FCVG+6H, Gohawa Lahore",0.0,0,DHA
ChIJXdGbJAAPGTkR7Ou3lAAN8QQ,MODEL TOWN,Mughal Medical Store,31.4929477,74.4263996,pharmacy,OPERATIONAL,"FCVG+6H, Gohawa Lahore",0.0,0,DHA
ChIJXxwjAVcPGTkRRMiR2NilW2E,SABZAZAR SCHEME,ISLAM MEDICAL STORE,31.4907037,74.4088384,pharmacy,OPERATIONAL,"Bedian Rd, Nadirabad, Lahore",0.0,0,DHA
ChIJe5cQGAAPGTkRQ09xFracXrU,SABZAZAR SCHEME,Ahmed Pharmacy,31.4881521,74.4129553,pharmacy,OPERATIONAL,"FCQ7+65M, Kohār Phase 2 Cantt View Housing Scheme, Lahore",5.0,2,DHA
ChIJFSDPbwAPGTkRTHVTOvSVLvU,MODEL TOWN,Save Life Medical store,31.4881989,74.4218578,pharmacy,OPERATIONAL,"FCQC+6Q2, Alfalah Town Phase 1 Cantt View Housing Scheme, Lahore",0.0,0,DHA
ChIJocIptOoPGTkRdXwAFxAl08A,SABZAZAR SCHEME,Mujahid Medical Store,31.4957859,74.4089297,pharmacy,OPERATIONAL,"Farooq e azan chowk , St # 2, Bedian Rd, Nadirabad",5.0,3,DHA
ChIJ037TGgAPGTkRTatNs8jDBnU,SABZAZAR SCHEME,Bismillah Medical Store,31.4931862,74.4150686,pharmacy,OPERATIONAL,"FCV8+72P, Gulshan e Ali Colony, Lahore",5.0,2,DHA
ChIJo76MiVIPGTkR1PPn_4NsPHI,MODEL TOWN,Rafique Sons Pharmacy,31.4856805,74.4163123,pharmacy,OPERATIONAL,"FCP8+7GG, Kohār Phase 2 Cantt View Housing Scheme, Lahore",4.8,8,DHA
ChIJJQedG10PGTkROVmQN4IcqhY,MODEL TOWN,AL-Khalid Pharmacy,31.493353,74.4205224,pharmacy,OPERATIONAL,"FCVC+86R, Airport Rd, Khuda Buksh Colony Cantt, Lahore",5.0,1,DHA
ChIJoU-iGwAPGTkRVwNAew-CL9A,MODEL TOWN,Unique Pharmacy & General Store,31.49165369999999,74.4162733,pharmacy,OPERATIONAL,"FCR8+MF4, Ghazi Rd, Khuda Buksh Colony KB Society, Lahore",0.0,0,DHA
ChIJ0RiUDlgPGTkRsdzvMZ09s7w,SABZAZAR SCHEME,Maryam Medical Store,31.4942039,74.4063331,pharmacy,OPERATIONAL,"nadriabad, 2 Bedian Rd, Lahore",5.0,3,DHA
ChIJY4lzftwJGTkR8GK6VoQFUTI,ITTEFAQ HOSPITAL,Generic pharma +,31.48511329999999,74.40950839999999,pharmacy,OPERATIONAL,"Shop#1 Madina Market Ghazi Road Bhatta Chowk, Rehman Villas, Lahore",3.0,2,DHA
ChIJyd4n6FYPGTkRHY5arqLmpvE,SABZAZAR SCHEME,Nadeem Medical Store,31.4897483,74.4100653,pharmacy,OPERATIONAL,"FCQ6+W24, Bedian Rd Nadirabad, Colony",2.3,3,DHA
ChIJQ-Z-4VMPGTkROH66c5MIKAI,SABZAZAR SCHEME,AL-Ghani Medical and General Store,31.4878828,74.4126897,pharmacy,OPERATIONAL,"FCQ7+536, Ghazi Rd, Phase 2 Cantt View Housing Scheme, Lahore",4.3,3,DHA
ChIJ8ZX9MwAPGTkRvsIHInWlcwQ,MODEL TOWN,Bilal Pharmacy,31.4859784,74.4151492,pharmacy,OPERATIONAL,"FCP8+93M, St 1, Phase 1 Cantt View Housing Scheme, Lahore",0.0,0,DHA
ChIJ9SVR0ZgJGTkRQj7Yh6IIrhE,MODEL TOWN,Asif Dental Studio,31.4857481,74.4161962,dentist,OPERATIONAL,"Bhatta Chowk, Bedian Rd, Kohār Phase 2 Cantt View Housing Scheme, Lahore",4.8,81,DHA
ChIJUU6nqiIPGTkRn9IKMqmxVRA,MODEL TOWN,The TOOTH Clinic,31.4843989,74.4195558,dentist,OPERATIONAL,"Opposite Malik oil kolho, gohava morr, Bedian Rd",5.0,9,DHA
ChIJj0OC5lYPGTkRHKL_YAVQ5P8,SABZAZAR SCHEME,Durani Dental Surgery,31.4905858,74.4092798,dentist,OPERATIONAL,"Bedian Rd, Nadirabad, Farooqabad",4.7,146,DHA
ChIJD8I98CYPGTkRxqipxsmDEno,ITTEFAQ HOSPITAL,Ghauri Dental Center,31.4833429,74.4090207,dentist,OPERATIONAL,"281-Q Commercial lane, Sector Q DHA Phase 2, Lahore",4.9,230,DHA
ChIJ-XTenXsPGTkR215wX5BylvU,LAL PUL RIGHT,Boots Medical Center Askari 10,31.5315321,74.4113271,doctor,OPERATIONAL,"GCJ6+MGC basement punjab cash and carry, Boots Medical center, Sector C Block E Askari X, Lahore",4.5,24,DHA
ChIJSSeEhp0PGTkRiV-13S1J3x8,ISLAM PURA,Advanced Hair Skin Clinic And Institute,31.51032459999999,74.4315167,doctor,OPERATIONAL,"Mayo Polyclinic, 46-A, Eden City, Lahore",0.0,0,DHA
ChIJHWfJmIoPGTkRinHAB6rn8YM,LAL PUL RIGHT,Mughal Hospital,31.5470613,74.4059589,hospital,OPERATIONAL,"GCW4+R9G, Al-Faisal Town, Lahore",3.0,6,DHA
ChIJvylBHtQFGTkR9n43Efm8Wh4,LAL PUL RIGHT,.MADINA CLINIC.,31.5469014,74.40420490000001,hospital,OPERATIONAL,"GCW3+QM8, Al-Faisal Town, Lahore",0.0,0,DHA
ChIJA21buBkFGTkRLbUbOsVOr0c,LAL PUL RIGHT,Saad Clinic ( Dr. Slah ud din ' s Clinic),31.5468741,74.40564549999999,doctor,OPERATIONAL,"GCW4+P7R, Bahar Shah Rd, Al-Faisal Town, Lahore",5.0,3,DHA
ChIJD3I0UXQPGTkRgLXDBc1yyHY,LAL PUL RIGHT,Waqas Clinic And Ultrasound Centre,31.547654,74.4063476,doctor,OPERATIONAL,"GCX4+3G9, Al-Faisal Town, Lahore",5.0,5,DHA
ChIJw1sJfwAPGTkRgsm9xyAj0xs,LAL PUL RIGHT,Zeenat Clinic (Dr. Amir Jamal),31.5437284,74.4079398,doctor,OPERATIONAL,"D block Bahar Shah Rd, Al-Faisal Town, Lahore",0.0,0,DHA
ChIJzwXOuooPGTkRBQR6RvuiNfQ,LAL PUL RIGHT,Anwar Clinic (Dr Col (R) M Anwar Qureshi ),31.5478054,74.4063376,doctor,OPERATIONAL,"GCX4+4GH, Al-Faisal Town, Lahore",0.0,0,DHA
ChIJieItEU4FGTkRYIs3u6NfDqA,LAL PUL RIGHT,Nomi Clinic ; Dr rubina Imtiaz,31.5482987,74.4040854,doctor,OPERATIONAL,"GCX3+8JG, Depot wali gali, near Al Sheikh Bakers, Al-Faisal Town, Lahore",4.0,4,DHA
ChIJf9CtIGAFGTkRzD7KAsG7vmk,LAL PUL RIGHT,Iqbal Pharmacy,31.5467209,74.405649,pharmacy,OPERATIONAL,"GCW4+M7J, Bahar Shah Rd, Al-Faisal Town, Lahore",4.0,8,DHA
ChIJJegM6yYFGTkRs4i5s8dgV2o,LAL PUL RIGHT,R.A Pharmacy,31.5471055,74.4059998,pharmacy,OPERATIONAL,"GCW4+V94, Bahar Shah Rd, Al-Faisal Town, Lahore",0.0,0,DHA
ChIJDSiTDxAPGTkRKxrVgBnRlWI,LAL PUL RIGHT,Noor Medicos,31.5372734,74.4114869,pharmacy,OPERATIONAL,"GCP6+WH5, Sector B Block E Askari X, Lahore",0.0,0,DHA
ChIJc8CzGXoJGTkRvsEwuTb3RfY,BHATA CHOWK BAIDIAN ROAD,Kanwal Family Clinic,31.45827319999999,74.44093889999999,hospital,OPERATIONAL,"Lidher, Bedian Rd, Lahore",5.0,4,DHA
ChIJM0vdCkMJGTkRbysxNu6Fuuw,BHATA CHOWK BAIDIAN ROAD,Health Care Hospital,31.44954419999999,74.4535013,hospital,OPERATIONAL,"Workshop stop, Main Bedian Rd, Lahore",4.5,46,DHA
ChIJj37xpCwJGTkRnjjA9nnHYJA,HAIR PIND BAIDIAN,"Indus Hospital - Bedian Road, Lahore",31.457862,74.44293530000002,hospital,OPERATIONAL,"Bedian Rd, Lidher, Lahore",3.6,21,DHA
ChIJdWOcr-gIGTkRUfiIlcF2SQY,BHATA CHOWK BAIDIAN ROAD,Kamran Hospital,31.4576546,74.4420229,hospital,OPERATIONAL,"Bedian Rd, Lidher, Lahore",4.5,2,DHA
ChIJbZn-XuMIGTkRyfwJdOuOFLE,BHATA CHOWK BAIDIAN ROAD,Gulberg Lions Hospital,31.4546431,74.4469587,hospital,OPERATIONAL,"Main Bedian Road, Ladhar، opposite Government Degree Boys College, PACE Woodlands, Lahore",3.9,13,DHA
ChIJk-T77lsJGTkRSaoIiVC4Bf0,MODEL TOWN,Rahat Free Medical Centre,31.4609298,74.4421539,hospital,OPERATIONAL,"FC6R+9VC, Unnamed Road, Sector C DHA Phase 6, Lidher",0.0,0,DHA
ChIJ24KfxeUIGTkRXDa4Fb4Iats,HAIR PIND BAIDIAN,Physical rehabilitation Center,31.457565,74.4429478,hospital,OPERATIONAL,"FC5V+25G, Lidher, Lahore",5.0,1,DHA
ChIJdy6NsxoJGTkRIbBCydJ57vQ,HAIR PIND BAIDIAN,Pakistan Kidney and Liver Institute and Research Centre - PKLI,31.455454,74.4634468,hospital,OPERATIONAL,"Street 1, PKLI Avenue DHA Phase 6, Lahore",4.3,795,DHA
ChIJt6a1gBcJGTkRPeLHWAH_MPI,BHATA CHOWK BAIDIAN ROAD,Doctors Family Clinic,31.4524268,74.44541219999999,doctor,OPERATIONAL,"House Number 201, Pacewoodlands Society, Bedian Rd, PACE Woodlands Lahore",5.0,11,DHA
ChIJQzLtRQAJGTkR9rZH8UwLpdM,BHATA CHOWK BAIDIAN ROAD,Eye Care Clinic,31.4493731,74.4537309,doctor,OPERATIONAL,"Bedian Rd, Mota Singh Wala, Lahore",4.9,7,DHA
ChIJmR8cqV4JGTkRUqc1m_YI1YI,BHATA CHOWK BAIDIAN ROAD,My Pharmacy,31.4479549,74.4336955,pharmacy,OPERATIONAL,"CCXM+5FP, Roran Wala, Lahore",5.0,1,DHA
ChIJWcVLHQAJGTkRyjJY8U2V6uI,BHATA CHOWK BAIDIAN ROAD,Akbar medical store,31.4398556,74.4505927,pharmacy,OPERATIONAL,"CFQ2+V3P, Mota Singh Wala, Mota Singhwala",0.0,0,DHA
ChIJT-UbKeMJGTkRKCumO7VPqZ8,BHATA CHOWK BAIDIAN ROAD,Doctorz Pharmacy,31.44812,74.43380599999999,pharmacy,OPERATIONAL,"Shop no#4 B block market, Askari XI, Lahore",4.8,4,DHA
ChIJC0_ioWEJGTkRfx9CJlYSO9Y,BHATA CHOWK BAIDIAN ROAD,Apple plus pharmacy,31.448443,74.4337139,pharmacy,OPERATIONAL,"Rehman business center b commercial market, Askari 11 Sector B, Lahore",5.0,1,DHA
ChIJUQnHCAAJGTkRLZxmKX6_6_M,BHATA CHOWK BAIDIAN ROAD,Mahmood Pharmacy,31.4525665,74.4331402,pharmacy,OPERATIONAL,"Ground & Mezzanine Floor, FC2M+Q86, Unit 4 Arain St 1, Sector B Askari 11 Sector B, Lahore",5.0,1,DHA
ChIJ8cWmJWgJGTkR_Mkt-O-VPws,BHATA CHOWK BAIDIAN ROAD,Hikma Pharmacy,31.4471771,74.4300823,pharmacy,OPERATIONAL,"CCWH+WX3, Street 21, Askari 11 Sector B, Lahore",4.4,8,DHA
ChIJg5TtMAAJGTkRThom26ol8lM,HAIR PIND BAIDIAN,Majeed pharmacy branch 3,31.4519784,74.4520904,pharmacy,OPERATIONAL,"FF22+RR, Sector D DHA Phase 6, Lahore",0.0,0,DHA
ChIJy2_BZQAJGTkRGe1MpAYyrZA,BHATA CHOWK BAIDIAN ROAD,Servaid SMC Pharmacy DHA 9 Town,31.4418431,74.4400552,pharmacy,OPERATIONAL,"CCA 32 Ground Floor A Block, DHA Phase 9 Town Lahore",4.7,14,DHA
ChIJPa_1-uYJGTkRILLdQ_lEt3c,MODEL TOWN,Basic Health Facility DHA,31.4686072,74.44036609999999,hospital,OPERATIONAL,"FC9R+C4X, Sector A DHA Phase 6, Lahore",3.4,29,DHA
ChIJKRs6PJYJGTkROxNcH1WsBTc,MODEL TOWN,Dental specialists,31.4799509,74.451748,doctor,OPERATIONAL,"Building no 114 fourth floor Main Blvd, Sector J DHA Phase 6, Lahore",5.0,7,DHA
ChIJc-gnQzoFGTkRIUC-i1v9BRc,"DEFENCE PHASE 6,7,8,9",Dr. Usama Zameer,31.4819046,74.4547838,doctor,OPERATIONAL,"06 Shabbir Sharif Rd, Phase Sector J DHA, Lahore",5.0,2,DHA
ChIJ2d5zIQAJGTkRviMIQDuvFB0,BHATA CHOWK BAIDIAN ROAD,Revive_The Aesthetic Clinic By Dr Sadia Khalid,31.4610793,74.43583269999999,doctor,OPERATIONAL,"B, Sector Askari XI, Lahore",0.0,0,DHA
ChIJOzvGImEJGTkRd1you7w8g5I,BHATA CHOWK BAIDIAN ROAD,U Pharmacy,31.4640517,74.4346228,pharmacy,OPERATIONAL,"FC7M+JR9, Bedian Rd, Sector A Askari XI, Lahore",4.2,13,DHA
ChIJmbCip5AJGTkRG3agvGvwBTc,MODEL TOWN,POCKET PHARMACY - 24/7 MEDICINE DELIVERY DHA,31.4736188,74.4432868,pharmacy,OPERATIONAL,"20 D.H.A. Main Blvd, Sector B DHA Phase 6, Lahore",4.2,5,DHA
ChIJ7_HBcuUJGTkRREEy1uNIoII,MODEL TOWN,Zain Medical Store (Bedian Road),31.4617684,74.4402247,pharmacy,OPERATIONAL,"Gujjar Chok, Bedian Rd, opposite Lahore Garrison University, Sector C Lidher, Lahore",4.0,1,DHA
ChIJX0kQRXcJGTkRh28x8DwpFp8,HAIR PIND BAIDIAN,Majeed Pharmacy & Optical,31.46886689999999,74.45119220000001,pharmacy,OPERATIONAL,"Plaza no 54 sector cca Street 2, Sector C DHA Phase 6, Lahore",4.9,12,DHA
