Place ID,Brick Name,Business Name,Latitude,Longitude,Status,Category
ChIJo_u_Ggg9sz4RKDL8h6fGMEU,,Karachi Medicos and Radiology,24.7973229,67.045552,OPERATIONAL,"hospital, health, point_of_interest, establishment"
ChIJSZpRVO08sz4RPokeFfxKIXw,,Shan Medicos And Super Store,24.8000013,67.0700502,OPERATIONAL,"hospital, point_of_interest, health, establishment"
ChIJi9dEtQ8Xsz4RAvP2gbbN5Lc,,Ali Medico,24.8234585,66.9790151,OPERATIONAL,"pharmacy, point_of_interest, store, health, establishment"
ChIJdwppwKM9sz4RDfPCHAujV60,,New Iqra medicos,24.8122939,67.0167965,OPERATIONAL,"pharmacy, health, point_of_interest, store, establishment"
ChIJDW78n5k9sz4RZtohQrQvZ_g,,Clifton Medico Pharmacy,24.8114038,67.0181832,OPERATIONAL,"pharmacy, health, point_of_interest, store, establishment"
ChIJUy6Qr7U9sz4RGj7YYgyDg9M,,Kausar Medico (Gizri),24.8267471,67.0431761,OPERATIONAL,"pharmacy, health, store, point_of_interest, establishment"
ChIJhTZhjbM9sz4RIMuhXLO-LJw,,Amir Medicos & General Items,24.8230546,67.0420797,OPERATIONAL,"pharmacy, health, store, point_of_interest, establishment"
ChIJy_l7-jM9sz4R_WjPe3LjXNc,,ABBASI MEDICOS & Clinics (GIZRI BRANCH) | Dow Lab Collection Point,24.8267179,67.0431885,OPERATIONAL,"pharmacy, health, store, point_of_interest, establishment"
ChIJ6YPhsLA9sz4Rl1IlXsjY9Z0,,Irfan Medicos (Pharmacy),24.8270015,67.0429961,OPERATIONAL,"pharmacy, health, store, point_of_interest, establishment"
ChIJVZ0C_Mo9sz4RaSbE7_4ru48,,Salman Medicos,24.8320647,67.0438643,OPERATIONAL,"pharmacy, point_of_interest, store, health, establishment"
ChIJReJsmlM8sz4RGuyfEcS44HE,,Bawany Medicos Homeopathic Store,24.8146875,67.0500625,OPERATIONAL,"pharmacy, point_of_interest, store, health, establishment"
ChIJTQ9bDVQ8sz4RzT3chdnUMu4,,Hak Medico,24.8132876,67.0510668,OPERATIONAL,"pharmacy, point_of_interest, store, health, establishment"
ChIJE97Fn289sz4RRR6A2c5wKOI,,Aimon Medicos & General Store,24.8130598,67.0513,OPERATIONAL,"pharmacy, point_of_interest, store, health, establishment"
ChIJzRn3QgA9sz4RO3Vpr8muT2I,,Kausar Medico (Bukhari),24.7927165,67.0644974,OPERATIONAL,"pharmacy, point_of_interest, health, store, establishment"
ChIJQVhBEzA8sz4RatjWfZOKR20,,Sunny Medico & General Store,24.8416259,67.0573228,OPERATIONAL,"pharmacy, health, store, point_of_interest, establishment"
ChIJJdGDpLQ9sz4R6qurZ-zTKsE,,ABBASI MEDICOS & CLINICS,24.8095397,67.0709401,OPERATIONAL,"pharmacy, health, point_of_interest, store, establishment"
ChIJ5zWsSQA9sz4Rb42s-TBt0yQ,,Sky medicos,24.8300582,67.0697747,OPERATIONAL,"pharmacy, health, point_of_interest, store, establishment"
ChIJkeytIQA9sz4RMhAS7H3alTE,,CLIFTON MEDICO,24.830251,67.0697382,OPERATIONAL,"pharmacy, health, point_of_interest, store, establishment"
ChIJVctQXf89sz4RM58yWntciyM,,Unico medicos,24.8350271,67.0686075,OPERATIONAL,"pharmacy, point_of_interest, store, health, establishment"
ChIJXWnvFYI_sz4Rbsix_FvwQ4s,NORTH NAZIMABAD,Zam Zam General And Medicos,24.9350573,67.0450326,OPERATIONAL,"hospital, health, point_of_interest, establishment"
ChIJn3UXjls_sz4RQK_mAtvort0,MOOSA COLONY,Umair Medicos and General Store,24.9237962,67.0466637,OPERATIONAL,"hospital, health, point_of_interest, establishment"
ChIJpxPemiZBsz4Rr8geDxMGyaM,NORTH NAZIMABAD,Jz Medicos,24.9429783,67.0466864,OPERATIONAL,"hospital, health, point_of_interest, establishment"
ChIJB1AV0GxHsz4RtzXk01_xdAA,MAMAR COMPLEX,Zain medicos,24.9963679,67.1160658,OPERATIONAL,"hospital, health, point_of_interest, establishment"
ChIJP_RrdtsVsz4RksrnBxU9bTo,BIHAR COLONY,Family Care+ Medicose & General Store,24.8733662,66.9886191,OPERATIONAL,"pharmacy, health, store, point_of_interest, establishment"
ChIJhyNli0gVsz4RQTds1kADDQg,KHARADAR,Mi Medico & General store,24.8520031,66.9959467,OPERATIONAL,"pharmacy, health, store, food, point_of_interest, establishment"
ChIJ4Y9ulnsVsz4RB0Zk6gFUnks,KHARADAR,Mehran Medicos,24.8530625,66.9955625,OPERATIONAL,"pharmacy, health, store, point_of_interest, establishment"
ChIJ-c-gz8UVsz4RhOFVhiZsYjA,NAWABADDARYABAD,Jameela Medico,24.865393,66.9924383,OPERATIONAL,"pharmacy, point_of_interest, store, health, establishment"
ChIJvYT1_9gVsz4RMWmBlcubqLc,NAWABADDARYABAD,Agha Medicos,24.8646275,66.998155,OPERATIONAL,"pharmacy, health, store, point_of_interest, establishment"
ChIJFZVn1dk_sz4RHJBVE06AWZI,BURNS ROAD,Muneeb Medicos,24.8534354,67.0085158,OPERATIONAL,"pharmacy, health, point_of_interest, store, establishment"
ChIJRW-lbsI_sz4RQegL8E8TgAg,CIVIL HOSPITAL,S.k Vet Medicos & PET MART,24.8614445,67.0193893,OPERATIONAL,"pharmacy, veterinary_care, health, store, point_of_interest, establishment"
ChIJPyVML_w_sz4RGQpT9xEpqfQ,SADDAR,Abdullah Medicos,24.860908,67.0244477,OPERATIONAL,"pharmacy, health, store, point_of_interest, establishment"
ChIJmWazOGs-sz4Rhu33lyCQenw,SOLDIER BAZAR,Khan Medico,24.8669888,67.0237396,OPERATIONAL,"pharmacy, point_of_interest, health, store, establishment"
ChIJ-7cPf2o-sz4RpjmxlZgHKRA,SOLDIER BAZAR,Khanum Medicos,24.8713511,67.0258612,OPERATIONAL,"pharmacy, point_of_interest, health, store, establishment"
ChIJof_PQGs-sz4RiV1a0Qgy2lM,SOLDIER BAZAR,Al-Shifa Medicos,24.8667758,67.0238138,OPERATIONAL,"pharmacy, point_of_interest, health, store, establishment"
ChIJh2w1Wrw_sz4RT9Ar0Qfbhkk,GARDEN EAST,F.I.N MEDICOS,24.8823152,67.0267964,OPERATIONAL,"pharmacy, point_of_interest, store, health, establishment"
ChIJ0_hL78A_sz4R077HXBKW6ww,M.A.JINNAH ROAD,Al Tawakkal Medicos & mart,24.8678197,67.030457,OPERATIONAL,"pharmacy, point_of_interest, health, store, establishment"
ChIJqWBVU0I-sz4RKjVRvlc8Rr0,M.A.JINNAH ROAD,Amir Medicos,24.874375,67.0309207,OPERATIONAL,"pharmacy, point_of_interest, health, store, establishment"
ChIJW-VVMzo_sz4RplSjxvwgSh0,SOLDIER BAZAR,Almadina Super Store Medico/Grocery/General Items,24.8743879,67.0296325,OPERATIONAL,"pharmacy, point_of_interest, health, store, establishment"
ChIJf39DSG8-sz4R2V1dnuTHYmM,LINES AREA  JACOB LINE,Imran Medicos,24.8664612,67.033183,OPERATIONAL,"pharmacy, point_of_interest, health, store, establishment"
ChIJI8xaGkM-sz4RnAvTB0GZ3zw,SOLDIER BAZAR,Akbar Medicos,24.8759002,67.0325586,OPERATIONAL,"pharmacy, point_of_interest, health, store, establishment"
ChIJjUzgYCk_sz4R0fRsGdyWcgk,SOLDIER BAZAR,Friends Medicos,24.877773,67.0343896,OPERATIONAL,"pharmacy, point_of_interest, store, health, establishment"
ChIJ7zQOPUM-sz4RAAPIoHb6SzE,SOLDIER BAZAR,Al-Hikmat Medicos,24.8762879,67.0332137,OPERATIONAL,"pharmacy, point_of_interest, store, health, establishment"
ChIJ_0zp9mU-sz4RbUDhYjR6SwI,LINES AREA  JACOB LINE,Abdullah Medico and General Store,24.8664114,67.0347849,OPERATIONAL,"pharmacy, health, store, food, point_of_interest, establishment"
ChIJnRoyOQA_sz4R_gCJEk86fWs,NICVD,Hussain Medicos,24.8530881,67.0412299,OPERATIONAL,"pharmacy, health, store, point_of_interest, establishment"
ChIJvXzJmlw-sz4RojRBT3oamcA,SOLDIER BAZAR,Al-Mohammad Medico,24.878197,67.036775,OPERATIONAL,"pharmacy, health, store, point_of_interest, establishment"
ChIJ3RFqa2g_sz4RETouh2bQLK0,S.M.C.H.S.,M. Rahim Medicos,24.8567473,67.0568176,OPERATIONAL,"pharmacy, health, point_of_interest, store, establishment"
ChIJR8qshCU_sz4RuznYdlqOmRY,JAMSHED ROAD & F.JINNH,Mehar Medicos,24.8838822,67.0503668,OPERATIONAL,"pharmacy, point_of_interest, health, store, establishment"
ChIJa82uGUY_sz4RrxDneIl7374,JAMSHED ROAD & F.JINNH,??? ?????? Khizar Medico,24.8844418,67.0515478,OPERATIONAL,"pharmacy, point_of_interest, health, store, establishment"
ChIJvZ5RAPo-sz4RKZX6GdPODzc,JAIL ROAD,Al Kausar Medico,24.8870787,67.0528967,OPERATIONAL,"pharmacy, local_government_office, point_of_interest, health, store, establishment"
ChIJY9qN3I89sz4RJ6O4LH97YWY,AZAM BASTI,MD Medicos,24.8503705,67.0660756,OPERATIONAL,"pharmacy, point_of_interest, store, health, establishment"
ChIJQ2fAmYs9sz4RMgQtDaB_F8g,AZAM BASTI,Kamal and sons medicos,24.8515373,67.0679916,OPERATIONAL,"pharmacy, point_of_interest, store, health, establishment"
ChIJxe6DLbM_sz4RT6YuT0bP2Ao,CHANASAR HALT,Life medicos,24.8591568,67.0600152,OPERATIONAL,"pharmacy, health, point_of_interest, store, establishment"
ChIJeSTNO-A_sz4RtU8l6ZraWlI,P.E.C.H.S.,Al Azhar Medicos,24.8706386,67.0619339,OPERATIONAL,"pharmacy, point_of_interest, health, store, establishment"
ChIJx8bDnlY_sz4Rq-R4D72UOyY,BHADURABAD,Marfani's Medicos,24.8832809,67.0659442,OPERATIONAL,"pharmacy, point_of_interest, health, store, establishment"
ChIJrTyY5hA_sz4RvVC0XAuQJ9Q,BHADURABAD,Samad medicos,24.8825267,67.0676789,OPERATIONAL,"pharmacy, point_of_interest, health, store, establishment"
ChIJ-f0RoLs9sz4RDun3jXBJvfA,AKHTER COLONY,Siddique medicose and general store,24.8398831,67.073895,OPERATIONAL,"pharmacy, health, store, point_of_interest, establishment"
ChIJGz2LQ589sz4RB37AWInhv2g,AKHTER COLONY,Ayaan medicos,24.838129,67.0736463,OPERATIONAL,"pharmacy, health, store, point_of_interest, establishment"
ChIJCWCaSWI9sz4R5viEDFs3usU,AZAM BASTI,Sultan Medicos & General Store,24.8454624,67.0713524,OPERATIONAL,"pharmacy, health, store, point_of_interest, establishment"
ChIJIXcCxMs9sz4RMQJoNbLD7fg,MEHMOODABAD # 12345,Nadir Medicos & General Store,24.8531885,67.07217,OPERATIONAL,"pharmacy, health, point_of_interest, store, establishment"
ChIJS0WJDwY_sz4RfLFpEe1UZv0,BHADURABAD,Capital Medico,24.8805008,67.0697522,OPERATIONAL,"pharmacy, point_of_interest, store, health, establishment"
ChIJYyKCnUg7sz4RuF6eluNAOxc,KORANGI # 6,Prime Medicos ????? ???????,24.8207484,67.1254145,OPERATIONAL,"hospital, health, point_of_interest, establishment"
ChIJQ5PF3y45sz4RCENzm7X7030,BHITAI COLONY,Hasnain clinic Hadi medicos,24.9211205,67.1515241,OPERATIONAL,"hospital, health, point_of_interest, establishment"
ChIJySDvqtg3sz4RtK_2oJe1bAE,KHOKHRAPAR,Arqum Medicos,24.9041467,67.2071849,OPERATIONAL,"hospital, health, point_of_interest, establishment"
ChIJVVWxW1Ywsz4Rj69jCds9RPU,NEW MUZAFFARABAD,Medico Hospital,24.834605,67.2291334,OPERATIONAL,"hospital, health, point_of_interest, establishment"
,,,,,,
ChIJR2FfLOs9sz4Rk1OKzTrv-F8,,Shop and Save Pharmacy,24.8148008,67.0210567,OPERATIONAL,"hospital, point_of_interest, health, establishment"
ChIJ_VRZNl49sz4RD-8PKpACt4Y,,Baig pharmacy,24.8348407,67.0355217,OPERATIONAL,"hospital, point_of_interest, health, establishment"
ChIJpWnQKT09sz4REM_ZVEV1pV4,,Dr. Ziauddin Laboratory Clinic Pharmacy,24.8130469,67.0484799,OPERATIONAL,"hospital, health, point_of_interest, establishment"
ChIJI4UbIAU9sz4RVny-kDtpsfE,,Q PHARMACY & MEDICARE,24.8238,67.0617628,OPERATIONAL,"hospital, health, point_of_interest, establishment"
ChIJbZa8ukA9sz4RzEXVAwkWZsk,,Sky Blue Pharmacy,24.8206335,67.0720626,OPERATIONAL,"hospital, health, point_of_interest, establishment"
ChIJcf6I0LEXsz4R4n2PzVAzb5E,,Swat pharmacy,24.821595,66.9843646,OPERATIONAL,"pharmacy, point_of_interest, store, health, establishment"
ChIJw_PYfEs9sz4RXzq2ImE9EKQ,,DVAGO Pharmacy & Wellness Experts,24.8151022,67.0025273,OPERATIONAL,"pharmacy, point_of_interest, store, health, establishment"
ChIJx_YgqqA9sz4R7O9LwNXI_pM,,AKUH pharmacy,24.8131609,67.0143934,OPERATIONAL,"pharmacy, health, point_of_interest, store, establishment"
ChIJ-2vCn5k9sz4RNu6XoP4UJPg,,Medicine Bank Pharmacy,24.8118515,67.0179009,OPERATIONAL,"pharmacy, health, point_of_interest, store, establishment"
ChIJ4zvGasI9sz4RDbgc1nFGX8o,,DVAGO Pharmacy & Wellness Experts,24.8116788,67.0179327,OPERATIONAL,"pharmacy, health, point_of_interest, store, establishment"
ChIJg6gpMAA9sz4RAHo0yH59od4,,Mir Pharmacy,24.8115559,67.017935,OPERATIONAL,"pharmacy, health, point_of_interest, store, establishment"
ChIJ1xtJcwY9sz4R5Y-7P8_a3Mg,,Stop n Shop Pharmacy,24.8115244,67.0180115,OPERATIONAL,"pharmacy, health, point_of_interest, store, establishment"
ChIJFyDNM6A9sz4ResThN2VX1EY,,The Chemist Pharmacy,24.8156384,67.0216986,OPERATIONAL,"pharmacy, health, point_of_interest, store, establishment"
ChIJ5UawSGY9sz4RpxqMz0appXM,,South City Pharmacy & Bulk Store,24.8155,67.0219312,OPERATIONAL,"pharmacy, health, point_of_interest, store, establishment"
ChIJ2y9fDU89sz4Rspu7Zs8-Jvs,,Park Lane Hospital Pharmacy,24.8168213,67.0313972,OPERATIONAL,"pharmacy, health, point_of_interest, store, establishment"
ChIJSxOMTFk9sz4R5KfsfLptsEE,,"Ehad Pharmacy & Medical Center, 26th Street DHA, Karachi",24.8090067,67.0341798,OPERATIONAL,"pharmacy, point_of_interest, store, health, establishment"
ChIJW-1UjuQ9sz4R2y4zI7grByA,,NEELAM pharma,24.8133436,67.0360472,OPERATIONAL,"pharmacy, point_of_interest, store, health, establishment"
ChIJAXNcAAA9sz4R8Av5yH3syxc,,Noor Pharmacy,24.8305309,67.0243173,OPERATIONAL,"pharmacy, point_of_interest, health, store, establishment"
ChIJ6T4bCso9sz4RJQ6n6NetZ80,,"Clifton Center, Karachi - DVAGO Pharmacy & Wellness Experts",24.8271845,67.0338927,OPERATIONAL,"pharmacy, point_of_interest, health, store, establishment"
ChIJSwI_wcc9sz4RkfHuhqbrTk0,,MEDIBANK PHARMACY,24.8293669,67.0335833,OPERATIONAL,"pharmacy, point_of_interest, health, store, establishment"
ChIJUdM7EwA9sz4RChHoVYjaQ_w,,Noor Pharmacy,24.8297209,67.0341586,OPERATIONAL,"pharmacy, health, point_of_interest, store, establishment"
ChIJf8QYcjI9sz4R8DpBw2JBBuI,,Medi Life Pharmacy,24.8077122,67.0399605,OPERATIONAL,"pharmacy, health, point_of_interest, store, establishment"
ChIJ_6ldHJM9sz4RaAqW16cYx8k,,Get Well Pharmacy,24.8090373,67.0376555,OPERATIONAL,"pharmacy, health, point_of_interest, store, establishment"
ChIJMxez_F09sz4RCIWBXcLxB_o,,New kmaal pharmecy,24.7973996,67.0440321,OPERATIONAL,"pharmacy, health, point_of_interest, store, establishment"
ChIJn68YkQI9sz4RhYNzXin_ahQ,,Medi Plus Pharmacy,24.798069,67.0454294,OPERATIONAL,"pharmacy, health, point_of_interest, store, establishment"
ChIJKz5pkAI9sz4RxeYaadeN4CQ,,Well Care Pharmacy & Homoeopathic Store,24.7981291,67.0454677,OPERATIONAL,"pharmacy, health, point_of_interest, store, establishment"
ChIJwSgjyAI9sz4RlK0oDsc-m7E,,Hiba Polyclinic + Pharmacy,24.7967589,67.0449182,OPERATIONAL,"pharmacy, health, point_of_interest, store, establishment"
ChIJAUe-Wa09sz4R2HyldsC4dyc,,Rahat Pharmacy & Mart,24.8303708,67.0430584,OPERATIONAL,"pharmacy, point_of_interest, store, health, establishment"
ChIJg_cDs3g9sz4R-EOwhiqsbfE,,The Pharmacy Services,24.8270695,67.04296,OPERATIONAL,"pharmacy, point_of_interest, store, health, establishment"
ChIJV-AMtQI9sz4RwatY555BJ28,,Murshid Pharmacy,24.7962866,67.0450475,OPERATIONAL,"pharmacy, health, store, point_of_interest, establishment"
ChIJV5asCwA9sz4R8Nd825NPtiE,,Life safe pharmacy,24.7987628,67.0460921,OPERATIONAL,"pharmacy, health, store, point_of_interest, establishment"
ChIJY-tXTrE9sz4R8p7jFVsjMyw,,Friendship Pharmacy,24.8004474,67.0464525,OPERATIONAL,"pharmacy, health, store, point_of_interest, establishment"
ChIJnYcPQzI9sz4RCdpc8uVA_vw,,DVAGO Pharmacy & Wellness Experts,24.8006772,67.0461688,OPERATIONAL,"pharmacy, health, store, point_of_interest, establishment"
ChIJuS82Sbo9sz4RH3E4NPmk1mI,,Doctor Pharmacy & South Specialist Clinic,24.7995194,67.0577121,OPERATIONAL,"pharmacy, health, store, point_of_interest, establishment"
ChIJ--A5E_Y8sz4RRVjb2FLIJ-E,,Tasco Super Mart And Pharmacy,24.8088852,67.0633282,OPERATIONAL,"supermarket, pharmacy, convenience_store, grocery_or_supermarket, food, point_of_interest, store, health, establishment"
ChIJ-29ulws9sz4RyFosJaqF4RQ,,Supermed Pharmacy DHA branch,24.8148903,67.0495518,OPERATIONAL,"pharmacy, point_of_interest, store, health, establishment"
ChIJWfg2DVQ8sz4RXlGakZRlYvM,,Haque Medical Store (Pharmacy),24.8135312,67.0509151,OPERATIONAL,"pharmacy, point_of_interest, store, health, establishment"
ChIJxfW2Dd09sz4Ro7XSFxyJOVQ,,PMP Pharmacy - MedzMart,24.8286573,67.0443778,OPERATIONAL,"pharmacy, health, point_of_interest, store, establishment"
ChIJfaoUhd49sz4RmRRgN3oNXfY,,Meri Pharmacy,24.8317594,67.048663,OPERATIONAL,"pharmacy, point_of_interest, store, health, establishment"
ChIJHzj8WzI8sz4Rqijq23Lgc7M,,Bahria Pharmacy,24.8399668,67.0498247,OPERATIONAL,"pharmacy, health, point_of_interest, store, establishment"
ChIJ06tTWTI8sz4Rg74DHLAcrqo,,Shifa Pharmacy,24.8400605,67.0498589,OPERATIONAL,"pharmacy, health, point_of_interest, store, establishment"
ChIJ6eU9LjQ8sz4RPmWL3Jwc4CY,,Doctors & Doctor Pharmacy,24.8340158,67.0518104,OPERATIONAL,"pharmacy, health, point_of_interest, store, establishment"
ChIJNxfnOgA9sz4Ry4m18earvNU,,Springs Pharmacy DHA,24.7921024,67.0637839,OPERATIONAL,"pharmacy, point_of_interest, health, store, establishment"
ChIJcWe3PgA9sz4R-EJvvExVrQY,,Good Life Pharmacy Health & Beauty,24.791688,67.0644458,OPERATIONAL,"pharmacy, point_of_interest, health, store, establishment"
ChIJzzVFBAQ9sz4RF6Nfxk1_Nzg,,BLESSINGS PHARMACY,24.7932852,67.0655527,OPERATIONAL,"pharmacy, point_of_interest, health, store, establishment"
ChIJea6QF5k9sz4Rul003okvEqQ,,Al Shifa clinic and pharmacy,24.7947232,67.0638904,OPERATIONAL,"pharmacy, point_of_interest, health, store, establishment"
ChIJP9Plo989sz4RiTSFmxkf7f8,,LEO Pharmacy,24.7941964,67.0661669,OPERATIONAL,"pharmacy, point_of_interest, health, store, establishment"
ChIJlbtGd8c9sz4RumGMO0dvXBg,,Ali Chemist&Pharmacy branch 4,24.806783,67.0613308,OPERATIONAL,"pharmacy, point_of_interest, health, store, establishment"
ChIJRZuJUPE8sz4R5aGnMbSlWAQ,,Ali Chemist & Pharmacy,24.8041276,67.0637457,OPERATIONAL,"pharmacy, point_of_interest, health, store, establishment"
ChIJm2IOV_Y8sz4R3Jj92JRIIn4,,Pharmacy Point,24.8075044,67.0619912,OPERATIONAL,"pharmacy, point_of_interest, health, store, establishment"
ChIJg6Qb65M9sz4RXz8woLi9ue0,,Khalid Pharmacy,24.8214273,67.0597346,OPERATIONAL,"pharmacy, health, point_of_interest, store, establishment"
ChIJ-0Jv0NY9sz4R2MkejlpY6PQ,,Be well pharmacy,24.8232765,67.062342,OPERATIONAL,"pharmacy, point_of_interest, health, store, establishment"
ChIJQ2DTA7Y9sz4RtFF4swJOau0,,Al Khair Pharmacy,24.8321146,67.0656581,OPERATIONAL,"pharmacy, point_of_interest, store, health, establishment"
ChIJ-4BXWAA9sz4RdaepCgM6ECw,,I Health Pharmacy,24.8413877,67.056713,OPERATIONAL,"pharmacy, health, store, point_of_interest, establishment"
ChIJASuT7aA9sz4RK6QGtVDL1E8,,Alpha pharmacy,24.7884671,67.0749048,OPERATIONAL,"pharmacy, point_of_interest, store, health, establishment"
ChIJxZk-Lwg9sz4RobSWJA4Y8A0,,Phar-Man Services,24.7863165,67.0792316,OPERATIONAL,"drugstore, pharmacy, point_of_interest, store, health, establishment"
ChIJ8d3ZhLU9sz4Rb794RszxONY,,Health Mart Pharmacy,24.8003927,67.0662894,OPERATIONAL,"pharmacy, point_of_interest, store, health, establishment"
ChIJ26rgYa49sz4RsPfkVaJVRJE,,"SS MART, PHARMACY & GROCERY",24.8086763,67.069133,OPERATIONAL,"pharmacy, health, point_of_interest, store, establishment"
ChIJoVhkD6s9sz4RLYffB6Y_xIg,,Pharmacy World,24.8134014,67.0706199,OPERATIONAL,"pharmacy, health, point_of_interest, store, establishment"
ChIJr8-Hd2A8sz4RqNc3utuyyWE,,Nice Mart & Pharmacy? ????? ???? ???? ???????,24.8135568,67.0704322,OPERATIONAL,"supermarket, pharmacy, grocery_or_supermarket, food, point_of_interest, store, health, establishment"
ChIJR5b57pU9sz4RvnGUx9ppejc,,Choice Pharmacy & Mart,24.815478,67.070758,OPERATIONAL,"pharmacy, point_of_interest, store, health, establishment"
ChIJYw4R9no9sz4ReW3xmo_CRvU,,"Hyatt Pharmacy, Jami Commercial",24.8300215,67.0696378,OPERATIONAL,"pharmacy, health, point_of_interest, store, establishment"
ChIJEXeyZko9sz4Rgm85Ol_xxeY,,Buy & save store & pharmacy,24.8324186,67.0674984,OPERATIONAL,"pharmacy, point_of_interest, store, health, establishment"
ChIJOwyIbwA9sz4RF8lMGM6iFuc,,"Sehat Kahani Pharmacy, Khayaban-e-Jami, DHA",24.8302664,67.0705703,OPERATIONAL,"pharmacy, point_of_interest, store, health, establishment"
ChIJ_fB86ac9sz4RvgSsIhA5NI8,,Life Care Pharmacy,24.8360331,67.0708337,OPERATIONAL,"pharmacy, hospital, point_of_interest, store, health, establishment"
ChIJYWhWxQs9sz4RmyMzBSDuTxI,,021 Pharmacy,24.8316668,67.0737157,OPERATIONAL,"pharmacy, point_of_interest, health, store, establishment"
ChIJodCIOwA9sz4RNqY6Zeqgn-k,,PHARMACY,24.8313919,67.0789153,OPERATIONAL,"pharmacy, point_of_interest, health, store, establishment"
ChIJqb73_O9Bsz4RVBQcV4TfBRg,NORTH NAZIMABAD,Al Hamza General Hospital pharmacy,24.9448353,67.0442456,OPERATIONAL,"hospital, health, point_of_interest, establishment"
ChIJdSs0IjhBsz4RyPe5lcQTdd0,NEW KARACHI,Eastern Homeo pharma,24.9925412,67.0592832,OPERATIONAL,"hospital, health, point_of_interest, establishment"
ChIJha3VDgBBsz4RXtZ-grE7zXA,NEW KARACHI,Global Pharmacy,24.9873134,67.0939313,OPERATIONAL,"hospital, health, point_of_interest, establishment"
ChIJGxlNMwk_sz4R2GUr9Yf7g3s,SECTOR 11 A.B.C.D 14A14B,V-Care Pharmacy and Medical Services,24.9799344,67.0561673,OPERATIONAL,"doctor, health, point_of_interest, establishment"
ChIJ-R-ha9o_sz4R-90cmAhxlfw,JAMSHED ROAD & F.JINNH,M A G healthcare & Pharmacy,24.8837368,67.0494357,OPERATIONAL,"hospital, point_of_interest, health, establishment"
ChIJYeLhFzY9sz4Rfp2OT6-pdTE,DEFENCE MARKET,Health Care Pharmacy,24.8374523,67.0699192,OPERATIONAL,"hospital, point_of_interest, health, establishment"
ChIJoWBoHQA_sz4R367-7uaMULs,BHADURABAD,Al Khidmat Pharmacy and Laboratory,24.8811754,67.0706672,OPERATIONAL,"hospital, point_of_interest, health, establishment"
ChIJw8W9iU4Vsz4RRFZb8iyOUeY,SHERSHAH,Khalid Pharmacy,24.8808547,66.9868203,OPERATIONAL,"pharmacy, point_of_interest, health, store, establishment"
ChIJP2t6_7sVsz4RZPb0JTSOsSo,SHERSHAH,Al-Basit Pharmecy,24.8833403,66.9873373,OPERATIONAL,"pharmacy, point_of_interest, health, store, establishment"
ChIJMdvsmPYVsz4R5xyUbkv6Zy4,SHERSHAH,Nagori Pharmacy,24.8882335,66.9852253,OPERATIONAL,"pharmacy, point_of_interest, health, store, establishment"
ChIJp_MPvFMVsz4RsyF_iS15YRI,SHERSHAH,Pharmacy,24.8856856,66.9885074,OPERATIONAL,"pharmacy, point_of_interest, health, store, establishment"
ChIJR_HPeAM-sz4R3rbl5p9JZp0,ZEENAT MEDICINE MARKE,"Khyber Traders - Wholesale Veterinary Pharmacy, Karachi.",24.8540643,67.0044414,OPERATIONAL,"pharmacy, veterinary_care, health, store, point_of_interest, establishment"
ChIJ-eFjSgAVsz4RDuNtAQ5ZalI,KHARADAR,Usman pharmacy,24.8531693,66.9945491,OPERATIONAL,"pharmacy, health, store, point_of_interest, establishment"
ChIJjzDrRM8Vsz4RyapGFJ77FbE,NAWABAD,H A MEMORIYAL PHARMACY,24.8582057,66.9922824,OPERATIONAL,"pharmacy, health, store, point_of_interest, establishment"
ChIJjcpUy6cVsz4RVUdxbjPb7_E,BIHAR COLONY,Doctors Pharmacy,24.8735799,66.9904462,OPERATIONAL,"pharmacy, health, store, point_of_interest, establishment"
ChIJ425XxjcVsz4RWFLIgQNI2GM,CHAKIWARA,Pharmadirect,24.8742833,66.9926661,OPERATIONAL,"pharmacy, health, store, point_of_interest, establishment"
ChIJO7UfYAU-sz4RQV7qDp95H5I,CIVIL HOSPITAL,Pharma D Linkers,24.8563451,67.0107098,OPERATIONAL,"pharmacy, point_of_interest, health, store, establishment"
ChIJx-uJwSwVsz4R4xO2XmZz9nk,MEETHADAR,DVAGO Pharmacy & Wellness Experts,24.8549054,66.9983988,OPERATIONAL,"pharmacy, point_of_interest, health, store, establishment"
ChIJAQBUeAQ-sz4RiMOn1k2M_TY,ZEENAT MEDICINE MARKE,Easy Pharma,24.8534632,67.0049223,OPERATIONAL,"pharmacy, point_of_interest, health, store, establishment"
ChIJE63mpBY_sz4RHQwVZmN028I,NAWABAD,Meri Pharmacy,24.8607343,67.0011364,OPERATIONAL,"pharmacy, point_of_interest, store, health, establishment"
ChIJiznAyB0-sz4RHPuAIMbet0k,NAWABAD,Civil Hospital Pharmacy,24.8607343,67.0011364,OPERATIONAL,"pharmacy, point_of_interest, store, health, establishment"
ChIJTVNMIvQ_sz4RoCHy46y5jgo,BURNS ROAD,Phargo pharmacy and clinics,24.8535108,67.0101603,OPERATIONAL,"pharmacy, health, point_of_interest, store, establishment"
ChIJeZLx7pE_sz4RwIdrklYHQkc,BURNS ROAD,Queens mart & pharmacy,24.8519138,67.006903,OPERATIONAL,"pharmacy, health, point_of_interest, store, establishment"
ChIJkRQfNQ8_sz4RtCkVWKBHqhw,BURNS ROAD,Salamat Pharmacy,24.8531037,67.0070377,OPERATIONAL,"pharmacy, health, point_of_interest, store, establishment"
ChIJkzhMSi0_sz4RLHipoTCodcU,GARDEN WEST,Memon Pharmacy Garden Branch,24.8773156,67.018854,OPERATIONAL,"pharmacy, point_of_interest, store, health, establishment"
ChIJK-l2mLg_sz4RqhmxJ9Dx9LU,CIVIL HOSPITAL,Medical pharmacy Online,24.8579735,67.016079,OPERATIONAL,"pharmacy, point_of_interest, store, health, establishment"
ChIJVaJ-nlg-sz4RBwU9cgfCV0w,JAMSHED ROAD & F.JINNH,Pick N Save Pharmacy & Supermart,24.8821434,67.044815,OPERATIONAL,"supermarket, pharmacy, grocery_or_supermarket, food, point_of_interest, health, store, establishment"
ChIJVWbcAfs_sz4Rwjen3KW2lVk,SOLDIER BAZAR,DVAGO Pharmacy & Wellness Experts,24.876269,67.031374,OPERATIONAL,"pharmacy, point_of_interest, health, store, establishment"
ChIJu9VpVu0_sz4RGM3UVph6JLA,SOLDIER BAZAR,"Ehad Pharmacy & Medical Centre, Soldier Bazaar",24.8781938,67.0343096,OPERATIONAL,"pharmacy, point_of_interest, store, health, establishment"
ChIJy1_HUOI_sz4RKIy1ZOzgUCg,SOLDIER BAZAR,Swiss Pharmacy,24.8776986,67.0358619,OPERATIONAL,"pharmacy, point_of_interest, store, health, establishment"
ChIJxwjJnf0_sz4RSWdkdlz3cj8,SADDAR,Meri Pharmacy,24.8593495,67.0323459,OPERATIONAL,"pharmacy, health, store, point_of_interest, establishment"
ChIJF8RR0dc_sz4RcJ-3VY9JTxM,LINES AREA  JACOB LINE,kanwal pharma,24.8706706,67.0456725,OPERATIONAL,"pharmacy, health, point_of_interest, store, establishment"
ChIJmeKf_8A_sz4RD9ZxY4lLa0k,JAMSHED ROAD & F.JINNH,The Pharmacy,24.8815361,67.0428092,OPERATIONAL,"pharmacy, health, store, point_of_interest, establishment"
ChIJjQ_8uFQ_sz4R9067tsNeWZw,JAMSHED ROAD & F.JINNH,Kothari Pharmacy,24.8827963,67.0455462,OPERATIONAL,"pharmacy, health, store, point_of_interest, establishment"
ChIJDxkrBow-sz4Rx0WXSUKu2Po,P.E.C.H.S.,Medi Center Pharmacy,24.8708792,67.0526095,OPERATIONAL,"pharmacy, point_of_interest, store, health, establishment"
ChIJk9pEZsc5sz4RPWbfXCW_eTU,JAMSHED ROAD & F.JINNH,Bilal pharmacy,24.885265,67.0500799,OPERATIONAL,"pharmacy, point_of_interest, health, store, establishment"
ChIJudCL4PY_sz4RENriwddM6OI,JAMSHED ROAD & F.JINNH,DVAGO Pharmacy & Wellness Experts,24.885879,67.0509479,OPERATIONAL,"pharmacy, point_of_interest, health, store, establishment"
ChIJcUIWaXo_sz4R9B_34Apvins,P.E.C.H.S.,Swiss Pharmacy,24.8840759,67.0566878,OPERATIONAL,"pharmacy, point_of_interest, health, store, establishment"
ChIJa-TbFn8_sz4R1P115p0i_uo,P.E.C.H.S.,AA PHARMACY,24.8838694,67.057487,OPERATIONAL,"pharmacy, point_of_interest, health, store, establishment"
ChIJ8UC0uec-sz4RwdBEiW00Cho,--,LNH Pharmacy,24.8900588,67.0678267,OPERATIONAL,"pharmacy, health, point_of_interest, store, establishment"
ChIJeVHfyoA_sz4RDlkvsULz_dg,P.I.B.COLONY,Pharmacy,24.8909427,67.0498674,OPERATIONAL,"pharmacy, health, point_of_interest, store, establishment"
ChIJr-Tzw0I_sz4RHgH6DRP_VsM,MARTIN QUATER,Alkhidmat pharmacy PIB,24.8899473,67.0519498,OPERATIONAL,"pharmacy, health, point_of_interest, store, establishment"
ChIJqbiaUBM_sz4RGbr69UGtrtM,P.I.B.COLONY,DVAGO Pharmacy & Wellness Experts,24.892327,67.0540227,OPERATIONAL,"pharmacy, health, point_of_interest, store, establishment"
ChIJA6MXK0Y_sz4RTtQJPuklksk,P.I.B.COLONY,Isani pharmacy,24.8927975,67.0544137,OPERATIONAL,"pharmacy, health, point_of_interest, store, establishment"
ChIJmbQv1-w_sz4RL6cHdpkBwPQ,CHANASAR HALT,Davakhana Pharmacy,24.8556062,67.0615089,OPERATIONAL,"pharmacy, point_of_interest, store, health, establishment"
ChIJf0EvG6w9sz4R33hzOGj3YAY,CHANASAR HALT,Meri Pharmacy,24.8539435,67.064826,OPERATIONAL,"pharmacy, point_of_interest, store, health, establishment"
ChIJLSScaSE8sz4R1s8H3PLRCGg,MEHMOODABAD # 12345,Al-Razi Pharmacy,24.8510297,67.065977,OPERATIONAL,"pharmacy, point_of_interest, store, health, establishment"
ChIJaSKrnyM9sz4RrjMYbHr6zdY,MEHMOODABAD # 12345,AZ Pharmacy,24.8514582,67.0673273,OPERATIONAL,"pharmacy, point_of_interest, store, health, establishment"
ChIJP79PO54-sz4R11HFBaKLWF4,MEHMOODABAD # 12345,Ideal Pharmacy,24.8563627,67.0662631,OPERATIONAL,"pharmacy, point_of_interest, store, health, establishment"
ChIJK4BqvoQ-sz4RdsHrVW_pB20,S.M.C.H.S.,MedOnline: Online Pharmacy and Medical Store in Pakistan,24.8608246,67.0569667,OPERATIONAL,"pharmacy, drugstore, health, point_of_interest, store, establishment"
ChIJx9rYKaU-sz4RJtA0_4mPNwo,P.E.C.H.S.,Nipro Pharma,24.8668431,67.0613475,OPERATIONAL,"pharmacy, health, point_of_interest, store, establishment"
ChIJGXpni4U-sz4RSWSYQTlMdKM,S.M.C.H.S.,Nova Care Pharma,24.8645544,67.0539597,OPERATIONAL,"pharmacy, health, point_of_interest, store, establishment"
ChIJccgTwxw_sz4RLXrLtfdN_Rc,P.E.C.H.S.,Noor Pharma,24.8694477,67.0605466,OPERATIONAL,"pharmacy, point_of_interest, health, store, establishment"
ChIJMxkaCR4_sz4RkZDVB6xo93A,HILL PARK,welcome store and pharmacy,24.8735468,67.0683048,OPERATIONAL,"pharmacy, point_of_interest, health, store, establishment"
ChIJFbUq69w-sz4RQQIknGfoWLg,--,AKU Emergency Pharmacy,24.8921485,67.0747569,OPERATIONAL,"pharmacy, point_of_interest, health, store, establishment"
ChIJKUl5ja0_sz4RnhMF8OQ2S0Q,BHADURABAD,AlKhaleej Pharmacy,24.8808836,67.0638195,OPERATIONAL,"pharmacy, point_of_interest, health, store, establishment"
ChIJeS6JRng_sz4Rkd7q7cZC-o0,BHADURABAD,"Ehad Pharmacy & Medical Center, Al-Khaleej Tower, Bahadurabad Branch",24.8808836,67.0638195,OPERATIONAL,"pharmacy, hospital, point_of_interest, health, store, establishment"
ChIJRcEsjIU-sz4Rn6YKMu6gunA,P.E.C.H.S.,Head Office - DVAGO Pharmacy & Wellness Experts - Head Office,24.8835915,67.0578966,OPERATIONAL,"pharmacy, point_of_interest, health, store, establishment"
ChIJ82moU-k-sz4RCDl5jrXTMM4,BHADURABAD,Guardian Pharmacy,24.8837012,67.0644712,OPERATIONAL,"pharmacy, point_of_interest, health, store, establishment"
ChIJ4QHzafs5sz4Ry9yhsoSG5w4,BHADURABAD,DVAGO Pharmacy & Wellness Experts,24.8831335,67.0654253,OPERATIONAL,"pharmacy, point_of_interest, health, store, establishment"
ChIJxbEBDAA_sz4Rr2k6kVHrtIY,CHANDNI CHOWK,Pharmacy & General Store,24.8895609,67.0635459,OPERATIONAL,"pharmacy, health, store, point_of_interest, establishment"
ChIJKZL0i8U9sz4RWt_aYfPLdhk,AKHTER COLONY,Galaxy Pharmacy,24.8363379,67.0718438,OPERATIONAL,"pharmacy, health, store, point_of_interest, establishment"
ChIJ_fB86ac9sz4RvgSsIhA5NI8,AKHTER COLONY,Life Care Pharmacy,24.8360331,67.0708337,OPERATIONAL,"pharmacy, hospital, health, store, point_of_interest, establishment"
ChIJbdMYKQA9sz4R2xw0yuq8Mb8,MEHMOODABAD # 12345,FEROZI PHARMACY,24.8544042,67.0751649,OPERATIONAL,"pharmacy, health, point_of_interest, store, establishment"
ChIJ2RQZ6qQ_sz4RJqBpN0SVnG8,HILL PARK,Megazone Pharma,24.8657324,67.0758647,OPERATIONAL,"pharmacy, health, store, point_of_interest, establishment"
ChIJhUt5YAA_sz4Ro2_MJzlrcTY,HILL PARK,Springs Pharmacy Tipu Sultan Road.,24.8697201,67.0786662,OPERATIONAL,"pharmacy, point_of_interest, store, health, establishment"
ChIJmQ8aobM_sz4RBBZL4RJiSMo,BHADURABAD,Roshila Pharmacy & Mart,24.8789619,67.0722267,OPERATIONAL,"pharmacy, point_of_interest, store, health, establishment"
ChIJc0949k4_sz4RWMUKX2aIb2w,--,The Aga Khan University Hospital Main Pharmacy,24.8919375,67.0746875,OPERATIONAL,"pharmacy, health, store, point_of_interest, establishment"
ChIJcefG8MU5sz4RWjGisCDXB_0,BLK;10+RASHID MINHAS R,Al Zehra Pharmacy and Medical Centre,24.9013825,67.1154689,OPERATIONAL,"hospital, health, point_of_interest, establishment"
ChIJE_X_dgA5sz4RHNwSL_Qpiug,GULISTAN-E-JOHAR,Asma pharmacy,24.9351043,67.1379707,OPERATIONAL,"hospital, health, point_of_interest, establishment"
ChIJ65wuB9k5sz4RUwruoMLTHhA,PEHLWAN GOTH,Dr.Huma Clinic and DOSE pharmacy.,24.9152877,67.1423599,OPERATIONAL,"hospital, health, point_of_interest, establishment"
ChIJBT9uKwA5sz4R0yxq2uyA6Mw,GULISTAN-E-JOHAR,Win pharmacy,24.937831,67.1504875,OPERATIONAL,"hospital, health, point_of_interest, establishment"
ChIJi4CIj9M7sz4RaIA9RDYkVA4,KORANGI # 6,Salman pharmacy,24.8316347,67.1665089,OPERATIONAL,"hospital, health, point_of_interest, establishment"
ChIJf4Wty1w7sz4RoEqrMXxuMZ8,JAMIA MILLIA ROAD,The Family Specialist Clinic & Pharmacy,24.8734846,67.1856434,OPERATIONAL,"hospital, health, point_of_interest, establishment"
ChIJcwCyFZw3sz4RqeCwrUXy4Wc,MALIR CANTT,Excellence Pharmacy,24.927663,67.2050897,OPERATIONAL,"hospital, health, point_of_interest, establishment"
ChIJpxAMgX03sz4RPYXd5Eulebg,MALIR CANTT,Pharma Square,24.9465602,67.2131916,OPERATIONAL,"pharmacy, hospital, health, point_of_interest, store, establishment"
ChIJv-62DgA3sz4RVKUJvVmDahA,MEMON GOTH,Malik Pharmacy,24.8827691,67.2240705,OPERATIONAL,"hospital, health, point_of_interest, establishment"
ChIJbV3UEK8xsz4RM2I6qwRR8XY,QUAIDABAD,Zaitoon Hayaat Clinic & Pharmacy,24.8585375,67.2290797,OPERATIONAL,"hospital, health, point_of_interest, establishment"
ChIJi3lRvIs3sz4RNe0lGqdcaT8,MEMON GOTH,Emaans Medical Center & pharmacy,24.9189544,67.2575746,OPERATIONAL,"hospital, health, point_of_interest, establishment"
ChIJlXcCRCc5sz4RIHlH--VqB7g,GULISTAN-E-JOHAR,A.M Family clinic and Pharmacy,24.9374806,67.1484433,OPERATIONAL,"doctor, health, point_of_interest, establishment"
ChIJxUOxZTQ7sz4RKgv0IFPFGSg,KORANGI # 6,Faiz ayurwedic pharmecy.hakeem shamshad ahmed,24.8264975,67.1551888,OPERATIONAL,"doctor, health, point_of_interest, establishment"
,,,,,,
ChIJw_hqfJo9sz4RNOOmicyZo0Y,,The Aga Khan University hospital - Clifton Medical services,24.8132045,67.0144435,OPERATIONAL,"pharmacy, hospital, point_of_interest, health, store, establishment"
ChIJq6cJRv0_sz4RZQR5zB4mwPM,,Urban Health,24.7815458,67.0568089,OPERATIONAL,"pharmacy, hospital, point_of_interest, store, health, establishment"
ChIJgWiSZ7k9sz4Rn-TDdMse5TU,,Tabba Heart Institute Medical Center - DHA Phase 2,24.8444331,67.0553439,OPERATIONAL,"pharmacy, hospital, doctor, health, point_of_interest, store, establishment"
ChIJ8eIyt_w9sz4RqNUD866ODVc,,Gastrointestinal & Liver Practice (GILP),24.8439399,67.0555368,OPERATIONAL,"pharmacy, doctor, health, store, point_of_interest, establishment"
ChIJibOXVxYWsz4RtSdUdgMtOTs,,Danish Medical Store,24.8224334,66.9831404,OPERATIONAL,"pharmacy, point_of_interest, store, health, establishment"
ChIJ8ftIckgXsz4R377CNg8VwXA,,SHAFI medical store,24.8229708,66.9885718,OPERATIONAL,"pharmacy, point_of_interest, store, health, establishment"
ChIJ97sDEzIXsz4RnX_z8dRyb38,,Bilal medical store,24.823128,66.9793825,OPERATIONAL,"pharmacy, point_of_interest, store, health, establishment"
ChIJR_eR3LMXsz4RxQFr8xQR4TA,,Humayun Medical & General Store,24.8236559,66.9790685,OPERATIONAL,"pharmacy, point_of_interest, store, health, establishment"
ChIJvXtowyEWsz4Rc0_anpui44g,,Ali Medical & General Store,24.8203637,66.9950044,OPERATIONAL,"pharmacy, point_of_interest, store, health, establishment"
ChIJg42Wp2QXsz4RaidyxsDMe5s,,Akhtar Medical store,24.8187551,66.9976207,OPERATIONAL,"pharmacy, point_of_interest, store, health, establishment"
ChIJiw1sR4M9sz4R7DiHP0xpqio,,Rehman medical store,24.8186942,66.9990099,OPERATIONAL,"pharmacy, point_of_interest, store, health, establishment"
ChIJB-xkjKUXsz4RTlNDXN1QhKQ,,H.m medical,24.8175364,66.9987359,OPERATIONAL,"pharmacy, point_of_interest, store, health, establishment"
ChIJ17RbtYo9sz4RuroG3IBMYBs,,Subhan Medical & General Store,24.8224347,67.0003201,OPERATIONAL,"pharmacy, point_of_interest, store, health, establishment"
ChIJq6Uc4fA9sz4R_QCVkLNL8ok,,Farooq medical store,24.8181031,67.0028503,OPERATIONAL,"pharmacy, point_of_interest, store, health, establishment"
ChIJqypG51Y9sz4RCoTVAXj-UZI,,Hussain Farooq dawakhana,24.8189534,67.004327,OPERATIONAL,"pharmacy, point_of_interest, store, health, establishment"
ChIJ8bd0_os9sz4RTpQH2Sqp54c,,Adnan Medical Store,24.8176722,67.0042366,OPERATIONAL,"pharmacy, point_of_interest, store, health, establishment"
ChIJhSNKC4w9sz4RJIDKPmfPBO4,,Salman Medical Store,24.8190905,67.0051291,OPERATIONAL,"pharmacy, point_of_interest, store, health, establishment"
ChIJlefdlYw9sz4REa2FK62dp2k,,Yaseen Medical Store,24.8219562,67.0059009,OPERATIONAL,"pharmacy, point_of_interest, store, health, establishment"
ChIJfV8ynok9sz4Rh49DYaUfotw,,Lucky Star Surgicals,24.8114119,67.0182885,OPERATIONAL,"pharmacy, health, point_of_interest, store, establishment"
ChIJ7f1Ve9I9sz4RpUzKLR-I9tE,,H.D.HOUSE,24.8148459,67.0211305,OPERATIONAL,"pharmacy, health, point_of_interest, store, establishment"
ChIJ3fcyC-g9sz4RXVjbwJWOy7Y,,Imtiaz Supermarket,24.8041736,67.0292686,OPERATIONAL,"department_store, pharmacy, health, point_of_interest, store, establishment"
ChIJw5LRNQ49sz4REBpuzl5DYoo,,REHMAN MEDICAL & GENERAL STORE,24.8112138,67.0344721,OPERATIONAL,"pharmacy, point_of_interest, store, health, establishment"
ChIJm-zPQOM9sz4RPeOZrf5pJCI,,Buner medical store,24.8120157,67.0354759,OPERATIONAL,"pharmacy, point_of_interest, store, health, establishment"
ChIJqQ9bK48_sz4RWOMjsPDesqo,,Seema medica,24.8083236,67.0353092,OPERATIONAL,"pharmacy, point_of_interest, store, health, establishment"
ChIJ4ySwBAA9sz4R4bjBTr9pjqs,,Madina medical store,24.8138396,67.0354975,OPERATIONAL,"pharmacy, point_of_interest, store, health, establishment"
ChIJD-GDRUE9sz4RGw0QAgnnqjQ,,Islamic shahed centre,24.8269442,67.0271121,OPERATIONAL,"pharmacy, point_of_interest, health, store, establishment"
ChIJcTI0zfU9sz4RLk4Pme3sa4A,,Karim Medical store,24.8263776,67.0311879,OPERATIONAL,"pharmacy, point_of_interest, health, store, establishment"
ChIJ2VIKEbg9sz4RYBpmFHjVfyM,,Motaz Medical Store,24.8270284,67.0335343,OPERATIONAL,"pharmacy, point_of_interest, health, store, establishment"
ChIJbxjmHCE9sz4RLKr2t-m9WA8,,Dr Asudani mobile vet clinic,24.8321853,67.0274194,OPERATIONAL,"pharmacy, veterinary_care, point_of_interest, health, store, establishment"
ChIJ6ZnlcMI9sz4RQcvAu-RapmY,,Shah Brother Medical Store,24.8337963,67.0231274,OPERATIONAL,"pharmacy, health, point_of_interest, store, establishment"
ChIJ3X4VwsU9sz4RW3c9B2dnslc,,Sindh Chemist,24.8344334,67.032958,OPERATIONAL,"pharmacy, health, point_of_interest, store, establishment"
ChIJUfjmr549sz4R3ladgaDm4os,,CHRISM,24.8270443,67.0379754,OPERATIONAL,"pharmacy, clothing_store, health, point_of_interest, store, establishment"
ChIJV1qD08s9sz4RduUDBLwFec4,,NATIONAL CHEMIST,24.8321082,67.0409064,OPERATIONAL,"pharmacy, health, point_of_interest, store, establishment"
ChIJlaA8Y1M8sz4Rwz-fKLO4_OM,,Ami’s Super Store DHA,24.8137734,67.0486571,OPERATIONAL,"supermarket, pharmacy, grocery_or_supermarket, home_goods_store, food, health, point_of_interest, store, establishment"
ChIJq6omUwc9sz4R5GfCqD3MfUw,,Haque medical store.,24.806125,67.0404319,OPERATIONAL,"pharmacy, health, point_of_interest, store, establishment"
ChIJV-B9NU09sz4RwC4ZPd4MxTM,,Dr. Rizwan Ahmed,24.7988059,67.0435134,CLOSED_TEMPORARILY,"drugstore, pharmacy, health, point_of_interest, store, establishment"
ChIJmeMrnqc9sz4RvUOFE-svPDU,,Javed Memon,24.8091552,67.0364065,OPERATIONAL,"pharmacy, health, point_of_interest, store, establishment"
ChIJGc_-8uM9sz4Rw8Kqwvhi5XY,,JP Medical & General Store,24.7970806,67.0440335,OPERATIONAL,"pharmacy, health, point_of_interest, store, establishment"
ChIJYUipHak9sz4Rp_zR14uS42A,,Akhtar Homeo Clinic,24.810072,67.0374503,OPERATIONAL,"pharmacy, health, point_of_interest, store, establishment"
ChIJu3tGkQI9sz4Rfi9oDEk19gs,,Baba Fareed Mobile & Customer Service,24.7980343,67.0454138,OPERATIONAL,"pharmacy, health, point_of_interest, store, establishment"
ChIJRY_AWI49sz4RxWZZm_mrZv4,,Medicare,24.7987216,67.0456492,OPERATIONAL,"drugstore, pharmacy, health, point_of_interest, store, establishment"
ChIJWdaECwI9sz4Rydi8qkaUxsU,,Aziz Medical Store,24.8006895,67.0460635,OPERATIONAL,"pharmacy, health, point_of_interest, store, establishment"
ChIJ_4cEvKQ9sz4Ru6duIySOdxI,,Madina Medical & General Store,24.8143943,67.0365246,OPERATIONAL,"pharmacy, health, point_of_interest, store, establishment"
ChIJT1Uxp689sz4R7GWV16pSCLg,,Usman Medical Store,24.8145559,67.0365084,OPERATIONAL,"pharmacy, health, point_of_interest, store, establishment"
ChIJOZPE_609sz4R6-ehHK6fngU,,Bone A Patite,24.817742,67.0405195,OPERATIONAL,"pharmacy, health, point_of_interest, store, establishment"
ChIJjQAs8rE9sz4Ra9be2YTItYw,,Yasin Sound & Cycle Works,24.8188178,67.0399208,OPERATIONAL,"pharmacy, health, point_of_interest, store, establishment"
ChIJMdBn7wU9sz4RnTsfdwEx4Rk,,Khan Sahab,24.8197155,67.0439277,OPERATIONAL,"pharmacy, health, store, point_of_interest, establishment"
ChIJuwz4qv89sz4RIXcrfHfFbvw,,Al rehmat medical store,24.8321403,67.0409682,OPERATIONAL,"pharmacy, point_of_interest, store, health, establishment"
ChIJzcKH0ss9sz4RGNpP9fEQ5J8,,Bismillah Medical Store,24.8321212,67.0412028,OPERATIONAL,"pharmacy, point_of_interest, store, health, establishment"
ChIJAQCxNMo9sz4RrTdpy2xU_Bo,,Hammad Medical & General Store,24.8319959,67.0416769,OPERATIONAL,"pharmacy, point_of_interest, store, health, establishment"
ChIJxZbdY8o9sz4R7K7FjJEyJJU,,Sameer Medical & General Store,24.8305125,67.0431963,OPERATIONAL,"pharmacy, point_of_interest, store, health, establishment"
ChIJBT9mjMo9sz4RWRl81eZfNRQ,,Saad Medical & General Store,24.8307432,67.0439169,OPERATIONAL,"pharmacy, point_of_interest, store, health, establishment"
ChIJ58tGxPo8sz4RMUsC_pKNGAk,,RPK Critter Care & Animal Hospital,24.7989799,67.0563091,OPERATIONAL,"pharmacy, pet_store, veterinary_care, health, store, point_of_interest, establishment"
ChIJNYlrXek8sz4RG2NruJ9Zdpc,,Springs Store- DHA,24.7920935,67.0638272,OPERATIONAL,"grocery_or_supermarket, pharmacy, health, store, food, point_of_interest, establishment"
ChIJBWJcFgU9sz4R-q0jJIyz-DY,,Homeo Doctor,24.7983734,67.0457225,OPERATIONAL,"pharmacy, drugstore, health, store, point_of_interest, establishment"
ChIJve9E5Xw9sz4R5BsvPAocvdg,,Aga Khan University Hospital Medical Centre Khayaban-e-Badar,24.8006907,67.046112,OPERATIONAL,"pharmacy, health, store, point_of_interest, establishment"
ChIJj5J_0188sz4RsT5RV_defiM,,Marshall's Chemist,24.8002384,67.0584258,OPERATIONAL,"pharmacy, health, store, point_of_interest, establishment"
ChIJf1VYLRA7sz4RodENCvL1jDc,,Mohabbat khan medical store ???? ??? ?????? ????,24.8088134,67.0509984,OPERATIONAL,"pharmacy, point_of_interest, store, health, establishment"
ChIJhQpZg1Q8sz4RKXFjSUb4rR4,,Sheikh Medical & General Store,24.8132363,67.0487514,OPERATIONAL,"pharmacy, point_of_interest, store, health, establishment"
ChIJ6YQjd1M8sz4RwExLpbLHl3Y,,Apna Chemist & Store,24.8144651,67.0491523,OPERATIONAL,"pharmacy, point_of_interest, store, health, establishment"
ChIJv7qS7hM9sz4RHN0CQtuslzA,,Homeopathic Clinic [ Dr M-Tahir],24.8170961,67.0484174,OPERATIONAL,"drugstore, pharmacy, point_of_interest, store, health, establishment"
ChIJ11MmBwA9sz4Rj_M6msyxPmM,,Al-mehran medical store,24.8194112,67.0457459,OPERATIONAL,"pharmacy, point_of_interest, store, health, establishment"
ChIJE6VLdJQ8sz4RKhRHRcPDoOc,,SM Health Care Homeo Herbal & Hijama Clinic,24.8234105,67.0624992,OPERATIONAL,"drugstore, pharmacy, health, point_of_interest, store, establishment"
ChIJBQpAf2s9sz4RRGzyKKBhy2o,,Magoon Clinic & Medical Store,24.8204333,67.0459355,OPERATIONAL,"pharmacy, health, point_of_interest, store, establishment"
ChIJCUBgkEI9sz4RaCNMB6D_79I,,Ghousia medical and general store,24.8196768,67.0474392,OPERATIONAL,"pharmacy, health, point_of_interest, store, establishment"
ChIJhQ6wNvc9sz4RlrDJ3n_wtDI,,Fatima Medical Store,24.8265939,67.0462772,OPERATIONAL,"pharmacy, health, point_of_interest, store, establishment"
ChIJgUoU15Ixsz4Rlp7Tvb9bfyc,,Swat National medical store,24.8298652,67.0451809,OPERATIONAL,"pharmacy, point_of_interest, store, health, establishment"
ChIJo9T1Ve49sz4RWwhmwQRS1UY,,Alam medical store,24.8317617,67.0468055,OPERATIONAL,"pharmacy, point_of_interest, store, health, establishment"
ChIJY6aPXQA9sz4Rhiz5VcFdqR8,,Shankar Medical Store,24.8328502,67.0445974,OPERATIONAL,"pharmacy, point_of_interest, store, health, establishment"
ChIJyXmzEoQ9sz4RkfxlRVqyuHI,,Sajjad medical store and cosmetics,24.8328502,67.0445974,OPERATIONAL,"pharmacy, point_of_interest, store, health, establishment"
ChIJm0Ywz0o9sz4RZvzZxGQbBTc,,Al-rehmat medical store dehli colony karacji,24.8328502,67.0445974,OPERATIONAL,"pharmacy, point_of_interest, store, health, establishment"
ChIJwysE9Aw9sz4RCKe4C4rIvOM,,Care Medical And General Store,24.8419822,67.0502143,OPERATIONAL,"pharmacy, health, point_of_interest, store, establishment"
ChIJQY2PdjI8sz4RmNHxUMGgk6E,,Feroze Medical & General Store,24.8417106,67.050445,OPERATIONAL,"pharmacy, health, point_of_interest, store, establishment"
ChIJ80F6SgA9sz4RWDCczjs6ML8,,Sheikh Hasnain Medical Store,24.843235,67.0500347,OPERATIONAL,"pharmacy, health, point_of_interest, store, establishment"
ChIJvb79azM8sz4R9Gj8XxKrdIM,,??????? ???? ?????? ???? ???,24.8369528,67.0482905,OPERATIONAL,"pharmacy, health, point_of_interest, store, establishment"
ChIJCTeZT1c9sz4RRX7yx3Nx5IQ,,AJ MEDICAL STORE,24.8458454,67.0502065,OPERATIONAL,"pharmacy, health, point_of_interest, store, establishment"
ChIJZU9KSDA8sz4RHAj4J6fpHlM,,Hameed Medical & General Store,24.8412398,67.0559693,OPERATIONAL,"pharmacy, health, point_of_interest, store, establishment"
ChIJQzjkRFg9sz4RT4bGSYPTRso,,Xinda Chemicals H.O,24.799447,67.0597141,OPERATIONAL,"pharmacy, health, point_of_interest, store, establishment"
ChIJr2Sd_0Q8sz4ReyghJ53Dfck,,Hamza Medical and General Store,24.823993,67.0615499,OPERATIONAL,"pharmacy, point_of_interest, health, store, establishment"
ChIJP3WSCa89sz4R6XgUPINyewo,,Ameen medical & super store,24.8224526,67.0632826,OPERATIONAL,"pharmacy, point_of_interest, health, store, establishment"
ChIJ6YeFpVw8sz4RmcAB2GsnvzQ,,Al Hamd Medical & General Store.,24.8210356,67.0648438,OPERATIONAL,"pharmacy, point_of_interest, health, store, establishment"
ChIJ6xsi-EQ8sz4RXkk0-NHABws,,Waleed Medical & General Store,24.8205244,67.0658442,OPERATIONAL,"pharmacy, point_of_interest, health, store, establishment"
ChIJvfnD9Fo9sz4R8CMU3tTFOd4,,Meri Sehat-Corporate HQ,24.8319396,67.0653638,OPERATIONAL,"pharmacy, point_of_interest, store, health, establishment"
ChIJGXL72qY9sz4R5pkwoF7gxKM,,Siddique Medical Store,24.8416387,67.056526,OPERATIONAL,"pharmacy, health, store, point_of_interest, establishment"
ChIJIXAzDUM9sz4RrDgyoJhYv54,,Ali Medical And General Store,24.8419119,67.0570013,OPERATIONAL,"pharmacy, health, store, point_of_interest, establishment"
ChIJVVVVlTw8sz4RlHj62YDTrRM,,QD’s Medical & General Store,24.8410402,67.0607889,OPERATIONAL,"pharmacy, health, store, point_of_interest, establishment"
ChIJsW6EGy88sz4RvOoeMwiz3R8,,Al-Khair Medical Store,24.8463153,67.0558222,OPERATIONAL,"pharmacy, health, store, point_of_interest, establishment"
ChIJ3WSihIw9sz4Rmc_ZFU7sbtc,,THO & DHO OFFICE,24.8499206,67.049719,OPERATIONAL,"pharmacy, health, store, point_of_interest, establishment"
ChIJCfKUkgQ9sz4R0lAJhuO9bo8,,Supermed,24.7877723,67.0760836,OPERATIONAL,"pharmacy, point_of_interest, store, health, establishment"
ChIJNUAnVNQ9sz4R2Yi4ksy6B5g,,Pets Care N Cure ( Vet and Animal Hospital in Karachi ),24.8020988,67.0749389,OPERATIONAL,"pharmacy, veterinary_care, point_of_interest, store, health, establishment"
ChIJz40v20E8sz4R2kdm9CFmm74,,Sohail Medical Store,24.8298902,67.069468,OPERATIONAL,"pharmacy, health, point_of_interest, store, establishment"
ChIJdbLSSPY9sz4RAwVt1_g4hCw,,DELIVERED - A Delivery Company,24.8304545,67.0674931,OPERATIONAL,"pharmacy, restaurant, food, health, point_of_interest, store, establishment"
ChIJr5HSxEE8sz4REv8e7IB0p7s,,Medical Store,24.8300368,67.0696764,OPERATIONAL,"pharmacy, health, point_of_interest, store, establishment"
ChIJA6dh30E8sz4RSANLvYNYJ9k,,Dar-ul-Kutub,24.8298909,67.0702781,OPERATIONAL,"pharmacy, health, point_of_interest, store, establishment"
ChIJOYtjSkA8sz4RWoTqUhEbGVs,,???????? ?? ?????? DHA PH 2 Karachi.,24.8309003,67.0682167,OPERATIONAL,"pharmacy, health, point_of_interest, store, establishment"
ChIJn0oLqBk9sz4RpYnf3E_zblA,,Ar Rehman Medical,24.8316941,67.0673575,OPERATIONAL,"pharmacy, point_of_interest, store, health, establishment"
ChIJcYBNo-Y9sz4R0g2W665JtKs,,Akhtar Homoeo Clinic,24.8328591,67.0680341,OPERATIONAL,"pharmacy, point_of_interest, store, health, establishment"
ChIJqauZ5D88sz4RD9898Wnohzg,,STEP IN GENERAL STORE,24.8345785,67.069881,OPERATIONAL,"pharmacy, point_of_interest, store, health, establishment"
ChIJrzm98E89sz4RWheazqcIOgs,,Al shaikh medical superstore,24.8345229,67.070933,OPERATIONAL,"pharmacy, point_of_interest, store, health, establishment"
ChIJ9df9Mmo8sz4Ru_UhfNExE4g,,Life Medical Store,24.8295653,67.0731053,OPERATIONAL,"pharmacy, point_of_interest, store, health, establishment"
ChIJbTi-Dp89sz4RqkSuILnCydc,,Murshid Medical Store,24.8231679,67.0809934,OPERATIONAL,"pharmacy, health, point_of_interest, store, establishment"
ChIJpyt7Da09sz4RnxXi0l1dwbc,,????? ???????,24.8231238,67.0825981,OPERATIONAL,"pharmacy, health, point_of_interest, store, establishment"
ChIJ4-dre9A9sz4RM2flAadQ-Hc,,????? ?????? ?????,24.8239285,67.0819412,OPERATIONAL,"pharmacy, health, point_of_interest, store, establishment"
ChIJR6Z_r2Q9sz4Rt6MZiPVr2vs,,Medical store,24.8249793,67.0794021,OPERATIONAL,"pharmacy, health, point_of_interest, store, establishment"
ChIJB5DMDgA9sz4RyhcUHYn_hNE,,Mehran Medical Store,24.8263424,67.0804068,OPERATIONAL,"pharmacy, health, point_of_interest, store, establishment"
ChIJbYu3q1g9sz4RLKRdmcnjwGo,,Al-shams medical and general store 2,24.8277144,67.079204,OPERATIONAL,"pharmacy, point_of_interest, health, store, establishment"
ChIJ13cZljg9sz4RkfnnvwgyBf8,,????? ?????? ?????,24.8255396,67.0831942,OPERATIONAL,"pharmacy, point_of_interest, health, store, establishment"
ChIJLcqbS2Y9sz4RaBTCzukYaEg,,"TM Roots , karachi, pakistan",24.8308052,67.0747753,OPERATIONAL,"pharmacy, point_of_interest, health, store, establishment"
ChIJ5UBrRqU_sz4RXbXQ8ayC_GU,NAZIMABAD # 1234,Baqai Institute of Diabetology and Endocrinology,24.9077119,67.0352054,OPERATIONAL,"hospital, pharmacy, doctor, health, point_of_interest, store, establishment"
ChIJzWc59MdBsz4RDmCGaex6uSg,NEW KARACHI,Tabba Heart Institute Medical Centre - North Karachi,24.9868493,67.0651264,OPERATIONAL,"pharmacy, hospital, health, store, point_of_interest, establishment"
ChIJM7froUg_sz4Rf7EFe_vNfLo,DASTAGIR COLONY,Mehmood Memorial Hospital,24.9295222,67.0825048,OPERATIONAL,"hospital, pharmacy, health, point_of_interest, store, establishment"
ChIJF5jmz3Rrsz4Ru7MqmKzB8gE,ORANGI # 5,S.S. Advance Homoeopathic Clinic,24.9397689,67.0005985,OPERATIONAL,"pharmacy, doctor, drugstore, health, store, point_of_interest, establishment"
ChIJy6UtQv8_sz4R4lCB6a7aXak,MATRIC BOARD OFFICE,"Sufi Homeo Store & Clinic, Dr Abdullah Saleem Clinic",24.9244272,67.0299549,OPERATIONAL,"hospital, pharmacy, drugstore, doctor, health, point_of_interest, store, establishment"
ChIJQwWLHxpBsz4Rxlzt_DgWIhw,NEW KARACHI,MOHAMMAD YOUSUF MEMORIAL HOSPITAL,24.9995595,67.0643172,OPERATIONAL,"hospital, pharmacy, doctor, health, point_of_interest, store, establishment"
ChIJExx3UQ4-sz4RAk0s1jIQMPg,SADDAR,Homeopathic Doctor Islam Hamid at Baba-e-Homoeopathy Dr. Hamid's National Homeo Stores & Clinic (established since 1918).,24.8559276,67.0141895,OPERATIONAL,"drugstore, pharmacy, point_of_interest, store, doctor, health, establishment"
ChIJBxahWeI_sz4RqEFo7-R6Q_c,CIVIL HOSPITAL,Baqai Homoeopathic store,24.8563029,67.0115106,OPERATIONAL,"pharmacy, drugstore, doctor, health, store, point_of_interest, establishment"
ChIJCdfXkY0Vsz4R98kRGNjyDxU,NAWABADDARYABAD,Suleman Medical Store,24.8689865,66.9876324,OPERATIONAL,"pharmacy, health, store, point_of_interest, establishment"
ChIJERWIi00Vsz4RuFmgTFBmQK8,NAWABADDARYABAD,Bismillah medical store,24.8696539,66.982682,OPERATIONAL,"pharmacy, health, store, point_of_interest, establishment"
ChIJKxnI7rIVsz4RfQcHfTWnh0A,NAWABADDARYABAD,Rehmania Medical Store,24.8684068,66.9848392,OPERATIONAL,"pharmacy, health, store, point_of_interest, establishment"
ChIJaSOA6JEVsz4RExvTBH8hJ5w,NAWABADDARYABAD,Hamdard Medical & General Store,24.8707137,66.9859843,OPERATIONAL,"pharmacy, health, store, point_of_interest, establishment"
ChIJo67DRIAVsz4RlgiiYPIwDyg,NAWABADDARYABAD,Master Pansaar,24.8701116,66.9864557,OPERATIONAL,"pharmacy, health, store, point_of_interest, establishment"
ChIJ6Y4XHAAVsz4RPphaSPO35_o,BIHAR COLONY,Shafiq Medical & General Store,24.8719341,66.986473,OPERATIONAL,"pharmacy, health, store, point_of_interest, establishment"
ChIJ03syEtcVsz4RyMfKwr3EhsQ,NAWABADDARYABAD,Bhittai Medical Store,24.8691302,66.9862984,OPERATIONAL,"pharmacy, health, store, point_of_interest, establishment"
ChIJSTnwFB0Vsz4Rb_bZ4NP9D1M,BIHAR COLONY,Kabeer medical store,24.8743377,66.9854182,OPERATIONAL,"pharmacy, health, store, point_of_interest, establishment"
ChIJZe9yrewVsz4RHx9kh70b_FY,BIHAR COLONY,Sindh Medical Store,24.8724375,66.9870625,OPERATIONAL,"pharmacy, health, store, point_of_interest, establishment"
ChIJEbHYI44Vsz4RirjIB3KS7dM,BIHAR COLONY,Dua Medical Store,24.87239,66.9871519,OPERATIONAL,"pharmacy, health, store, point_of_interest, establishment"
ChIJxRI49aoVsz4RxdIPlBvTZhM,BIHAR COLONY,Hunain pansar store,24.8712942,66.9882835,OPERATIONAL,"pharmacy, health, store, point_of_interest, establishment"
ChIJHUl8uUkVsz4R4fJRqHLct6A,BIHAR COLONY,Hunain pansar store,24.8722302,66.989261,OPERATIONAL,"pharmacy, health, store, point_of_interest, establishment"
ChIJk1aozvEVsz4RzNepoxMzQK4,NAWABADDARYABAD,Anwar Medical Store,24.8676788,66.988658,OPERATIONAL,"pharmacy, health, store, point_of_interest, establishment"
ChIJvc4VXoIVsz4Rh5a1VdJX9Hg,SHERSHAH,Rehan medical store,24.8814204,66.9850582,OPERATIONAL,"pharmacy, point_of_interest, health, store, establishment"
ChIJu0oFsxgVsz4RQicSqeA-4TI,SHERSHAH,ahmad medical store,24.8836325,66.9844365,OPERATIONAL,"pharmacy, point_of_interest, health, store, establishment"
ChIJ3Ujc19wVsz4RVE6pMCnSm2g,SHERSHAH,Rehan medical store,24.8832577,66.9875539,OPERATIONAL,"pharmacy, point_of_interest, health, store, establishment"
ChIJe9Cd1IIVsz4Ri2ml_gresgk,SHERSHAH,Yousuf Medical Store,24.8850706,66.9869143,OPERATIONAL,"pharmacy, point_of_interest, health, store, establishment"
ChIJNVJRR4MVsz4RA0aZ5W5ftOE,SHERSHAH,Subhan Medical,24.8835428,66.9879471,OPERATIONAL,"pharmacy, point_of_interest, health, store, establishment"
ChIJjUrAPd4Vsz4RiC2btCeMYOQ,SHERSHAH,Haryana Dawakhana,24.8854134,66.9868835,OPERATIONAL,"pharmacy, point_of_interest, health, store, establishment"
ChIJvZuYJa4Vsz4RY8nEzrMftiA,SHERSHAH,Nagori medical,24.8835908,66.9883763,OPERATIONAL,"pharmacy, point_of_interest, health, store, establishment"
ChIJM2zfU3YVsz4RkmDBeDTaU10,SHERSHAH,Faiz Awam Dawakhana,24.8893518,66.9835408,OPERATIONAL,"pharmacy, point_of_interest, health, store, establishment"
ChIJIQwTNxoVsz4RgPMyPd5PCyQ,SHERSHAH,Medical store,24.887998,66.9880112,OPERATIONAL,"pharmacy, point_of_interest, health, store, establishment"
ChIJCQFbNAAVsz4RWhJXZKbseQM,CHAKIWARA,Aizaz medical,24.8763723,66.9913885,OPERATIONAL,"pharmacy, point_of_interest, health, store, establishment"
ChIJb9VcsBkVsz4RVOofjhnjZEw,KHARADAR,Pak Medical,24.8523205,66.9957706,OPERATIONAL,"pharmacy, health, store, point_of_interest, establishment"
ChIJf5nrYzYVsz4RTEb1ZAknxG8,NAWABAD,Sabzwari Medical,24.8548672,66.9939228,OPERATIONAL,"pharmacy, health, store, point_of_interest, establishment"
ChIJwwWirfkVsz4RTKFvGdl6qvc,KHARADAR,Star Medical,24.8531948,66.99552,OPERATIONAL,"pharmacy, health, store, point_of_interest, establishment"
ChIJ76OSzDYVsz4RqhA8DTfT-3k,NAWABAD,BISMILLAH MEDICAL AND GENERAL STORE,24.8556408,66.9931126,OPERATIONAL,"pharmacy, health, store, point_of_interest, establishment"
ChIJPTI_VgAVsz4Rp6e103i_xnQ,KHARADAR,Platinum medical Store,24.8485532,66.9957504,OPERATIONAL,"pharmacy, health, store, point_of_interest, establishment"
ChIJj2WCBz4Vsz4Rxt62qly6iJE,NAWABAD,Lyari Medical And General Store.,24.8563707,66.9927896,OPERATIONAL,"pharmacy, health, store, point_of_interest, establishment"
ChIJS8wE8v8Vsz4RTRc3bnJClbw,MEETHADAR,B JAN homoeopathic store & clinic,24.853425,66.9967106,OPERATIONAL,"pharmacy, drugstore, health, store, point_of_interest, establishment"
ChIJz-diXgAVsz4RPwHIL4tN5Zw,NAWABAD,I S Surgical,24.8565938,66.9940447,OPERATIONAL,"pharmacy, health, store, point_of_interest, establishment"
ChIJE3Y7bBIVsz4RgHP9kl1zq-I,NAWABAD,M.r.maidan,24.856691,66.9938803,OPERATIONAL,"pharmacy, veterinary_care, health, store, point_of_interest, establishment"
ChIJS5hgWFkVsz4RbOvxPyEkJrc,NAWABAD,ZEESHAN YAMEEN,24.856691,66.9938803,OPERATIONAL,"pharmacy, health, store, point_of_interest, establishment"
ChIJ50qZ_Q4Vsz4RRLgMi3Tz3vw,NAWABAD,HK Sons,24.856691,66.9938803,OPERATIONAL,"pharmacy, health, store, point_of_interest, establishment"
ChIJqfj5LIMVsz4R6bkaqY4WV80,NAWABAD,Medina Medical and General Store,24.8572265,66.9927098,OPERATIONAL,"pharmacy, health, store, point_of_interest, establishment"
ChIJnQ0mSmsVsz4R5XLbzFS_R04,NAWABAD,ZARA MEDICAL STORE,24.8546847,66.9967533,OPERATIONAL,"pharmacy, health, store, point_of_interest, establishment"
ChIJdx2Ik6MVsz4Rl0is5Dn5BWo,NAWABAD,The chemist,24.8573466,66.9961486,OPERATIONAL,"pharmacy, health, store, point_of_interest, establishment"
ChIJVayw-vMVsz4RpS906w28UTI,NAWABADDARYABAD,Thirst Mineral Water.,24.8606692,66.9906066,OPERATIONAL,"pharmacy, point_of_interest, store, health, establishment"
ChIJ0we6iyIVsz4REgLKUqQZs_c,NAWABAD,Nasir Medical Store 2,24.8604082,66.990942,OPERATIONAL,"pharmacy, point_of_interest, store, health, establishment"
ChIJE4Z9QwAVsz4RHBYiK91eoKw,NAWABADDARYABAD,Chapra medical store,24.8610682,66.9912282,OPERATIONAL,"pharmacy, point_of_interest, store, health, establishment"
ChIJ2SczDVQVsz4RPSiVQ8vzttM,NAWABAD,Mehran medical & general store nayabad,24.8598069,66.9912598,OPERATIONAL,"pharmacy, point_of_interest, store, health, establishment"
ChIJ8X_XcHQVsz4Rt7JSV6LFjfw,NAWABADDARYABAD,Al-Gousia medical and general store,24.8614086,66.992209,OPERATIONAL,"pharmacy, food, point_of_interest, store, health, establishment"
ChIJmfpzYu0Vsz4RRVqHJnlrnec,NAWABADDARYABAD,Quetta Karachi Goods Transport Co,24.8632153,66.9868938,OPERATIONAL,"pharmacy, point_of_interest, store, health, establishment"
ChIJ92cTTHAVsz4R9cLNv9lFApg,NAWABAD,Farigh Medical,24.8581029,66.995931,OPERATIONAL,"pharmacy, point_of_interest, store, health, establishment"
ChIJI6Xwv44Vsz4RQZfuNtAzML4,BIHAR COLONY,Lyari Medical Store,24.8729427,66.9911144,OPERATIONAL,"pharmacy, health, store, point_of_interest, establishment"
ChIJByeXOWkVsz4R9N667Q6-VWI,NAWABADDARYABAD,Banglani Arcade,24.8688913,66.9924161,OPERATIONAL,"pharmacy, health, store, point_of_interest, establishment"
ChIJk1R0-44Vsz4RWrwCRZuu6Ic,BIHAR COLONY,Taji medical store,24.8737013,66.9904246,OPERATIONAL,"pharmacy, health, store, point_of_interest, establishment"
ChIJvTQf_o4Vsz4RbPiTrE3HmoM,BIHAR COLONY,Choudhary Medical & Gernal Store,24.8739819,66.9901432,OPERATIONAL,"pharmacy, health, store, point_of_interest, establishment"
ChIJf3guAI8Vsz4Rj6lBIcw8VLA,BIHAR COLONY,Super Sudes Medical Store,24.8740977,66.9900284,OPERATIONAL,"pharmacy, health, store, point_of_interest, establishment"
ChIJxxhumMsVsz4RpieJpkjh-Sw,CHAKIWARA,Afzal Clinic Medical & General Store,24.874385,66.9908808,OPERATIONAL,"pharmacy, health, store, point_of_interest, establishment"
ChIJ9SumCDkVsz4Rr2n0rKOXztg,BIHAR COLONY,Mehran Medical Store,24.867604,66.989005,OPERATIONAL,"pharmacy, health, store, point_of_interest, establishment"
ChIJgyekEpsVsz4RSwPqdFKyXFc,CHAKIWARA,BSMS ONLINE STORE,24.8742582,66.9926077,OPERATIONAL,"pharmacy, health, store, point_of_interest, establishment"
ChIJC4tFH40Vsz4RGSrzVGgSkPQ,NAWABADDARYABAD,Farrukh Medical Store,24.8670461,66.9895408,OPERATIONAL,"pharmacy, health, store, point_of_interest, establishment"
ChIJn97cWV4Vsz4RuElZfPkKJDM,CHAKIWARA,BISMILLAH MEDICAL STORE,24.8779431,66.9922286,OPERATIONAL,"pharmacy, point_of_interest, health, store, establishment"
ChIJ3_FaZ3sVsz4RtS-K58z878M,CHAKIWARA,Bawaseer Clinic,24.8792235,66.9961591,OPERATIONAL,"pharmacy, drugstore, point_of_interest, health, store, establishment"
ChIJC1VPkA8-sz4R67HRNjwO78g,CIVIL HOSPITAL,Homeopathic Dr Ahmad Fakir,24.856084,67.0108841,OPERATIONAL,"pharmacy, drugstore, point_of_interest, health, store, establishment"
ChIJsSCLmw8-sz4RHrGrcq4Ta4A,CIVIL HOSPITAL,Homoeolinks,24.8555571,67.0117069,OPERATIONAL,"pharmacy, drugstore, point_of_interest, health, store, establishment"
ChIJn3CdkQ8-sz4RBSFK2MVF-qw,CIVIL HOSPITAL,Mektum House,24.8562018,67.0116224,OPERATIONAL,"pharmacy, drugstore, point_of_interest, health, store, establishment"
ChIJSRtBUQ4-sz4Ro_NszfuwhGU,SADDAR,Baba-e-Homeopathy Dr. Hamid's National Homeo Stores (since 1918),24.8559542,67.0141308,OPERATIONAL,"pharmacy, drugstore, point_of_interest, health, store, establishment"
ChIJl0jWaA4-sz4RlOJ9ANINTUo,CIVIL HOSPITAL,Noor Medical,24.8566875,67.0155015,OPERATIONAL,"pharmacy, point_of_interest, health, store, establishment"
ChIJpbARgQM-sz4Riu3iAp3JoOU,ZEENAT MEDICINE MARKE,Quetta Walla Medicine Market,24.8537994,67.0045403,OPERATIONAL,"pharmacy, point_of_interest, health, store, establishment"
ChIJKXu6ft8_sz4Rpj60ZyF04Kw,ZEENAT MEDICINE MARKE,FAIR TRADERS ZEESHAN YAMEEN,24.8538621,67.0048298,OPERATIONAL,"pharmacy, point_of_interest, health, store, establishment"
ChIJiWcESgA_sz4RskWTfCiXCGk,ZEENAT MEDICINE MARKE,Hospital Supply And Online Seller,24.8539567,67.0047872,OPERATIONAL,"pharmacy, point_of_interest, health, store, establishment"
ChIJ6V2Q0ZE_sz4R31BD6UtPcKw,NAWABAD,Al Mustafa Medical store,24.8607342,67.0011363,OPERATIONAL,"pharmacy, point_of_interest, store, health, establishment"
ChIJ5d0qtJNrsz4RVmt_ofJwnjk,NAWABAD,Hajrah Manzil,24.8607343,67.0011364,OPERATIONAL,"pharmacy, point_of_interest, store, health, establishment"
ChIJOy0I8Qs_sz4Rfv8GAMCElQk,NAWABAD,Keep Cool,24.8607343,67.0011364,OPERATIONAL,"pharmacy, point_of_interest, store, health, establishment"
ChIJEWPT_nc_sz4Rjj49hsFNOZk,NAWABAD,IQBAL HOMEO CLINIC,24.8607343,67.0011364,OPERATIONAL,"drugstore, pharmacy, point_of_interest, store, health, establishment"
ChIJQ_1Qkd8_sz4RGbWuHDlxLO8,NAWABAD,High performance industrial centralized vacuum system,24.8607343,67.0011364,OPERATIONAL,"pharmacy, point_of_interest, store, health, establishment"
ChIJW9C5Vyk_sz4RmuR_s4Lwf0I,NAWABAD,Baber Medical and General Store,24.8607343,67.0011364,OPERATIONAL,"pharmacy, point_of_interest, store, health, establishment"
ChIJl2qZpFo_sz4Rl3ztcxjqfE4,CHAKIWARA,Eden Medical and General Store,24.8620162,67.0003912,OPERATIONAL,"pharmacy, point_of_interest, store, health, establishment"
ChIJoYtpIPYVsz4RC-z_DTZykhU,NAWABAD,Fatah Medical Store,24.8599653,66.9987146,OPERATIONAL,"pharmacy, point_of_interest, store, health, establishment"
ChIJG50I0zM_sz4Rx8rYTVKiQqw,NAWABAD,GULZAR MEDICAL AND GENERAL STORE,24.8620908,66.9988181,OPERATIONAL,"pharmacy, point_of_interest, store, health, establishment"
ChIJO73FL8I_sz4RtLOEXvrLeaA,CHAKIWARA,AL QADIR MEDICAL STORE,24.8711648,67.001552,OPERATIONAL,"pharmacy, health, store, point_of_interest, establishment"
ChIJLSfHFgA_sz4RluJZl4FzuuI,CHAKIWARA,Sindh Medical Store (SMS),24.8699602,67.0011333,OPERATIONAL,"pharmacy, health, store, point_of_interest, establishment"
ChIJoZfCXFU_sz4R6tAF37mMurg,CHAKIWARA,Lahooti Medical Store,24.8697852,67.0008592,OPERATIONAL,"pharmacy, health, store, point_of_interest, establishment"
ChIJ79fmVQAVsz4RxyivM4GJLMg,CHAKIWARA,Shah jee Medical,24.8698763,66.9984394,OPERATIONAL,"pharmacy, health, store, point_of_interest, establishment"
ChIJs8YukJEVsz4RwMnYRslsMIc,CHAKIWARA,Balochistan Medical and General Store,24.8690425,66.9987243,OPERATIONAL,"pharmacy, health, store, point_of_interest, establishment"
ChIJ9eqJq9U_sz4RlZKk61eBjps,CHAKIWARA,Waleed clinic,24.8708266,67.003093,OPERATIONAL,"pharmacy, health, store, point_of_interest, establishment"
ChIJL2xoHeo_sz4R0ceDgUjgIx8,CHAKIWARA,Medical store,24.8726279,67.0023352,OPERATIONAL,"pharmacy, health, store, point_of_interest, establishment"
ChIJ8XCVfVQ_sz4RqFxuV_FMlN4,CHAKIWARA,brohi medical,24.8744305,67.0027741,OPERATIONAL,"pharmacy, health, store, point_of_interest, establishment"
ChIJt-3pKRc_sz4RHtOuCj7eNWE,CHAKIWARA,Mehran medical store,24.8747097,67.0027895,OPERATIONAL,"pharmacy, health, store, point_of_interest, establishment"
ChIJw3KEMnMVsz4RYRkAQTu_Rc4,CHAKIWARA,Kutch Medical and General Store,24.8742217,66.9970687,OPERATIONAL,"pharmacy, health, store, point_of_interest, establishment"
ChIJb-9NVew_sz4R1D59lOLloio,CHAKIWARA,Hammad medical Store,24.8747709,67.0032165,OPERATIONAL,"pharmacy, health, store, point_of_interest, establishment"
ChIJheuot4kVsz4R9gWzOL_j5bU,CHAKIWARA,Ghaffar Medical Store,24.8746722,66.9971994,OPERATIONAL,"pharmacy, health, store, point_of_interest, establishment"
ChIJc8jZwh8-sz4RBTyeYRXPIjk,CHAKIWARA,Haroon Medical,24.8656684,66.9996954,OPERATIONAL,"pharmacy, health, store, point_of_interest, establishment"
ChIJrRCcF4E_sz4RAxJKshOH0lk,CHAKIWARA,MUSCAT Medical Store,24.8739729,67.0064752,OPERATIONAL,"pharmacy, health, store, point_of_interest, establishment"
ChIJ9cwBnMg_sz4RmqP4m7FfogM,CHAKIWARA,Qaiser Medical & General Store,24.87971,67.0033558,OPERATIONAL,"pharmacy, health, store, point_of_interest, establishment"
ChIJl3EbCic-sz4RLc93y264Fcg,CHAKIWARA,Jabbar Medical Store,24.8776674,66.9981633,OPERATIONAL,"pharmacy, health, store, point_of_interest, establishment"
ChIJVX8CQb0_sz4Rzdm23iKO5yc,CHAKIWARA,TARAZOWALA MEDICAL STORE,24.8784033,67.0103701,OPERATIONAL,"pharmacy, health, store, point_of_interest, establishment"
ChIJOTIN-74_sz4RDLkozqvGK8I,BURNS ROAD,Bolan lab,24.8523763,67.0107507,OPERATIONAL,"pharmacy, health, point_of_interest, store, establishment"
ChIJnXTh5T0_sz4R3_LAunoys0M,BURNS ROAD,Al Hamd Medical & general store,24.8524166,67.0107534,OPERATIONAL,"pharmacy, health, point_of_interest, store, establishment"
ChIJH2GBbvA_sz4Rf6hp1tkmMB8,BURNS ROAD,Darul Shifa Traders (all younani herbal medicines),24.8535791,67.0061299,OPERATIONAL,"pharmacy, health, point_of_interest, store, establishment"
ChIJZfm6RQA_sz4RzRNajV5fRWM,CIVIL HOSPITAL,Salman Homeo Store,24.8554543,67.0120085,OPERATIONAL,"drugstore, pharmacy, health, point_of_interest, store, establishment"
ChIJ83RZXQA_sz4Ra3OG60YwhwA,CIVIL HOSPITAL,Sudeshi Homoeopathic Medicine Store,24.8557026,67.0116569,OPERATIONAL,"drugstore, pharmacy, health, point_of_interest, store, establishment"
ChIJheAkmg8-sz4RdWQ6xn0pMh8,CIVIL HOSPITAL,Batla impex homeopathic store and clinic,24.8557747,67.0117917,OPERATIONAL,"pharmacy, health, point_of_interest, store, establishment"
ChIJWVYwZgk-sz4R7Tca7ZCXe5U,BURNS ROAD,Musani Press,24.8514642,67.0159853,OPERATIONAL,"pharmacy, health, point_of_interest, store, establishment"
ChIJOZVP5wE_sz4RCSWm-ilO4uo,MEDICINE MARKET,AA.brothers,24.8542051,67.0059119,OPERATIONAL,"pharmacy, health, point_of_interest, store, establishment"
ChIJGev80w8_sz4RaRwxBiJ4-fI,USMANABAD,Faheem Brothers Medical & General Store,24.8731724,67.0122583,OPERATIONAL,"pharmacy, point_of_interest, store, health, establishment"
ChIJEwKKjM0_sz4RoCKEU57U6fQ,CHAKIWARA,Faiz Sain Ghani (Homeopathic Clinic),24.873681,67.0095757,OPERATIONAL,"drugstore, pharmacy, point_of_interest, store, health, establishment"
ChIJAxJVXRY-sz4R2peHmd9C-ME,RAMSWAMI,Discount Medical & General Store,24.8676606,67.0150242,OPERATIONAL,"pharmacy, point_of_interest, store, health, establishment"
ChIJE8ARZwA_sz4REHAFFLobx9g,GARDEN WEST,Garden Medical store,24.8734758,67.0156785,OPERATIONAL,"pharmacy, point_of_interest, store, health, establishment"
ChIJAzx6XxY-sz4RnQIb_m75sGQ,RAMSWAMI,Al-Madina Medical Store,24.867109,67.0148141,OPERATIONAL,"pharmacy, point_of_interest, store, health, establishment"
ChIJl1k0zps_sz4R7FgS925LhtM,GARDEN WEST,Zam Zam medical general store,24.8742291,67.0152904,OPERATIONAL,"pharmacy, point_of_interest, store, health, establishment"
ChIJoYXmLjw-sz4RSd8N30Rb2x0,SHOE MARKET,Badshah Medical,24.8731951,67.0161863,OPERATIONAL,"pharmacy, point_of_interest, store, health, establishment"
ChIJ3V5p1I0_sz4RpEb-cxxXJ9g,SHOE MARKET,Pak Medical & General store,24.8731879,67.0162002,OPERATIONAL,"pharmacy, point_of_interest, store, health, establishment"
ChIJFfL2ZgA_sz4RJ5dO1QB4YrI,GARDEN WEST,Wali medical store,24.8770508,67.0189685,OPERATIONAL,"pharmacy, point_of_interest, store, health, establishment"
ChIJaSDBSVk_sz4RsHX2CKBtiZI,GARDEN WEST,Walk medical store,24.8771656,67.0190419,OPERATIONAL,"pharmacy, point_of_interest, store, health, establishment"
ChIJhb6nKKw_sz4R_xyJySd7WIs,GARDEN WEST,RAJU MEDICAL STORE,24.8766442,67.018939,OPERATIONAL,"pharmacy, point_of_interest, store, health, establishment"
ChIJhzuOOX4_sz4RdwTCp2L6reA,GARDEN WEST,Ruwaida medical store,24.8742901,67.0170911,OPERATIONAL,"pharmacy, point_of_interest, store, health, establishment"
ChIJs875pSI_sz4RtCX34mc2oVo,BURNS ROAD,Dr Reckeweg Pakistan,24.8510639,67.0168121,OPERATIONAL,"drugstore, pharmacy, point_of_interest, store, health, establishment"
ChIJycVvZqE_sz4RHj5Df3XNx9E,BURNS ROAD,Dr Salim Ahmed & Co,24.8510639,67.0168121,OPERATIONAL,"drugstore, pharmacy, point_of_interest, store, health, establishment"
ChIJ7RkC8gk-sz4Rkd7XqWqEHDQ,TOWER,City General & Medical Store,24.8485461,67.0159162,OPERATIONAL,"pharmacy, point_of_interest, store, health, establishment"
ChIJb25gawA_sz4RX8RiUYrL-7s,SADDAR,Al Fatah clinic,24.8559545,67.0172409,OPERATIONAL,"pharmacy, point_of_interest, store, health, establishment"
ChIJXWYsDN89sz4RSAl9JWStfXA,SADDAR,Sanis Chemists P.C. hotel,24.8475547,67.0256332,OPERATIONAL,"pharmacy, point_of_interest, store, health, establishment"
ChIJCwc2jQ4-sz4REThhO8O9GkM,SADDAR,Mohammad Ali Chemist,24.8551309,67.0151439,OPERATIONAL,"pharmacy, point_of_interest, store, health, establishment"
ChIJ914bdg4-sz4RyoniPRDsktA,SADDAR,Hilal Medical & General Store,24.8569813,67.0166483,OPERATIONAL,"pharmacy, point_of_interest, store, health, establishment"
ChIJWW7fHRM-sz4RJs73Z63z1yE,SADDAR,Dawakhana Hakeem Yaseen,24.8622958,67.0207986,OPERATIONAL,"pharmacy, health, store, point_of_interest, establishment"
ChIJKUOiGwA_sz4RGynXdp9_feo,SOLDIER BAZAR,Waqar medical store,24.8643634,67.0208193,OPERATIONAL,"pharmacy, health, store, point_of_interest, establishment"
ChIJQXf9elg_sz4RIRrd7lqL9ek,SADDAR,Rahat medical store,24.858702,67.0241013,OPERATIONAL,"pharmacy, health, store, point_of_interest, establishment"
ChIJlS3cmII_sz4RYd6RlgR00uY,CIVIL HOSPITAL,Ubqari Head Office Karachi,24.8588923,67.0164171,OPERATIONAL,"pharmacy, health, store, point_of_interest, establishment"
ChIJY2o-6nI-sz4ReFFXGCTTLY8,SADDAR,Al-Sadaat Medical & General Store,24.8583324,67.0242381,OPERATIONAL,"pharmacy, health, store, point_of_interest, establishment"
ChIJFwZhCbs_sz4RsA2fVv94iFU,CIVIL HOSPITAL,Masha Allah Medical & Super Store,24.8583994,67.0160986,OPERATIONAL,"pharmacy, health, store, point_of_interest, establishment"
ChIJtwCeSNA_sz4RZfBlckGADTQ,RANCHORE LINE,Al-Rizwan Medical Store,24.8643394,67.0169543,OPERATIONAL,"pharmacy, health, store, point_of_interest, establishment"
ChIJIYxk8lk_sz4RKWbbg4SHfYg,RANCHORE LINE,Qadir Medical Store,24.8652273,67.0175092,OPERATIONAL,"pharmacy, health, store, point_of_interest, establishment"
ChIJYZsCo8k_sz4RGRP0bIjLM54,SHOE MARKET,AAMIR MEDICAL STORE,24.8719666,67.0170582,OPERATIONAL,"pharmacy, point_of_interest, health, store, establishment"
ChIJZU7_BRY-sz4R4gdjp8DV24k,RAMSWAMI,Anis Medicine Store,24.8677564,67.0173852,OPERATIONAL,"pharmacy, point_of_interest, health, store, establishment"
ChIJH0WPPms-sz4RxgviKIq9Lig,SOLDIER BAZAR,Makki Medical Facilities,24.8672929,67.0239877,OPERATIONAL,"pharmacy, point_of_interest, health, store, establishment"
ChIJZQ2ZaRY-sz4R0Y4Ycm4h-r4,RAMSWAMI,Erum Medical Store,24.8677838,67.0158675,OPERATIONAL,"pharmacy, point_of_interest, health, store, establishment"
ChIJDYHWRms-sz4R9fZWCMuIykI,SOLDIER BAZAR,New SJ Ghani Chemist,24.8667353,67.0237226,OPERATIONAL,"pharmacy, point_of_interest, health, store, establishment"
ChIJ4wZecAA_sz4RASQcs4QtTN8,GARDEN WEST,Muhammadi Medical Store,24.8791679,67.0206663,OPERATIONAL,"pharmacy, point_of_interest, store, health, establishment"
ChIJC9IeVEY-sz4RiG7wHEKfrPE,GARDEN EAST,Safeway Medical Store,24.8801887,67.0260143,OPERATIONAL,"pharmacy, point_of_interest, store, health, establishment"
ChIJjxvXLbQ_sz4Rv6NBywBNgg8,GARDEN EAST,Lohana Medical Store,24.8825205,67.0270433,OPERATIONAL,"pharmacy, point_of_interest, store, health, establishment"
ChIJ5wt8wbo_sz4RMmS_rUrg7z0,LASBELA,MP Medical & General store :),24.8859404,67.0284637,OPERATIONAL,"pharmacy, point_of_interest, store, health, establishment"
ChIJPfe8GG4-sz4RnpKheDcqbHI,SADDAR,Al Jannat Pansar Store,24.8613397,67.0300324,OPERATIONAL,"pharmacy, drugstore, health, store, point_of_interest, establishment"
ChIJ7RWcm10_sz4RYVF8siZ9DSw,SADDAR,World famous homeopathic store,24.8614323,67.0300347,OPERATIONAL,"pharmacy, drugstore, health, store, point_of_interest, establishment"
ChIJlcnVz3E-sz4RrO5buIeN6Kw,SADDAR,Awwal-e-Sahet Unani Dawakhana,24.8604571,67.03102,OPERATIONAL,"pharmacy, health, store, point_of_interest, establishment"
ChIJG95_dvM_sz4RY-XhTXwdCLE,SADDAR,Jilani Homoeopthic Clinic & Store,24.8616858,67.0302259,OPERATIONAL,"pharmacy, drugstore, health, store, point_of_interest, establishment"
ChIJp1hPOAA_sz4RQj-fT-KRAO8,SADDAR,Sindh Medical Store,24.8613322,67.0312663,OPERATIONAL,"pharmacy, hospital, health, store, point_of_interest, establishment"
ChIJS5wnEnM_sz4RUTS6ocXy9Kc,SADDAR,Bright Medical Store,24.8605772,67.03135,OPERATIONAL,"pharmacy, health, store, point_of_interest, establishment"
ChIJ-XGiPW4-sz4Ri2yAZ1KpASQ,SADDAR,Welcome Homeo Store,24.8618702,67.0301722,OPERATIONAL,"pharmacy, drugstore, health, store, point_of_interest, establishment"
ChIJB7zdPW4-sz4R_1icDKC0zjs,SADDAR,Dawakhana Hakeem Ajmal Khan,24.8619456,67.0301986,OPERATIONAL,"pharmacy, health, store, point_of_interest, establishment"
ChIJDTLrv3E-sz4RKXUco7aZSkg,SADDAR,Sunny Chemist,24.8594925,67.0301683,OPERATIONAL,"pharmacy, health, store, point_of_interest, establishment"
ChIJ165MLnA-sz4Rq3IwbagynS4,SADDAR,Adil Surgicals,24.8606928,67.032122,OPERATIONAL,"pharmacy, health, store, point_of_interest, establishment"
ChIJW0skvHE-sz4Rp_HSbF0HDRo,SADDAR,Jerry Chemist,24.8591816,67.0302379,OPERATIONAL,"pharmacy, health, store, point_of_interest, establishment"
ChIJ7ZsKJXA-sz4RH14oXf_QB1s,SADDAR,Kothari & Co Medical & General Store,24.8607716,67.0324873,OPERATIONAL,"pharmacy, health, store, point_of_interest, establishment"
ChIJAQMKrlk_sz4Ro1diK6sZu_E,SADDAR,Shiraz Medical and General Store,24.862134,67.0322522,OPERATIONAL,"pharmacy, health, store, point_of_interest, establishment"
ChIJdZHupHE-sz4Rw5YMEV8jw5U,SADDAR,Al-Safa Mini Market,24.8586234,67.0305038,OPERATIONAL,"grocery_or_supermarket, pharmacy, health, store, food, point_of_interest, establishment"
ChIJ2YZ-Flk-sz4RA7GRGYgtv2s,JAMSHED ROAD & F.JINNH,Barry Chemist,24.8814354,67.0423636,OPERATIONAL,"pharmacy, point_of_interest, health, store, establishment"
ChIJxx7sP9A_sz4Rz3NTnvEN_PY,M.A.JINNAH ROAD,SSN Group,24.8704132,67.0335251,OPERATIONAL,"pharmacy, point_of_interest, health, store, establishment"
ChIJnb4Fffg_sz4RL1x9iFN4Yjs,SOLDIER BAZAR,Dvago,24.8740385,67.0295282,OPERATIONAL,"pharmacy, point_of_interest, health, store, establishment"
ChIJ-faHcUM_sz4R7zus3Nyfvks,LINES AREA  JACOB LINE,Zohair Medical Store,24.8692899,67.0338451,OPERATIONAL,"pharmacy, point_of_interest, health, store, establishment"
ChIJP-0AfRE_sz4R_SmQAP4LElA,LINES AREA  JACOB LINE,Qummer-bani-Hashim,24.8697202,67.0347339,OPERATIONAL,"pharmacy, point_of_interest, health, store, establishment"
ChIJRybtaQA_sz4RbPJhY6ktc1k,LINES AREA  JACOB LINE,Saeed Medical,24.8666756,67.0316648,OPERATIONAL,"pharmacy, point_of_interest, health, store, establishment"
ChIJH45n4kI-sz4RZm2LSWQTn8I,M.A.JINNAH ROAD,Husaini Medical Store,24.8752485,67.0325128,OPERATIONAL,"pharmacy, point_of_interest, health, store, establishment"
ChIJz1X7DuA_sz4Re36aAnQDR0w,LINES AREA  JACOB LINE,Subhan Allah Medical & General Store,24.8668484,67.0339157,OPERATIONAL,"pharmacy, point_of_interest, health, store, establishment"
ChIJraRAGkM-sz4RlXh0HwD2bOg,SOLDIER BAZAR,Mumtaz Chemist & General Store,24.8759272,67.0326028,OPERATIONAL,"pharmacy, point_of_interest, health, store, establishment"
ChIJF0nsF2Y-sz4RYmcXUK_GPdQ,LINES AREA  JACOB LINE,Shaukat Medical Store,24.8680618,67.0356503,OPERATIONAL,"pharmacy, point_of_interest, health, store, establishment"
ChIJj0TcbfE_sz4RAwGrg9LekMM,LINES AREA  JACOB LINE,New Khan Medical Store and general store,24.8664737,67.0341283,OPERATIONAL,"pharmacy, point_of_interest, health, store, establishment"
ChIJfzqVHo4_sz4R4pjkTpOvmxc,LASBELA,Muneera Medical Store,24.8853689,67.029897,OPERATIONAL,"pharmacy, point_of_interest, store, health, establishment"
ChIJkajm_nU_sz4RYLc_0pytK04,LASBELA,Mohammed garden,24.8856262,67.0325379,OPERATIONAL,"pharmacy, point_of_interest, store, health, establishment"
ChIJd9E1Kcs_sz4RfZWoONcACf0,SOLDIER BAZAR,Time Medical & super store,24.8774802,67.034696,OPERATIONAL,"pharmacy, point_of_interest, store, health, establishment"
ChIJ5WPyA-U_sz4RxNAOjMwypUw,SOLDIER BAZAR,Discount Medical & General Store,24.8771246,67.034796,OPERATIONAL,"pharmacy, point_of_interest, store, health, establishment"
ChIJFaz97cA_sz4RBnD0JLu5hC8,LASBELA,Prince Medical and general store,24.8864948,67.0292453,OPERATIONAL,"pharmacy, point_of_interest, store, health, establishment"
ChIJ62l9voQ-sz4RSBsXIHNgKHk,S.M.C.H.S.,TazaMart - Online Grocery Store,24.8601935,67.0571754,OPERATIONAL,"grocery_or_supermarket, pharmacy, supermarket, clothing_store, health, store, food, point_of_interest, establishment"
ChIJD6r54e4_sz4RhQNn_UU7pXY,LINES AREA  JACOB LINE,Farooqi Homeo Clinic,24.865519,67.037771,OPERATIONAL,"pharmacy, drugstore, health, store, point_of_interest, establishment"
ChIJuVUrP8c_sz4RZy-wJjrtVrk,CANTT. STATION,Heal The World Pakistan,24.8576679,67.0457609,OPERATIONAL,"pharmacy, health, store, point_of_interest, establishment"
ChIJS8_1g2U-sz4RWfLeZ8w4bKI,LINES AREA  JACOB LINE,Qalandari Dawakhana,24.864876,67.0349667,CLOSED_TEMPORARILY,"pharmacy, health, store, point_of_interest, establishment"
ChIJ89VV7uY_sz4Rsld4WgPHljQ,CANTT. STATION,Quality Surjicals,24.8576712,67.0338747,OPERATIONAL,"pharmacy, health, store, point_of_interest, establishment"
ChIJsamgEV4_sz4Rb9ODdJ9brjY,SADDAR,Medical/Surgical market,24.8580935,67.0333018,OPERATIONAL,"pharmacy, health, store, point_of_interest, establishment"
ChIJo_i_LAY_sz4RkGo8oRw1Srw,LINES AREA  JACOB LINE,ROYAL TRADERS,24.867152,67.0362417,OPERATIONAL,"pharmacy, health, store, point_of_interest, establishment"
ChIJg7BwmMY_sz4R7KmJi10QWhQ,LINES AREA  JACOB LINE,Amir General Store,24.8663553,67.034859,OPERATIONAL,"pharmacy, health, store, point_of_interest, establishment"
ChIJx3W18-Y_sz4RliaBL1Z4m4Q,LINES AREA  JACOB LINE,Qutib shahi dawakhana/Hearbal unani physiseation.,24.8658701,67.0338355,OPERATIONAL,"pharmacy, drugstore, health, store, point_of_interest, establishment"
ChIJs-wmcwA_sz4RB-1gGd3LjYw,NICVD,New Shoaib Medical Store Jinnah Hospital,24.8531007,67.0414477,OPERATIONAL,"pharmacy, health, store, point_of_interest, establishment"
ChIJs-w2Htc_sz4RhC98p7_umII,LINES AREA  JACOB LINE,Khan Medical Store,24.8695003,67.0369139,OPERATIONAL,"pharmacy, health, point_of_interest, store, establishment"
ChIJEckNmmE-sz4RfWQtL7jQGlo,LINES AREA  JACOB LINE,Ubaid Homeo Clinic,24.8698111,67.0441882,OPERATIONAL,"pharmacy, health, point_of_interest, store, establishment"
ChIJt2mGKho_sz4Rs1SNHjEo4XE,LINES AREA  JACOB LINE,Talal medical store,24.8718909,67.044262,CLOSED_TEMPORARILY,"pharmacy, health, point_of_interest, store, establishment"
ChIJfclfS2A-sz4RKi1cqLN2rZk,LINES AREA  JACOB LINE,AL_HADI MEDICAL STORE,24.8717817,67.0446075,OPERATIONAL,"pharmacy, health, point_of_interest, store, establishment"
ChIJ32p8E2A-sz4RtqYnDrZFR8Q,LINES AREA  JACOB LINE,Medical Shop,24.8735439,67.0451386,OPERATIONAL,"pharmacy, health, point_of_interest, store, establishment"
ChIJVY6VGWI-sz4Rv85k0yd3qS8,LINES AREA  JACOB LINE,Jahangir Medical,24.8684037,67.0452838,OPERATIONAL,"pharmacy, health, point_of_interest, store, establishment"
ChIJx3dIvrg_sz4RYMq_i9QqG28,LINES AREA  JACOB LINE,Al Khair Shifa Khana,24.8676281,67.0354382,OPERATIONAL,"pharmacy, health, point_of_interest, store, establishment"
ChIJXQlKn4c_sz4RRSsYpaSnKZw,LINES AREA  JACOB LINE,Darul shifa hakeem iqbal,24.8753926,67.0453545,OPERATIONAL,"drugstore, pharmacy, health, point_of_interest, store, establishment"
ChIJSUFqRuc_sz4R46x-ewzjQT0,JAMSHED ROAD & F.JINNH,Al farha chemist,24.8812827,67.0422944,OPERATIONAL,"pharmacy, health, store, point_of_interest, establishment"
ChIJpZbuFlk-sz4RN6W_eAfQ_Uk,JAMSHED ROAD & F.JINNH,Anis Medical Store,24.8814611,67.042466,OPERATIONAL,"pharmacy, health, store, point_of_interest, establishment"
ChIJ5bcDPUM-sz4RRHSdGFcrW04,SOLDIER BAZAR,Raza Brothers Medical & General Store,24.8785885,67.0368927,OPERATIONAL,"pharmacy, health, store, point_of_interest, establishment"
ChIJw6nEnZc_sz4Rv3VWGHhhjdg,PATEL PARA,Azad medical store,24.8852326,67.0404614,OPERATIONAL,"pharmacy, health, store, point_of_interest, establishment"
ChIJX7jBaJ0_sz4RoDOs8SCBlIg,PATEL PARA,SaHibzada Medical Store,24.8849625,67.0371214,OPERATIONAL,"pharmacy, health, store, point_of_interest, establishment"
ChIJDyTQDlA-sz4Rn5NqDkw3C-A,LASBELA,Sana Medical,24.884614,67.03552,OPERATIONAL,"pharmacy, health, store, point_of_interest, establishment"
ChIJ11gMdAA_sz4RXtheJk6E7nA,PATEL PARA,??? ???? ?????? ?????,24.8882139,67.0383053,OPERATIONAL,"pharmacy, health, store, point_of_interest, establishment"
ChIJnc-_jDY_sz4RnwOnr2mnilM,JAMSHED ROAD & F.JINNH,MashaAllah medical,24.8862723,67.0475459,OPERATIONAL,"pharmacy, health, store, point_of_interest, establishment"
ChIJhbd8Gg4_sz4RdVFXrueR3RI,P.I.B.COLONY,Al-Shifa Medical Store,24.8926066,67.0450852,OPERATIONAL,"pharmacy, point_of_interest, health, store, establishment"
ChIJi6WtRJ8_sz4RYE9to3QToqg,P.I.B.COLONY,Rizwan Medical Store,24.8926066,67.0450852,OPERATIONAL,"pharmacy, point_of_interest, health, store, establishment"
ChIJ_YUcGQA_sz4RuasLKB4mcow,LASBELA,ANIS MEDICAL STORE,24.8875887,67.0329355,OPERATIONAL,"pharmacy, point_of_interest, health, store, establishment"
ChIJgYYsWa8_sz4RgshOZMgAobc,LASBELA,SHIFA MEDICAL STORE,24.8878128,67.0326787,OPERATIONAL,"pharmacy, point_of_interest, health, store, establishment"
ChIJabLseCg8sz4RTgWaipMletc,CHANASAR HALT,MODERN HOMOEO CLINIC,24.8519541,67.0582771,OPERATIONAL,"drugstore, pharmacy, health, point_of_interest, store, establishment"
ChIJ3WSihIw9sz4Rmc_ZFU7sbtc,KALAPUL,THO & DHO OFFICE,24.8499206,67.049719,OPERATIONAL,"pharmacy, health, point_of_interest, store, establishment"
ChIJ067DOPM9sz4R6A1nl8iCl0U,CHANASAR HALT,Shafqat medical store,24.8526544,67.0602494,OPERATIONAL,"pharmacy, health, point_of_interest, store, establishment"
ChIJq6qa6e4-sz4RdxmNifrOn94,SHARFABAD & T.V STATIO,SPAR Sharfabad,24.8849154,67.0627465,OPERATIONAL,"supermarket, pharmacy, grocery_or_supermarket, food, point_of_interest, store, health, establishment"
ChIJ68GhzMc_sz4R6vl092SpOXE,P.E.C.H.S.,Adviyat Pakistan,24.8723026,67.0540063,OPERATIONAL,"pharmacy, point_of_interest, store, health, establishment"
ChIJ63YxbRk_sz4Ri5Bfqv15ee8,P.E.C.H.S.,Medicare Products Pakistan,24.8736029,67.0539835,OPERATIONAL,"pharmacy, point_of_interest, store, health, establishment"
ChIJDX7EgOM_sz4RJAkFdXhmn6o,JAMSHED ROAD & F.JINNH,DR SAMI HOMEO CLINIC,24.884119,67.0500647,OPERATIONAL,"pharmacy, drugstore, point_of_interest, health, store, establishment"
ChIJU33sdvM-sz4RgqF_Gacd9oE,P.E.C.H.S.,mas distributor,24.8784057,67.0534776,OPERATIONAL,"pharmacy, point_of_interest, health, store, establishment"
ChIJD2a9vhY_sz4RKV97cQ9g5oY,JAMSHED ROAD & F.JINNH,Siddiq Medical Store,24.884903,67.0515404,OPERATIONAL,"pharmacy, point_of_interest, health, store, establishment"
ChIJP_9nYIg_sz4Ru-7J7Nw42Mg,JAMSHED ROAD & F.JINNH,Dada/Nana Home,24.8841707,67.0539205,OPERATIONAL,"pharmacy, point_of_interest, health, store, establishment"
ChIJbQzQp_A-sz4RF3NPZ2QPV2o,MARTIN QUATER,Life Discount Medical Store,24.8870109,67.0525505,OPERATIONAL,"pharmacy, point_of_interest, health, store, establishment"
ChIJW9dQ-vs-sz4RUQrbWfr-L18,P.I.B.COLONY,Central Medical Store & Clinic,24.8921098,67.0529769,OPERATIONAL,"pharmacy, health, point_of_interest, store, establishment"
ChIJ5Twn8_s-sz4RoOutD_XHx_U,P.I.B.COLONY,Medical Store,24.8926044,67.0542611,OPERATIONAL,"pharmacy, health, point_of_interest, store, establishment"
ChIJM7veQPw-sz4R_7l0rwqsML8,P.I.B.COLONY,Muslim Khatri Medical Store,24.894485,67.0541065,OPERATIONAL,"pharmacy, health, point_of_interest, store, establishment"
ChIJMXY6E_s-sz4R0iKBqEbW7jM,P.I.B.COLONY,Noor Medical Store,24.8918268,67.0564464,OPERATIONAL,"pharmacy, health, point_of_interest, store, establishment"
ChIJ81n-Cwg_sz4RpjzJ5t6PcbY,P.I.B.COLONY,Mashallah Medical & General Store,24.8942284,67.0553792,OPERATIONAL,"pharmacy, health, point_of_interest, store, establishment"
ChIJk_Hrqj89sz4RysBBIsrNBHY,CHANASAR HALT,Darul Shifa,24.8516446,67.0656112,OPERATIONAL,"pharmacy, point_of_interest, store, health, establishment"
ChIJp7zsMg49sz4RMaJm1kTuKsE,CHANASAR HALT,Inaya Homoeopathic Clinic,24.8540089,67.0646359,OPERATIONAL,"drugstore, pharmacy, point_of_interest, store, health, establishment"
ChIJ-a_KMB09sz4RUwx3M5mTOCA,CHANASAR HALT,Sooper & Sons,24.8537742,67.0648834,OPERATIONAL,"pharmacy, point_of_interest, store, health, establishment"
ChIJv5QotxU_sz4R3CrCua2O4x8,CHANASAR HALT,RIMS Trauma Hospital,24.8570653,67.0611643,OPERATIONAL,"pharmacy, hospital, point_of_interest, store, health, establishment"
ChIJQcUrA_4_sz4RygF_fQ5utks,MEHMOODABAD # 12345,Abdul Sattar Medical Store,24.8565036,67.0664557,OPERATIONAL,"pharmacy, point_of_interest, store, health, establishment"
ChIJr0f3k5s-sz4RL3VvSVx8rQc,P.E.C.H.S.,Noorani General & Medical Store,24.8616374,67.0625956,OPERATIONAL,"pharmacy, food, health, point_of_interest, store, establishment"
ChIJN74aCAA_sz4RIQ8WNqs3l5A,S.M.C.H.S.,Dawaai,24.8613563,67.0569471,OPERATIONAL,"pharmacy, health, point_of_interest, store, establishment"
ChIJl3lvW4Q-sz4RcwvpssKDBKI,S.M.C.H.S.,Gulistan Medical and General Store,24.8609487,67.0548749,OPERATIONAL,"pharmacy, food, health, point_of_interest, store, establishment"
ChIJAb0wt4U-sz4R6n2GrSRkOto,S.M.C.H.S.,INDUS Medical & General Store,24.862641,67.0542353,OPERATIONAL,"pharmacy, health, point_of_interest, store, establishment"
ChIJbUfxlI8-sz4RyG2UjFzyobo,P.E.C.H.S.,Dawakhana Hakeem Suleman,24.8664218,67.0567256,OPERATIONAL,"pharmacy, health, point_of_interest, store, establishment"
ChIJywsoNJ4-sz4RpSRc4edp5cA,CHANASAR HALT,Isani Medical Store,24.8571161,67.0671396,OPERATIONAL,"pharmacy, health, point_of_interest, store, establishment"
ChIJJzyQs2c_sz4R8fejhvq61K4,CHANASAR HALT,Skin Whitening Pk,24.8572615,67.0676029,OPERATIONAL,"pharmacy, health, point_of_interest, store, establishment"
ChIJZ8Jz8wI_sz4ROhb9MaAarLE,P.E.C.H.S.,Vision Aid,24.8715217,67.0601515,OPERATIONAL,"pharmacy, point_of_interest, health, store, establishment"
ChIJdaacGpI-sz4RbkqilRvtjX4,P.E.C.H.S.,Agha Medical and General Store,24.8718039,67.0592728,OPERATIONAL,"pharmacy, point_of_interest, health, store, establishment"
ChIJsZzOuJA_sz4Ro2UVjas9f-c,P.E.C.H.S.,Rafi Mansion,24.8721823,67.0596016,OPERATIONAL,"pharmacy, point_of_interest, health, store, establishment"
ChIJJ02fnLk_sz4Rbi36EJu9aEM,P.E.C.H.S.,Chishti Medical Store,24.8715229,67.0587788,OPERATIONAL,"pharmacy, point_of_interest, health, store, establishment"
ChIJ0wwxCwA_sz4RS6JIb0zRDuo,HILL PARK,SK Medical & General Store,24.8765179,67.0661896,OPERATIONAL,"pharmacy, point_of_interest, health, store, establishment"
ChIJPdshs2s_sz4RIDfB0dqqTQ0,HILL PARK,Bismillah medical store,24.8763651,67.0664227,OPERATIONAL,"pharmacy, point_of_interest, health, store, establishment"
ChIJT6CMYFE_sz4Ru0HNxOnCFvQ,P.E.C.H.S.,Orah Life,24.881783,67.0607993,OPERATIONAL,"pharmacy, point_of_interest, health, store, establishment"
ChIJBfdyRBY_sz4R_GPWgfVC--A,BHADURABAD,Supermed,24.880275,67.0645963,OPERATIONAL,"pharmacy, point_of_interest, health, store, establishment"
ChIJ94wbdhY_sz4R9-OhjElAsB8,SHARFABAD & T.V STATIO,Tariq Medical store,24.8864701,67.0584719,OPERATIONAL,"pharmacy, point_of_interest, health, store, establishment"
ChIJv3oKzOs-sz4RjAHGFB1-w-Y,BHADURABAD,Boat Sons Medical Store,24.8826711,67.0670168,OPERATIONAL,"pharmacy, point_of_interest, health, store, establishment"
ChIJrWUJqBw_sz4R9y8fm-GE5_Q,P.I.B.COLONY,Intizar Gaah,24.8891769,67.0591255,OPERATIONAL,"pharmacy, health, store, point_of_interest, establishment"
ChIJaSwUogA_sz4RCQpw8p7PQNg,CHANDNI CHOWK,Ghazibrothers,24.8922145,67.0641828,OPERATIONAL,"pharmacy, health, store, point_of_interest, establishment"
ChIJt-ID8_w-sz4RdCA78KxCl1U,P.I.B.COLONY,Qamar Medical Store,24.8946797,67.0559335,OPERATIONAL,"pharmacy, health, store, point_of_interest, establishment"
ChIJxYlB4fw-sz4RyH_8-Dl8xws,OLD SUBZI MANDI,Zam Zam Medical Store,24.8957619,67.0565823,OPERATIONAL,"pharmacy, health, store, point_of_interest, establishment"
ChIJ_bndl-M_sz4RdRQWCg_EoOc,P.I.B.COLONY,Farid Medical And General Store,24.8954853,67.0558055,OPERATIONAL,"pharmacy, health, store, point_of_interest, establishment"
ChIJIUd39-I-sz4R_0qiVra1L4A,OLD SUBZI MANDI,Haroon Medical store,24.8975147,67.0611439,OPERATIONAL,"pharmacy, health, store, point_of_interest, establishment"
ChIJie_nY8Q9sz4R8iY62k5s5ZM,AZAM BASTI,Prince Medical And General Store,24.8437081,67.0713904,OPERATIONAL,"pharmacy, health, store, point_of_interest, establishment"
ChIJA6rENxE9sz4RAwbXSKQPa_I,AZAM BASTI,Asif Medical And General Store,24.8445288,67.0710176,OPERATIONAL,"pharmacy, health, store, point_of_interest, establishment"
ChIJVx9ReSY9sz4RZFCTpceFeW8,DEFENCE MARKET,Wajid medical store,24.8389982,67.0664214,OPERATIONAL,"pharmacy, health, store, point_of_interest, establishment"
ChIJdd4OmeQ9sz4RHgBl_5n_bJs,AZAM BASTI,B.s medical,24.8449824,67.0683548,OPERATIONAL,"pharmacy, health, store, point_of_interest, establishment"
ChIJK0JUiBc8sz4Rdq3lHHRM_lY,AZAM BASTI,Saif Sattari Medical Store,24.845221,67.0723154,OPERATIONAL,"pharmacy, health, store, point_of_interest, establishment"
ChIJkdrMIRc8sz4R_8yVR49giIU,AKHTER COLONY,Ashok Care Centre,24.8432077,67.074978,OPERATIONAL,"pharmacy, health, store, point_of_interest, establishment"
ChIJq7B0F5s9sz4RZMRfnKPHXgk,AKHTER COLONY,FAREED CLINIC,24.837153,67.0737092,OPERATIONAL,"pharmacy, drugstore, health, store, point_of_interest, establishment"
ChIJnesCixE9sz4RWTclkKT4gH8,AKHTER COLONY,Makka Medical & General Store,24.8376103,67.0745155,OPERATIONAL,"pharmacy, health, store, point_of_interest, establishment"
ChIJ_xdPKlA9sz4RlH1uA1NCAfk,AZAM BASTI,Haris Sattari Medical & General Store,24.8459672,67.0704814,OPERATIONAL,"pharmacy, health, store, point_of_interest, establishment"
ChIJeYXbLng9sz4Rp6fyKrF_bHI,AKHTER COLONY,Al Rehman medical store,24.8366712,67.074395,OPERATIONAL,"pharmacy, health, store, point_of_interest, establishment"
ChIJXYlg8xM8sz4REK6xF2AUWYk,KASHMIER COLONY,Bilal Medical & general Store,24.8391596,67.0766318,OPERATIONAL,"pharmacy, health, store, point_of_interest, establishment"
ChIJZ1iP7BQ8sz4RGx-MgajpV-w,AKHTER COLONY,Al- Shifa Medical and General Store,24.836334,67.0745979,OPERATIONAL,"pharmacy, health, store, point_of_interest, establishment"
ChIJMf3IJAA9sz4RV_SpoWBKPYs,AZAM BASTI,Al khair medical and general store,24.8505796,67.0735463,OPERATIONAL,"pharmacy, health, point_of_interest, store, establishment"
ChIJY3gCMxk8sz4Rd70y72bJWYo,AZAM BASTI,Madina Medical & General Store,24.8511101,67.0741119,OPERATIONAL,"pharmacy, health, point_of_interest, store, establishment"
ChIJI_YEVBk9sz4RqMj1oEozpGs,AZAM BASTI,Asim Medical Store,24.8469422,67.0732316,OPERATIONAL,"pharmacy, health, point_of_interest, store, establishment"
ChIJP5APOog9sz4RaaAlFfSquzY,AZAM BASTI,Uzma Medical and General store,24.8469037,67.0733887,OPERATIONAL,"pharmacy, health, point_of_interest, store, establishment"
ChIJFQaSX0Q_sz4RAfVr61tpY5o,BALOCH COLONY,SummerHill,24.862485,67.0726163,OPERATIONAL,"pharmacy, health, store, point_of_interest, establishment"
ChIJIQ-LaaM-sz4RAw3UqMPMyFE,HILL PARK,New Decent Medical Store,24.8667342,67.0751375,OPERATIONAL,"pharmacy, health, store, point_of_interest, establishment"
ChIJg8LPfh48sz4RyrXlbIJFqxE,MEHMOODABAD # 12345,Nouman Medical Store,24.8546728,67.0758728,OPERATIONAL,"pharmacy, health, store, point_of_interest, establishment"
ChIJ5zbwfh48sz4RmAfc_ENT0CU,MEHMOODABAD # 12345,Eastern Chemist,24.8545657,67.076011,OPERATIONAL,"pharmacy, health, store, point_of_interest, establishment"
ChIJ64Ug0h08sz4R6YqWaGJpH2s,MEHMOODABAD # 12345,Bismillah Medical & General Store,24.8549423,67.077109,OPERATIONAL,"pharmacy, health, store, point_of_interest, establishment"
ChIJXfqwfsg-sz4RSKgEKTKx5VI,DHORAJI,Tabba Heart Institute's Lab Collection Unit - Adamjee Nagar,24.8831277,67.0824625,OPERATIONAL,"pharmacy, point_of_interest, store, health, establishment"
ChIJ3-CYe4c_sz4RAgB39C04WMo,BHADURABAD,Dr. Sohail muhammadi homeopathic clinic,24.8776702,67.0716941,OPERATIONAL,"drugstore, pharmacy, point_of_interest, store, health, establishment"
ChIJNU3MsvA_sz4RDqmgzBOOT4I,BHADURABAD,Imtiaz Supermarket,24.8830935,67.0703811,OPERATIONAL,"department_store, pharmacy, health, store, point_of_interest, establishment"
ChIJbx7Uv-0_sz4RYQiE2qZzQJo,SHARFABAD & T.V STATIO,Imtiaz Xpress,24.8863801,67.0660649,OPERATIONAL,"department_store, pharmacy, health, store, point_of_interest, establishment"
ChIJf_RN9-g-sz4R81s1vnqk55w,BHADURABAD,Bilal Medical & General Store,24.8871686,67.0670364,OPERATIONAL,"pharmacy, health, store, food, point_of_interest, establishment"
ChIJ_RssteM4sz4RFN6IUh5mOkM,GULISTAN-E-JOHAR,"LNH Medical Services, Gulistan-e-Jauhar",24.9127815,67.1255571,OPERATIONAL,"hospital, pharmacy, health, store, point_of_interest, establishment"
ChIJha8fF4o5sz4RQigI84gt0Co,SAFOORA GOTH,Al-Mudavee Health Services,24.9477427,67.1322514,OPERATIONAL,"pharmacy, hospital, health, store, point_of_interest, establishment"
ChIJe2Dq1_84sz4R71BVKyyKPjw,GULISTAN-E-JOHAR,PRF MEDICAL CENTER,24.9122997,67.139607,OPERATIONAL,"hospital, pharmacy, health, store, point_of_interest, establishment"
ChIJddLzIJw5sz4Rh6D4UZpaBcg,SHAH FAISAL 12345,"LNH Medical Services, Shah Faisal Colony",24.8851761,67.1462274,OPERATIONAL,"hospital, pharmacy, health, point_of_interest, store, establishment"
ChIJs0g7iuU5sz4RNYXG-cZWjpw,SAFOORA GOTH,Samdani Emergency Medical Centre (SEMC),24.9402427,67.1562455,OPERATIONAL,"pharmacy, hospital, health, store, point_of_interest, establishment"
ChIJ83O7jGkxsz4RlPMu7GhbhWQ,QUAIDABAD,Masha allah medical store,24.8555061,67.2409921,OPERATIONAL,"pharmacy, hospital, health, point_of_interest, store, establishment"
ChIJAX4xVys5sz4RjZIqmBNGBR4,GULISTAN-E-JOHAR,Dr. Ali Nafees Homeopathic Clinic,24.9202097,67.1359036,OPERATIONAL,"pharmacy, drugstore, doctor, health, point_of_interest, store, establishment"
,,,,,,
ChIJBcFNQAAXsz4RCKUwcA9cbtQ,,Abu zaid medical and general store,24.8241657,66.9788917,OPERATIONAL,"hospital, point_of_interest, health, establishment"
ChIJ0TO5Zv89sz4RjXLOGbUeX1w,,Haris Medical And General Store,24.8212002,67.0067884,OPERATIONAL,"doctor, health, point_of_interest, establishment"
ChIJbSnU1N8_sz4RdgkaB8fu-iA,METROVILLA 1.2.3,Ather Medical and General Strore,24.9198881,67.0006213,OPERATIONAL,"hospital, health, point_of_interest, establishment"
ChIJpQ5zDwBBsz4RSJo6PZfMY3I,M.P.R COLONY + PIRABAD,Atif Medical And General Store Mpr Colony,24.950116,67.02358,OPERATIONAL,"hospital, health, point_of_interest, establishment"
ChIJT3nI0a1Bsz4Rq5kHW4u0Z24,NORTH KARACHI,M. Abbas medical and general store,24.9843169,67.0494953,OPERATIONAL,"hospital, health, point_of_interest, establishment"
ChIJo2ykVrM7sz4Rj8BJVTBqBuY,KORANGI # 6,Ayesha Medical And General Store,24.8303856,67.1114852,OPERATIONAL,"hospital, health, point_of_interest, establishment"
ChIJAQywh-Y7sz4RUNdsuZOIYfc,BILAL COLONY,M.A MEDICAL AND GENERAL STORE,24.8493783,67.1355202,OPERATIONAL,"hospital, health, point_of_interest, establishment"
ChIJyTz_NdA7sz4R5sSy7USo4a0,BILAL COLONY,Ahmed Shah Medical And General Store,24.856471,67.1325991,OPERATIONAL,"hospital, health, point_of_interest, establishment"
ChIJ05TdMvE4sz4RhiOhwup24lk,GULISTAN-E-JOHAR,Naseem Medical And General Store,24.9262901,67.1358411,OPERATIONAL,"hospital, health, point_of_interest, establishment"
ChIJJUKUHVw3sz4ROnASDFAttRI,JINNAH SQUARE,Shakeel Medical And General Store,24.8941493,67.1954834,OPERATIONAL,"hospital, health, point_of_interest, establishment"
,,,,,,
ChIJo5KV50YXsz4RQ5-NIEslwYk,,Jadoon Medical Store,24.8220769,66.99466,OPERATIONAL,"hospital, point_of_interest, health, establishment"
ChIJxQIj8Dc9sz4R8c5rcsEgFgQ,,KK MEDICAL STORE,24.8184596,66.9995405,OPERATIONAL,"hospital, point_of_interest, health, establishment"
ChIJh5ajKTkVsz4R3Cr3xM6sDlc,BALDIA TOWN,AL HAMMAD MEDICAL STORE,24.913515,66.9717751,OPERATIONAL,"hospital, health, store, point_of_interest, establishment"
ChIJA0qnaQAVsz4R0z9IsZiUWrA,RASHEEDABAD,Aqsa medical store,24.9108024,66.9776547,OPERATIONAL,"hospital, health, point_of_interest, establishment"
ChIJEQXnr9kVsz4R7xLLLJVCOwQ,HAROONABAD,Smart medical store,24.8964907,66.9955102,OPERATIONAL,"hospital, health, point_of_interest, establishment"
ChIJff8yFQBBsz4RoxsqyEKcfwc,M.P.R COLONY + PIRABAD,ASHFAQ MEDICAL STORE M P R ROAD ORANGI TOWN KARACHI.,24.9507246,67.0235647,OPERATIONAL,"hospital, health, point_of_interest, establishment"
ChIJ5S_1ctxBsz4Rc19Zz5eS6SI,PAHAR GUNJ,AL Shifa medical store,24.9395886,67.0299465,OPERATIONAL,"hospital, health, point_of_interest, establishment"
ChIJkSSFTWlBsz4REvKLO4sGKV8,NUSRAT BHUTTO COLONY,Hadi Medical Store,24.9616671,67.0463395,OPERATIONAL,"hospital, health, point_of_interest, establishment"
ChIJk01R2JZAsz4R_a2WkHvXEOk,BUFFER ZONE,Syed Medical Store,24.9591656,67.0652179,OPERATIONAL,"hospital, health, point_of_interest, establishment"
ChIJFXJmKcVBsz4RgOY_ebM7_VQ,NEW KARACHI,Arham Medical Store,24.992219,67.065807,OPERATIONAL,"hospital, health, point_of_interest, establishment"
ChIJr9emYwBBsz4RX6wMYE6lWdM,ANCHOLI BLOCK1720,Maryam Medical Store,24.9475235,67.0784094,OPERATIONAL,"hospital, health, point_of_interest, establishment"
ChIJtQ9u_rBBsz4RabX6X0O-PzA,GOHDRA CAMP,Ali medical store,24.9708997,67.0803798,OPERATIONAL,"hospital, health, point_of_interest, establishment"
ChIJs322O5dBsz4RSQaydlZPxTQ,NEW KARACHI,Mashallah medical store,25.0025157,67.0889859,OPERATIONAL,"hospital, health, point_of_interest, establishment"
ChIJz0W_5cZHsz4R_GOdJ8H_R-A,MAMAR COMPLEX,Muzamil Medical Store,25.0041025,67.1045473,OPERATIONAL,"hospital, health, point_of_interest, establishment"
ChIJ5xFmZUdHsz4RuxaTs0F_Nw8,MAMAR COMPLEX,SOHAIL MEDICAL STORE,25.0004977,67.1107595,OPERATIONAL,"hospital, health, point_of_interest, establishment"
ChIJH2YqXtAVsz4R_gMzZIwrdfU,BALDIA TOWN,Javaid medical store,24.9130477,66.965015,OPERATIONAL,"doctor, health, point_of_interest, establishment"
ChIJt5eeXPxBsz4R60avnFsIHVU,NEW KARACHI,Malik Asghar General Medical Store,24.9929958,67.0605377,OPERATIONAL,"doctor, health, point_of_interest, establishment"
ChIJ_9Faoyk_sz4RFfa3Mau1ayw,LIAQUATABAD # 5678910,AMIR MEDICAL STORE,24.9074727,67.0589941,OPERATIONAL,"doctor, health, point_of_interest, establishment"
ChIJux-4g1w_sz4RbP0l_sXETHM,P.E.C.H.S.,JALIL MEDICAL STORE,24.8741841,67.0567803,OPERATIONAL,"hospital, health, point_of_interest, establishment"
ChIJrQUcUgA5sz4RKKmVGIid3Wg,UNIVERSITY ROAD,CITY MEDICAL STORE,24.9399934,67.1026412,OPERATIONAL,"hospital, health, point_of_interest, establishment"
ChIJyb5tGXs5sz4ReG05DaHgo1M,SHAH FAISAL 12345,Haque Medical Store,24.8740433,67.1316511,OPERATIONAL,"hospital, health, point_of_interest, establishment"
ChIJt2ZPYuY5sz4R6paqQaKvjsk,SHAH FAISAL 12345,Shahid Medical Store,24.8724746,67.1323858,OPERATIONAL,"hospital, health, point_of_interest, establishment"
ChIJS5b8nHw5sz4RnEabycu0DrM,DRIGH ROAD CANTT BAZA,Sajid Medical Store,24.8850882,67.1279354,OPERATIONAL,"hospital, health, point_of_interest, establishment"
ChIJ1eYoUHI5sz4RY6KGz3N5TAY,DRIGH ROAD CANTT BAZA,Ideal Medical Store,24.8851555,67.1322659,OPERATIONAL,"hospital, health, point_of_interest, establishment"
ChIJUS-jsOY5sz4RMkVCIa73yVM,GULISTAN-E-JOHAR,Raza Medical Store Wholesale,24.9116533,67.1265612,OPERATIONAL,"hospital, health, point_of_interest, establishment"
ChIJUZO15eM7sz4Re4q-EHL51d8,IBRAHIM HAIDRY,SSk Medical Store,24.7994934,67.1349534,OPERATIONAL,"hospital, health, point_of_interest, establishment"
ChIJm8g-yl87sz4RQdgr_Px8x7I,BILAL COLONY,Usman medical store,24.8507735,67.137307,OPERATIONAL,"hospital, health, point_of_interest, establishment"
ChIJy0Q_csw7sz4RCydS9beFIEA,BILAL COLONY,Hikmat Medical Store,24.8508702,67.1375753,OPERATIONAL,"hospital, health, point_of_interest, establishment"
ChIJVW0KN847sz4Rv-7zlylMLM4,BILAL COLONY,ZAFAR MEDICAl STORE,24.8540014,67.1334802,OPERATIONAL,"hospital, health, point_of_interest, establishment"
ChIJu_EB8U47sz4RjMA-YyzK7CQ,BILAL COLONY,Aahil medical store,24.8580582,67.1506303,OPERATIONAL,"hospital, health, point_of_interest, establishment"
