Place ID,Brick Name,Business Name,Latitude,Longitude,Type,Status,Address,Rating,User Ratings
ChIJoe65LJYpGTkROTsCBboot_E,LIBERTY MARKET,Ahsan Surgical Center,31.9813125,74.22156249999999,hospital,OPERATIONAL,"New Model Town Madni Street New Model Town, Kāmoke",5.0,4
ChIJA2pxiDgpGTkRYrB55RtfV9Q,LIBERTY MARKET,Dr Abdullah sajid Pulmonologist,31.9749452,74.223984,hospital,OPERATIONAL,"Pasban medical center, Alamgir Road، Kāmoke",5.0,8
ChIJuay3KXApGTkRa4yQXUmuEEI,LIBERTY MARKET,Ali Family care hospital,31.9683719,74.2279689,hospital,OPERATIONAL,"X69H+85X, Sabzi Mandi Link Rd, Kāmoke",0.0,0
ChIJX_s2IPUpGTkR2WAX33RJ-Bc,LIBERTY MARKET,Al Falah Gyne Clinic,31.9792898,74.2316326,hospital,OPERATIONAL,"Mohallah Salamat Pura, Harrar Road, near Imam Bargha Jafria, Kāmoke",0.0,0
ChIJg_rEdeYpGTkRRR16Eu4QxAk,LIBERTY MARKET,Ayesha Clinic,31.97595429999999,74.2276657,hospital,OPERATIONAL,"X6GH+93M, Kāmoke",5.0,3
ChIJO9o2BeIpGTkRvcbpgD3PC4c,LIBERTY MARKET,Shamas Clinic,31.9755104,74.2186565,hospital,OPERATIONAL,"X6G9+6F3, Kāmoke",0.0,0
ChIJqxBZBOQpGTkR-0Ns1joarrI,LIBERTY MARKET,Public Pharmacy kamonke,31.975377,74.2254312,hospital,OPERATIONAL,"Tipu Bazaar, Kāmoke",5.0,1
ChIJcTocM-EpGTkRd2ajXk5Ayac,LIBERTY MARKET,Asad Medical Centre,31.9734607,74.2237675,hospital,OPERATIONAL,"X6FF+9GJ, Mandiala Rd, Kāmoke",3.5,2
ChIJFYPHydgpGTkR53iDPt7fl9s,LIBERTY MARKET,Fatima Minhaj Medical Center,31.9712674,74.2288599,hospital,OPERATIONAL,"1 Mandiala Rd, near Railway Phatak, Kāmoke",5.0,1
ChIJ89h0fwApGTkRHAoIanTpuO8,LIBERTY MARKET,The Medicare laboratory,31.9649395,74.2333395,hospital,OPERATIONAL,"X67M+X8G, Tibba Muhammad Nagar, Kāmoke",0.0,0
ChIJKer2l-QpGTkRteRMvFHF40g,LIBERTY MARKET,Al-Murad Homoeo Clinic,31.969431,74.2228993,doctor,OPERATIONAL,"Street # 3 Virk Town, GT Rd, Kāmoke",5.0,3
ChIJj7Bo4fYpGTkRpYNJhVzz9MQ,LIBERTY MARKET,Dr Aafiya Clinic,31.9684106,74.2183384,doctor,OPERATIONAL,"X699+989, Kāmoke",5.0,1
ChIJkT4PoZApGTkRVwrVhZEyaeA,LIBERTY MARKET,New Madina Pharmacy,31.9679081,74.2248469,pharmacy,OPERATIONAL,"Sheesh Mahal Rd, Kāmoke",5.0,2
ChIJ0_CNRlApGTkRFJF0KYBoQ0M,LIBERTY MARKET,Neo Bilal Medical store,31.9663454,74.21848279999999,pharmacy,OPERATIONAL,"Bilal park tolyki road, Kāmoke",0.0,0
ChIJD_a5y_spGTkR0kpWhQkbFjY,LIBERTY MARKET,Umer pharmcy,31.9671897,74.2197632,pharmacy,OPERATIONAL,"PLUS 2, Bilal Park،",4.3,3
ChIJIxpdKOEpGTkR37VsL2b-k6U,LIBERTY MARKET,Ashraf plus pharmacy,31.9624043,74.2221845,pharmacy,OPERATIONAL,"X67C+CQX, Kāmoke",4.5,6
ChIJPfNMR98pGTkRhHafCx7wCKE,LIBERTY MARKET,Nazeer Medical Store,31.9648874,74.2193733,pharmacy,OPERATIONAL,"X679+XP4, Kāmoke",0.0,0
ChIJdZVuGQApGTkRfap9hoHt3Lo,LIBERTY MARKET,Life plus pharmacy,31.9628006,74.21886839999999,pharmacy,OPERATIONAL,"X679+4G9, Tanki Wala Rd, Kāmoke",0.0,0
ChIJ4VDpvAopGTkRu6sKcaAcRvg,LIBERTY MARKET,Ahmad Medical Store,31.9683073,74.2183577,pharmacy,OPERATIONAL,"X699+88H, Unnamed Road, Kāmoke",3.3,3
ChIJveHsPwApGTkRcmzh8B5QtHk,LIBERTY MARKET,Anmol Medical Store,31.9614009,74.2187043,pharmacy,OPERATIONAL,"X669+HF4, Haidry baazar, sharif Pura Kāmoke",0.0,0
ChIJS3ubnRrXGDkR4hC-pEJshGc,LIBERTY MARKET,Javed medical store,31.9652527,74.2155816,pharmacy,OPERATIONAL,"toleky road, Kāmoke",5.0,2
ChIJpYgCEwApGTkRxKZnpx_eiD0,LIBERTY MARKET,Asghar medical & general store,31.9596586,74.2212826,pharmacy,OPERATIONAL,"X65C+VG7, Kāmoke",0.0,0
ChIJvxFL7ZjXGDkRiNry17nTA3k,LIBERTY MARKET,Medsense Pharmacy,31.9691114,74.2140046,pharmacy,OPERATIONAL,"Toleki Road, Dera Ameer Afzal, Muhallah Bilal Park, Dera Ameer Afzal Bilal Park, Kāmoke",5.0,7
ChIJb6mZKAApGTkRYp7FIdkVrJg,LIBERTY MARKET,Dr.Imran,31.96520959999999,74.2205907,pharmacy,OPERATIONAL,"X68C+36P, fasial town, Kāmoke",0.0,0
ChIJL9L0j7MpGTkRz2SPC_fTJv8,LIBERTY MARKET,Iftikhar Pharamacy,31.9687475,74.2196033,pharmacy,OPERATIONAL,"Faisal town, Kāmoke",0.0,0
ChIJnxSkBf4pGTkRNcQ1lZElkps,LIBERTY MARKET,Razia Shafi Critical Care Medical Centre,31.9861537,74.21984789999999,hospital,OPERATIONAL,"X6P9+7X2, Service Rd, Pak Town, Kāmoke",3.9,21
ChIJ8RzvidkpGTkRBJy2RzzQ4Qk,LIBERTY MARKET,Kamoki Family Hospital,31.9837258,74.21943449999999,hospital,OPERATIONAL,"GT road،, N-5 Mohalla Muslim Ganj, Kāmoke",5.0,3
ChIJYU1U1RApGTkRO2Gs1jIHmbo,LIBERTY MARKET,Muhammad Nazeer Hospital,31.9882484,74.219338,hospital,OPERATIONAL,"Main GT Rd, Pak Town Kāmoke",3.9,7
ChIJPQ35IgApGTkRdoxuhPfH34w,LIBERTY MARKET,Doctor's Hospital Kamoki,31.9872625,74.2197999,hospital,OPERATIONAL,"Main GT Rd, Pak Town, Kāmoke",5.0,13
ChIJKQNA9v0pGTkRJVcxWmiRIc0,LIBERTY MARKET,Rehman Clinic,31.9848921,74.2180272,hospital,OPERATIONAL,"Pak Town, Kāmoke",0.0,0
ChIJ2UuxDwApGTkRErvqITNQs9A,LIBERTY MARKET,THQ Hospital kamoke,31.9842375,74.2181094,hospital,OPERATIONAL,"X6M9+M6X, Kāmoke",5.0,1
ChIJJdBBt5QpGTkRl5znbxaJFXo,LIBERTY MARKET,Waseela Eye Hospital,31.9843925,74.22256759999999,hospital,OPERATIONAL,"X6MF+Q24, Al-Haj Ch Siddique Rd, New Model Town Madni Street Pak Town, Kāmoke",5.0,2
ChIJD8ymbsX9HjkRZ-SARYIpWqU,LIBERTY MARKET,Ahsas Clinic,31.9911262,74.2366163,doctor,OPERATIONAL,"Kassoki Road, Kot Rafique, Kāmoke",0.0,0
ChIJM7Z0VwDXGDkRZTWFVOQ-0Q4,LIBERTY MARKET,Ahmer Homoeopathic Clinic kamoke,31.9812553,74.2157257,doctor,OPERATIONAL,"X6J8+F7W, Kamoke Qila Didar Singh Rd, Mohalla Muslim Ganj, Kāmoke",0.0,0
ChIJpQq_WPkpGTkRkFGxAjO71V4,LIBERTY MARKET,Lasani Homoeopathic Clinic And Store,31.9784489,74.21948189999999,doctor,OPERATIONAL,"X6H9+9QQ Ghosia Chowk, School St, near Muslim Model, Mohalla Muslim Ganj, Kāmoke",5.0,1
ChIJ_aRDTFwpGTkRqf4A3bUHHVo,LIBERTY MARKET,Health inn Pharmacy,31.9780197,74.2193004,pharmacy,OPERATIONAL,"Kamoke - Tattle Aali Rd, Kāmoke",5.0,1
ChIJ40IRIogpGTkRDU70AIZU_eY,LIBERTY MARKET,SHARIF MEDICAL STORE,31.9921506,74.2371766,pharmacy,OPERATIONAL,"Kot Rafique, Kāmoke",2.0,2
ChIJA_1McALWGDkRcV8mb00NQLY,LIBERTY MARKET,Al-Shaikh Pharmacy,31.984518,74.2192322,pharmacy,OPERATIONAL,"X6M9+RM5, Satellite Town, Kāmoke",4.5,4
ChIJR8EEiKspGTkRsil_XNACqq4,LIBERTY MARKET,Jamal Plus Pharmacy,31.9832656,74.22037399999999,pharmacy,OPERATIONAL,"GT Rd, near NRSP Bank, Mohalla Muslim Ganj, Kāmoke",0.0,0
ChIJ1x4Dy6IpGTkR7JdjtpbfjoM,LIBERTY MARKET,Oxygen Pharmacy,31.9776941,74.22137029999999,pharmacy,OPERATIONAL,"X6HC+3GH, GT Rd, Mohalla Muslim Ganj, Kāmoke",3.4,7
ChIJKTKArS4pGTkR2tRMSW7vLXc,LIBERTY MARKET,ZAIN PHARMACY,31.9914485,74.2368532,pharmacy,OPERATIONAL,"X6RP+HRC, Eminabad Rd, Kāmoke",0.0,0
ChIJKYhvQG0pGTkR9dWDKjG1JzA,LIBERTY MARKET,Shafi Sons Pharmacy,31.9846181,74.2193613,pharmacy,OPERATIONAL,"Outside THQ Hospital, Pak Town, Kāmoke",0.0,0
ChIJ84Hq6Y4pGTkR2qksgs9ly6Q,LIBERTY MARKET,Subhan Medical Store,31.9809795,74.2314567,pharmacy,OPERATIONAL,"X6JJ+9HW, Kāmoke",5.0,1
ChIJDTCPxuMpGTkRQYECeCi5RAQ,LIBERTY MARKET,Virk Medical Store,31.9763445,74.22181010000001,pharmacy,OPERATIONAL,Kāmoke,0.0,0
ChIJW3gvXpUpGTkRs7dan1XOjh0,LIBERTY MARKET,Ashraf Sons Pharmacy-Kamoke,31.9849725,74.2201252,pharmacy,OPERATIONAL,"GT Rd, near Civil Hospital, Pak Town, Kāmoke",5.0,2
ChIJ8w5tiXQhGTkRSK5Nao3dAZ0,LIBERTY MARKET,Lasani pharmacy kamoke,31.9763224,74.22416609999999,pharmacy,OPERATIONAL,"Alamgir Road, Kāmoke",5.0,1
ChIJRTdJsfopGTkR41OS3fO90Q4,LIBERTY MARKET,Zain Pharmacy,31.9821364,74.2286075,pharmacy,OPERATIONAL,"X6JH+VC5, Line Paar Kasoki Road, Kāmoke",4.2,6
ChIJJVA3q8spGTkRbWr_28_-i4c,LIBERTY MARKET,Fazal Din Pharma Plus,31.977126,74.2222998,pharmacy,OPERATIONAL,Kāmoke,2.8,4
ChIJ2cbxDq4pGTkRYqw-Qx6ViWQ,LIBERTY MARKET,Ahmad medical store,31.9765048,74.2243173,pharmacy,OPERATIONAL,"X6GF+JP4, Main Bazar Kamoke, Kāmoke",4.5,2
ChIJD75VcN0pGTkRKZGd-gUHlOY,LIBERTY MARKET,Al Noor Pharmacy,31.9762507,74.2227386,pharmacy,OPERATIONAL,"X6GF+G35, Unnamed Road, Kāmoke",0.0,0
ChIJD_tkAuQpGTkRhw6Y7d1D3c0,LIBERTY MARKET,Hafiz Medical Store Tipu Bazar Kamonke,31.9755928,74.2242663,pharmacy,OPERATIONAL,"X6GF+6PJ, Tipu Bazaar, Kāmoke",4.0,1
ChIJO6-kVwApGTkRx257KaSfTfQ,LIBERTY MARKET,Data medical store,31.9762323,74.22412539999999,pharmacy,OPERATIONAL,"X6GF+FMR, Tipu Bazaar, Kāmoke",0.0,0
ChIJvb5QdjIpGTkR-p2NO8eYIRE,LIBERTY MARKET,umar,31.9765147,74.2220167,pharmacy,OPERATIONAL,"Ahmad Madical Store, Kāmoke",0.0,0
ChIJ7f7gdWcpGTkRoOxh8JjdjHg,LIBERTY MARKET,Dr M Rafiq Dental Clinic,31.97508729999999,74.2244578,dentist,OPERATIONAL,"X6GF+3Q4، Alamgir Road, Kāmoke",5.0,1
ChIJ_zKtiyEpGTkRH7UzD-lw-sE,LIBERTY MARKET,Dr Raheel yousaf,31.9820387,74.21864959999999,dentist,OPERATIONAL,"X6J9+RF6, Flour Mill St, Mohalla Muslim Ganj, Kāmoke",0.0,0
ChIJM2QP2jMpGTkRJI1et6SgkFY,LIBERTY MARKET,TEHSEEN MEDICAL STORE,31.979039,74.23081959999999,hospital,OPERATIONAL,"Line Par Harrar Road Mohallah، Salamat Pura، near Ayub Khan Kothi Kamoke, Kāmoke",1.0,1
ChIJaduYOPEpGTkRw5lDpKB3Czo,LIBERTY MARKET,Usman Medical store,31.9905642,74.2360925,hospital,OPERATIONAL,"Kasoki road Emnabad, road, Kāmoke",0.0,0
ChIJ56yXCwApGTkRSOJOsRgb3mY,LIBERTY MARKET,Hashmi Clinc,31.9694593,74.22409189999999,doctor,OPERATIONAL,"X69F+RG8, GT Rd, Kāmoke",0.0,0
ChIJGWlPTukpGTkRGSf2NkK3g0A,LIBERTY MARKET,Medsure Pharmacy and Healthcare Clinic,31.97337619999999,74.2240077,pharmacy,OPERATIONAL,"X6FF+9J2, Mandiala Rd, Mandiala",5.0,2
ChIJr1wiR-EpGTkRd2WDzQGQyJE,LIBERTY MARKET,Pharma Plus Pharmacy,31.9741352,74.2229152,pharmacy,OPERATIONAL,"X6FF+M52, GT Rd, Kāmoke",0.0,0
ChIJu7AcqeYpGTkRoPKOK5aWtu8,LIBERTY MARKET,Malik Medical Store,31.97530369999999,74.2242768,hospital,OPERATIONAL,"X6GF+4PC, Tipu Bazaar, Kāmoke",0.0,0
ChIJq2lrfqgpGTkRq-1ZhpUwNkQ,LIBERTY MARKET,Syal medical clinic,31.9777901,74.2197963,hospital,OPERATIONAL,"X6H9+4W7, Kāmoke",0.0,0
ChIJ56NhOd4pGTkRDaGukjffsxA,LIBERTY MARKET,Mother Child Health Care Center,31.9686662,74.2218417,hospital,OPERATIONAL,"X69C+FP8, Kāmoke",0.0,0
ChIJ0QMvcCfWGDkRs3I6Htai1Dg,LIBERTY MARKET,Arham Clinic,31.9614563,74.2170507,hospital,OPERATIONAL,"X668+HRM, Kāmoke",5.0,1
ChIJXQYV_OMpGTkRwmTLN5vD1xs,LIBERTY MARKET,Shuja Clinic,31.9753293,74.2227755,hospital,OPERATIONAL,"12 GT Rd, Kāmoke",0.0,0
ChIJh-8ThiDWGDkRMwyocWEcJlU,LIBERTY MARKET,Masalm Clinic,31.9660803,74.2172428,hospital,OPERATIONAL,"X688+CVQ, Kāmoke",1.0,1
ChIJjagBgt8pGTkRIMqCGjOfvDA,LIBERTY MARKET,Khushi Clinic,31.96651,74.21831,hospital,OPERATIONAL,"X689+J83, Kāmoke",0.0,0
ChIJj2KSQuIpGTkRxM-8ItAc4uc,LIBERTY MARKET,Anwar Clinic,31.97691,74.21947999999999,hospital,OPERATIONAL,"X6G9+QQ9, Kāmoke",0.0,0
ChIJ72WoGCcpGTkRCdYTWlb4dbg,LIBERTY MARKET,Dr. Kaleem,31.9632576,74.2268553,hospital,OPERATIONAL,"Dermiyan wala Bazar, near G.H.S, Nagri Abbas Shah Kāmoke",0.0,0
ChIJex1oSt4pGTkRWrgXdXppqdE,LIBERTY MARKET,Al Sudias Clinic,31.96815,74.2211,hospital,OPERATIONAL,"X69C+7C5, Kāmoke",5.0,1
ChIJI-2QKp8pGTkRkvyk6ddrjPE,LIBERTY MARKET,AL MADNI MEDICAL STORE,31.9765147,74.2220167,hospital,OPERATIONAL,"Kassoki Rd, Kāmoke",0.0,0
ChIJeRCKEeIpGTkR5fNGTYA73gs,LIBERTY MARKET,Zaib Clinic,31.9759086,74.21875969999999,hospital,OPERATIONAL,"X6G9+9G6, Kāmoke",0.0,0
ChIJ4d5JruYpGTkR4G3Tm6hu7YI,LIBERTY MARKET,Rizwan Medical Store,31.9748754,74.2243197,pharmacy,OPERATIONAL,"X6FF+XPP, Gali Jahaz Wali, Kāmoke",3.5,2
ChIJGzRTaQLWGDkRy9IH1G9qZTM,LIBERTY MARKET,Riffat Clinic,31.9839154,74.21679759999999,hospital,OPERATIONAL,"Tehsil Head Quater Hospital, Kāmoke",3.0,1
ChIJF11Kiv0pGTkRuedXqcgDNVc,LIBERTY MARKET,Kainat Clinic,31.9842276,74.2181021,hospital,OPERATIONAL,"X6M9+M6X, Kāmoke",0.0,0
ChIJ67OrbUgpGTkRNyzjiPY5D5w,LIBERTY MARKET,Siddique medicare Hospital,31.9863363,74.2185236,hospital,OPERATIONAL,"X6P9+GCJ، Gujranwala Service Road, Pak Town, Kāmoke",3.6,13
ChIJe_6JZeUpGTkRQV1ecw_6PHY,LIBERTY MARKET,Riaz Clinic,31.9798144,74.22891469999999,hospital,OPERATIONAL,"X6HH+WHF, Kāmoke",4.0,2
ChIJr5-bEpwpGTkRYdIiLSl2beo,LIBERTY MARKET,ہومیو پیتھک ڈاکٹر امان اللہ بھدر,31.9780469,74.2194198,doctor,OPERATIONAL,"X6H9+6QM, Kamoke - Tattle Aali Rd, Kāmoke",5.0,1
