Place ID,Brick Name,Business Name,Latitude,Longitude,Status,Category,,,,name,id,cmp_customer_id
ChIJJbgMNxEWsz4RiqGixEg0fC4,,Dr. Ziauddin Hospital Keamari,24.825803,66.9826054,OPERATIONAL,"hospital, point_of_interest, health, establishment",#N/A,,,AL-MADINA M/STORE,2365,191-9108
ChIJ_____xYWsz4R2N_XZn1aE7E,,Karwan e Hayat,24.8269582,66.9823756,OPERATIONAL,"hospital, point_of_interest, health, establishment",#N/A,,,PHARMA MEDICARE,2366,191-13615
ChIJq7usqRcWsz4R4dnphTBueKY,,Afridi Medical Center 24 Hours Imran Khan House,24.8226302,66.9844633,OPERATIONAL,"hospital, point_of_interest, health, establishment",#N/A,,,HAYAT PHARMACY,2367,191-12816
ChIJve72Bd4Xsz4RlOz3-Aeb1B4,,Aims International,24.8214504,66.9905509,OPERATIONAL,"hospital, point_of_interest, health, establishment",#N/A,,,DR. SHAZIA NAWAZ,2368,191-9612
ChIJ1WDJ72kXsz4RSHfeph7O1z8,,Masjid - Ziauddin hospital,24.8259333,66.983079,OPERATIONAL,"hospital, point_of_interest, health, establishment",#N/A,,,AL-HAMMAD MEDICAL STORE.,2369,191-1473
ChIJ0RFwPwAXsz4R8ak7VQUEsZ8,,Dr.TARIQ HUSSAIN,24.8255932,66.9815482,OPERATIONAL,"hospital, point_of_interest, health, establishment",#N/A,,,KAMAL MEDICAL STORE.,2370,191-277
ChIJgZP3Y8kXsz4RSaI9CvzNULA,,Rural Health Centre Kemari,24.82171,66.9787722,OPERATIONAL,"hospital, point_of_interest, health, establishment",#N/A,,,TALHA ENTERPRISES,2371,191-1492
ChIJBcFNQAAXsz4RCKUwcA9cbtQ,,Abu zaid medical and general store,24.8241657,66.9788917,OPERATIONAL,"hospital, point_of_interest, health, establishment",#N/A,,,GHOSIA MEDICAL STORE.,2372,191-1256
ChIJY7c5YBEWsz4R0ohoNuOkOm4,,KPT Hospital,24.826544,66.9810086,OPERATIONAL,"hospital, point_of_interest, health, establishment",#N/A,,,ASIM MEDICAL STORE,2373,191-10311
ChIJ3w-5qdEXsz4RH8NJGt9GgYE,,NICVD Chest Pain Unit at Keamari,24.8221181,66.9774247,OPERATIONAL,"hospital, point_of_interest, health, establishment",#N/A,,,REHMAT MEDICAL STORE.,2374,191-3163
ChIJy4z3IMoXsz4R2HoexavXKO4,,Dr zaman khan clinic,24.8262657,66.9913314,OPERATIONAL,"hospital, point_of_interest, health, establishment",#N/A,,,MAHER MEDICOS,2375,191-7428
ChIJxXNOaC4Xsz4RVHbUlBlC_JA,,Darul Shifa Hospital,24.8210508,66.9937415,OPERATIONAL,"hospital, point_of_interest, health, establishment",#N/A,,,ISANI MEDICOS,2376,191-10329
ChIJo5KV50YXsz4RQ5-NIEslwYk,,Jadoon Medical Store,24.8220769,66.99466,OPERATIONAL,"hospital, point_of_interest, health, establishment",2667,,,NEW REHMAN HOSPITAL PHARMACY,2377,191-8186
ChIJuxTQzAEXsz4RGHikG7thsc0,,Abdul wajid medical center,24.8170369,66.9953714,OPERATIONAL,"hospital, point_of_interest, health, establishment",#N/A,,,ZEESHAN MEDICAL STORE,2378,191-9360
ChIJb9AbmPAXsz4RNVUv4ZMEppw,,Asif medical & general store,24.8208013,66.9963578,OPERATIONAL,"hospital, point_of_interest, health, establishment",2553,,,IMTIAZ GROUP (SMC-PRIVATE) LIM,2379,191-14273
ChIJ7_3IOqU9sz4RLu7HTMVuUiM,,Clifton medical centre,24.817749,66.998969,OPERATIONAL,"hospital, point_of_interest, health, establishment",#N/A,,,BANGHASH MEDICAL STORE,2380,191-9085
ChIJxQIj8Dc9sz4R8c5rcsEgFgQ,,KK MEDICAL STORE,24.8184596,66.9995405,OPERATIONAL,"hospital, point_of_interest, health, establishment",#N/A,,,SANA MEDICAL STORE,2381,191-7883
ChIJpaM2JIM9sz4Rc096lAfV4XA,,Awan Clinic,24.8230849,67.003294,OPERATIONAL,"hospital, point_of_interest, health, establishment",#N/A,,,BALOCHISTAN MEDICAL STORE,2382,191-10511
ChIJkcOVzX09sz4RTNqosTtME6w,,Altamash General Hospital,24.8153116,67.0025373,OPERATIONAL,"hospital, point_of_interest, health, establishment",#N/A,,,ZAHID MEDICAL STORE,2383,191-1161
ChIJM7VLwo49sz4R7jX5zbw5laM,,College Of Speech Language & Hearing Sciences,24.8160264,67.0061083,OPERATIONAL,"hospital, health, point_of_interest, establishment",#N/A,,,ISRAR-UR-REHMAN MEDICAL STORE,2384,191-2012
ChIJfQxLQok9sz4RuFoPoDQlYFg,,Dr. Ziauddin Hospital Clifton Campus,24.8172531,67.0073942,OPERATIONAL,"hospital, health, point_of_interest, establishment",#N/A,,,AL-ANIS MEDICAL STORE,2385,191-1606
ChIJi_yKeUA8sz4R556Y6Ead_M8,,Willing Ways Karachi(Clifton),24.8142541,67.0111867,OPERATIONAL,"hospital, doctor, health, point_of_interest, establishment",#N/A,,,RAMEEZ CLINIC,2386,191-5563
ChIJqxWPyTQ9sz4RWWYYZ5bXarY,,Rehman Medical Center,24.8181039,67.0043724,OPERATIONAL,"hospital, health, point_of_interest, establishment",#N/A,,,R. D MEDICOS,2387,191-12515
ChIJf9Sry109sz4Rg3Znlw3u5Ok,,Al Maaz Medical Centre,24.8204727,67.0049725,OPERATIONAL,"hospital, health, point_of_interest, establishment",#N/A,,,SUPREME MEDICAL STORE,2388,191-7793
ChIJTWZ0Eno9sz4RXXCcSpe5bes,,Shireen Jinnah Hospital,24.8174597,67.0052469,OPERATIONAL,"hospital, health, point_of_interest, establishment",#N/A,,,TARIQ MEDICAL STORE.,2389,191-6765
ChIJM4D6qbU9sz4R_aFrTC2OcGU,,Alam Poly Clinic,24.8176166,67.0059445,OPERATIONAL,"hospital, health, point_of_interest, establishment",#N/A,,,MADINA M/S,2390,191-5115
ChIJw_hqfJo9sz4RNOOmicyZo0Y,,The Aga Khan University hospital - Clifton Medical services,24.8132045,67.0144435,OPERATIONAL,"pharmacy, hospital, point_of_interest, health, store, establishment",#N/A,,,NEW BABAR TRADERS,2391,191-7671
ChIJIxeEc5k9sz4RkJLifIiTguw,,QS Medical Care,24.8110936,67.0175729,OPERATIONAL,"hospital, point_of_interest, health, establishment",#N/A,,,YOUSUF MEDICAL STORE,2392,191-6091
ChIJExnK35c9sz4RIuAca7aF04Y,,Dr. Ahmed Abdullah's Clinic,24.8165092,67.0223738,OPERATIONAL,"hospital, point_of_interest, doctor, health, establishment",#N/A,,,DR. FAREEDA ZAHID,2393,191-7803
ChIJ24gbQr09sz4RFhGu4aeG748,,Welfare Society for Patient Care,24.816241,67.0222615,OPERATIONAL,"hospital, point_of_interest, health, establishment",#N/A,,,HAMEED SONS,2394,191-13513
ChIJDRoY35c9sz4RSugc2z-B4cE,,North Carolina Dental Practice Rahman And Rahman Dental Surgeons Karachi,24.8164323,67.0224193,OPERATIONAL,"hospital, point_of_interest, health, establishment",#N/A,,,MADINA ENTERPRISES (MR KHURAM),2395,191-8769
ChIJ3ewd3pc9sz4RFC0MqvtNNAg,,Clifton Kidney & General Hospital - Dialysis Center,24.8175003,67.022963,OPERATIONAL,"hospital, point_of_interest, health, establishment",#N/A,,,KAUSER MEDICOS,2396,191-6291
ChIJz4WcCJg9sz4RqNPnTbZeips,,South City Hospital,24.8142431,67.0224384,OPERATIONAL,"hospital, point_of_interest, doctor, health, establishment",#N/A,,,THE DAWN M/S,2397,191-8198
ChIJVVUUoY49sz4R79L8YLZyULk,,Dr Shehla,24.817611,67.0059799,OPERATIONAL,"hospital, point_of_interest, health, establishment",#N/A,,,DR. AKBAR ALI,2398,191-7344
ChIJX-5Bvyk9sz4RLYE5uXgJaQA,,Ayesha Lab Diagnostics & Consultant Clinic,24.8195373,67.0100168,OPERATIONAL,"hospital, point_of_interest, health, establishment",#N/A,,,UMAR M/S,2399,191-8273
ChIJD8_r35c9sz4RXQ8ZdHHmhN8,,Australian Concept Infertility Medical Center Karachi,24.8175739,67.0231738,OPERATIONAL,"hospital, point_of_interest, health, establishment",#N/A,,,MEMON MEDICINE POINT,2400,191-9569
ChIJpY20fcA9sz4RrQMYQ7559mA,,Urgent Care Medical Center,24.8116731,67.017707,OPERATIONAL,"hospital, point_of_interest, health, establishment",#N/A,,,RITE MEDICO,2401,191-7319
ChIJeQRYIAA9sz4Ru6xTKdt41Us,,Metroville Shabbir eye hospital,24.8132,67.016,OPERATIONAL,"hospital, point_of_interest, health, establishment",#N/A,,,ANIS MEDICAL STORE.,2402,191-9444
ChIJX8qFcJo9sz4RECBbhzs2jXo,,AKU,24.8131384,67.0144742,OPERATIONAL,"hospital, point_of_interest, health, establishment",#N/A,,,ALI MEDICAL STORE,2403,191-1217
ChIJHSLVazo9sz4R1NVVJ6DU-RQ,,Dr.Illahi Bakhsc,24.8133012,67.0158733,OPERATIONAL,"hospital, point_of_interest, health, establishment",#N/A,,,HUSSANI CARDIC CENTRE,2404,191-9495
ChIJE0r-AjQ_sz4Rw97Tgy3chNk,,MediCall Home Nursing Services,24.8128257,67.0115694,OPERATIONAL,"hospital, point_of_interest, health, store, establishment",#N/A,,,WAHEED MEDICAL STORE.,2405,191-1476
ChIJVVVVFZA9sz4Rz2BxJSbwODc,,Allahi Bux Somroo Clinic,24.814604,67.0121073,OPERATIONAL,"hospital, point_of_interest, health, establishment",#N/A,,,DR. AKBAR,2406,191-5557
ChIJB_LFi489sz4RnIFzbOx41BI,,Al Khidmat Hospital,24.81296,67.008919,OPERATIONAL,"hospital, point_of_interest, health, establishment",#N/A,,,MADNI MEDICAL STORE,2407,191-8225
ChIJ48svWHQ9sz4RDtUPBGqvO3k,,Laser Inn,24.8139691,67.0213687,OPERATIONAL,"hospital, point_of_interest, health, establishment",#N/A,,,UNIVERSAL MEDICAL STORE,2408,191-5104
ChIJR2FfLOs9sz4Rk1OKzTrv-F8,,Shop and Save Pharmacy,24.8148008,67.0210567,OPERATIONAL,"hospital, point_of_interest, health, establishment",#N/A,,,AL-MASIHA CHEMIST,2409,191-9773
ChIJdSV4RLg9sz4RjcRAv21nYDE,,Laser Vision Centre,24.8263524,67.0325614,OPERATIONAL,"hospital, doctor, health, point_of_interest, establishment",#N/A,,,S.M CARDIC CENTAR,2410,191-8042
ChIJ-14cKrs9sz4RlomNWdAw3yQ,,Park Lane Hospital,24.8167051,67.0314415,OPERATIONAL,"hospital, health, point_of_interest, establishment",3040,,,PHARMA SQUARE,2411,191-12188
ChIJ4WKNzbs9sz4RP0UR_AEnIok,,Dr. Asif Niaz Arain & Associates Dental Professionals,24.821293,67.031337,OPERATIONAL,"hospital, health, point_of_interest, establishment",#N/A,,,ZAYAN MEDICAL STORE,2412,191-10760
ChIJi7wtQK49sz4RkFWgwCmVte0,,Eterna Health,24.8138531,67.0276277,OPERATIONAL,"hospital, health, point_of_interest, establishment",#N/A,,,KAMAL PHARMACY,2413,191-1107
ChIJOaeNpKI9sz4RO-i6iEjLCW0,,Dr. Abid Mahmood Dental Clinic,24.8140289,67.0232645,OPERATIONAL,"hospital, health, point_of_interest, establishment",#N/A,,,PAKISTAN MEDICAL STORE,2414,191-492
ChIJaS-u2ew9sz4RT9nkXmpVHR4,,South City Hospital - OPD Bldg.,24.8135099,67.022388,OPERATIONAL,"hospital, health, point_of_interest, establishment",#N/A,,,ASIF MEDICAL STORE.,2415,191-5229
ChIJL_72imM9sz4RG9tZbqMihyQ,,Dr younus and Associates Dental clinic,24.8081101,67.0298125,OPERATIONAL,"hospital, health, point_of_interest, establishment",#N/A,,,HASSAN ENTERPRISES,2416,191-2910
ChIJncZi-pc9sz4RamD7AeY5rGQ,,The Eye Center,24.8157416,67.0219549,OPERATIONAL,"hospital, health, point_of_interest, establishment",#N/A,,,ASMA MEDICAL STORE,2417,191-5228
ChIJsTzJ-bw9sz4RxMwGmqD9gFE,,Childer Hospital,24.818138,67.0262786,OPERATIONAL,"hospital, health, point_of_interest, establishment",#N/A,,,SUNNY MEDICOS & SUPER STORE,2418,191-617
ChIJX0XuQSs9sz4R18aVWwe7roc,,BMI Physiotherapy Clinic,24.817968,67.0233884,OPERATIONAL,"hospital, health, point_of_interest, establishment",#N/A,,,AKBAR MEDICAL STORE,2419,191-10280
ChIJPyN0CAA-sz4R5ShduLw9aJ4,,Medifit - Physiotherapy & Rehabilitation,24.8178244,67.0233105,OPERATIONAL,"physiotherapist, hospital, health, point_of_interest, establishment",#N/A,,,MUMTAZ MEDICAL STORE,2420,191-5199
ChIJBQPRJlE9sz4RvksQn3iJ2n0,,Dr Iffat Yazdani - Best Nephrologist Karachi,24.8176098,67.0228693,OPERATIONAL,"hospital, doctor, health, point_of_interest, establishment",#N/A,,,BIN HASHIM PARMACY AND SUPER M,2421,191-9278
ChIJj-OD2Jc9sz4RKKgHF0pqqqo,,Medical Frequency Centre Clifton Branch,24.8168608,67.0225864,OPERATIONAL,"hospital, health, point_of_interest, establishment",#N/A,,,THE PSYCHO SOCIAL PHARMACY,2422,191-2103
ChIJvbUR0rg9sz4RBb6C1zs4K_Y,,Aga Khan Family Health Care Center,24.825026,67.0288991,OPERATIONAL,"hospital, health, point_of_interest, establishment",#N/A,,,DR. ABDULLAH,2423,191-5945
ChIJZc-mzbs9sz4Rq6HTFi1Gx_o,,CBRL,24.8212409,67.0313562,OPERATIONAL,"hospital, health, point_of_interest, establishment",#N/A,,,KARACHI DRUG MART,2424,191-8191
ChIJoVsl0ss9sz4ReBnsxQoNw4I,,Begum Haji Yousuf Hospital,24.8321803,67.040999,OPERATIONAL,"hospital, point_of_interest, health, establishment",#N/A,,,AZIZ MEDICAL STORE,2425,191-7582
ChIJAePQgP89sz4RnGau-66aCno,,Fee Sabilillah Health Care 1 (Bathisland Campus),24.8352656,67.026226,OPERATIONAL,"hospital, point_of_interest, health, establishment",#N/A,,,OWASI MEDICAL STORE,2426,191-8015
ChIJP64sQR49sz4RijVw6gnxzh8,,PRC - Parvarish Rehabilitation Treatment Center,24.8304547,67.0311683,OPERATIONAL,"hospital, point_of_interest, health, establishment",#N/A,,,ALI CHEMIST.,2427,191-6533
ChIJTwdo3649sz4RhkKfEdFJV-A,,Samreen's Ultrasound Clinic,24.8343757,67.0306237,OPERATIONAL,"hospital, point_of_interest, health, establishment",#N/A,,,KHYBER M/S,2428,191-8385
ChIJ5f2Vkjs9sz4RMZKAnCn6emg,,Concept Fertility Centre Pakistan,24.8297208,67.0329781,OPERATIONAL,"hospital, point_of_interest, health, establishment",#N/A,,,ADIL BROTHERS MEDICAL STORE.,2429,191-3841
ChIJi0RO3MU9sz4RsCGr863ojGM,,"Jps (CT Scan, MRI & MRA) Diagnostic Centre",24.8338748,67.032838,OPERATIONAL,"hospital, point_of_interest, health, establishment",#N/A,,,SEVEN 86 MEDICOS,2430,191-10850
ChIJTbtBKBo9sz4RiLW1DUOjlJ8,,Advanced kidney and Fertility Centre karachi,24.8340012,67.0328573,OPERATIONAL,"hospital, point_of_interest, health, establishment",#N/A,,,SEBKO MEDICAL STORE.,2431,191-4749
ChIJlbLUSeM8sz4RW4ov35nEt28,,Bluedot Healthcare,24.7965935,67.0509124,OPERATIONAL,"hospital, health, point_of_interest, establishment",#N/A,,,HEALTH LINK PHARMACY,2432,191-14510
ChIJuSXte1M8sz4Rz4Zqwe_QxXA,,Neuropsychology Center Pakistan,24.8140096,67.0489758,OPERATIONAL,"hospital, health, point_of_interest, establishment",#N/A,,,AL GHOUSIA MEDICAL STORE,2433,191-10449
ChIJVVVVfAY9sz4RgKUDr8OS8Zc,,UKIRO Health Care,24.8010461,67.0373471,OPERATIONAL,"hospital, health, point_of_interest, establishment",#N/A,,,MUZAMMIL MEDICAL STORE,2434,191-2633
ChIJabe1hAY9sz4RlxRu0-h8kb8,,Dr Dental Surgery,24.8012106,67.0383734,OPERATIONAL,"hospital, health, point_of_interest, establishment",#N/A,,,HADIQA MEDICAL STORE,2435,191-13920
ChIJX9J0uzc7sz4RdzlevA-5fuc,,Hashmmi Clinic,24.8069342,67.036945,OPERATIONAL,"hospital, health, point_of_interest, establishment",#N/A,,,CARE MEDICAL STORE,2436,191-6651
ChIJq71H29xBsz4RtObuaDuWvl8,,R3 Stem Cell Karachi,24.8057163,67.0294708,OPERATIONAL,"hospital, health, point_of_interest, establishment",#N/A,,,ALI CHEMIST,2437,191-2092
ChIJs-3Y5vw9sz4R07BRHxicJXQ,,Doctor,24.8063569,67.0300763,OPERATIONAL,"hospital, health, point_of_interest, establishment",#N/A,,,QUALITY SUPER STORE.,2438,191-8453
ChIJ0_odyKk9sz4RBQP57iNLcTc,,Dr. Qaisra Skin and Laser Clinic,24.8077393,67.0382163,OPERATIONAL,"hospital, health, point_of_interest, establishment",#N/A,,,A.M .PM MART AND MEDICAL,2439,191-10636
ChIJ67g4xw89sz4RHSxvy7SM3Kc,,Medical and dental care clinic,24.8080162,67.0378662,OPERATIONAL,"hospital, health, point_of_interest, establishment",#N/A,,,ALI MEDICAL STORE.,2440,191-1572
ChIJ7Zmrjqg9sz4R-p7IJegHF2M,,Ocaf Hospital,24.8090187,67.0356426,OPERATIONAL,"hospital, health, point_of_interest, establishment",#N/A,,,GERRYS CHEMIST.,2441,191-4926
ChIJayUznZI9sz4RSwyrnnuflUs,,Mohammadi Clinic,24.8088119,67.0375138,OPERATIONAL,"hospital, health, point_of_interest, establishment",#N/A,,,AL-SHAIKH MEDICAL STORE,2442,191-1354
ChIJAbhvxSo9sz4RpqN6Cimx29s,,Aafiyah - Family Health Clinics,24.8089815,67.0341005,OPERATIONAL,"hospital, health, point_of_interest, establishment",#N/A,,,SHABBIRI MEDICAL STORE,2443,191-642
ChIJqc6HAlE9sz4RvmL4U5q22jc,,Five Health Infirmary,24.8092288,67.034817,OPERATIONAL,"hospital, health, point_of_interest, establishment",#N/A,,,RAZA PHARMACY,2444,191-11523
ChIJEQgHG7M9sz4ROsn2wB5nsX8,,FOCUS EYE CARE & EYE WARE Optical Solution,24.7975921,67.0438075,OPERATIONAL,"hospital, health, point_of_interest, establishment",#N/A,,,D.A.A MEDICOS,2445,191-3501
ChIJ1ZYfUhg9sz4RjQWeakmTAVw,,Medifit - Physiotherapy & Rehabilitation,24.808981,67.0394764,OPERATIONAL,"physiotherapist, hospital, health, point_of_interest, establishment",#N/A,,,KAUSER MEDICAL STORE.,2446,191-6481
ChIJc1CKrs09sz4RnoRgYONFvQ8,,Dr. Saad Irfan & Associates Dentistery,24.798372,67.0457176,OPERATIONAL,"hospital, health, point_of_interest, establishment",#N/A,,,MEHRAN MEDICAL STORE,2447,191-8784
ChIJ6X1T-5Y9sz4Rx6RyKtC3Ncs,,PREMIER LASER & SKIN CLINIC,24.7973438,67.0455271,OPERATIONAL,"hospital, health, point_of_interest, establishment",#N/A,,,NOOR MEDICAL STORE,2448,191-4025
ChIJo_u_Ggg9sz4RKDL8h6fGMEU,,Karachi Medicos and Radiology,24.7973229,67.045552,OPERATIONAL,"hospital, health, point_of_interest, establishment",#N/A,,,MOORAD SUPER STORE,2449,191-10725
ChIJF9YXzLI9sz4Rq2Q9EDX-WBA,,Rathore Clinic/Diabetic Centre in Gizri/Clifton,24.8206402,67.0462227,OPERATIONAL,"hospital, health, point_of_interest, establishment",#N/A,,,MARFANI MEDICOS,2450,191-12414
ChIJu9aTe0Y9sz4RZ7Jnp82t9Kg,,Buner medical clinic,24.8119337,67.0355361,OPERATIONAL,"hospital, health, point_of_interest, establishment",#N/A,,,REHMAT MEDICAL AND GENERAL STO,2451,191-13627
ChIJJWCaLVQ9sz4RddlEiNNRwRU,,Dua Medical,24.8109024,67.0334181,OPERATIONAL,"hospital, health, point_of_interest, establishment",#N/A,,,PATNI AL-SHFA MEDICAL STORE,2452,191-1986
ChIJgdF2AQA9sz4RwUSXQSellQo,,Junaid Medical Center,24.8110501,67.0332913,OPERATIONAL,"hospital, health, point_of_interest, establishment",#N/A,,,MOHAMMADI MEDICAL STORE,2453,191-6068
ChIJMdgq1K49sz4R9xuvHnCf3ok,,Chinese Hospital,24.8121369,67.0377204,OPERATIONAL,"hospital, health, point_of_interest, establishment",#N/A,,,DR. AYAZ AHMED,2454,191-5548
ChIJuSbIFq89sz4RlsXnx17nDPY,,medical aid foundation,24.813307,67.0365002,OPERATIONAL,"hospital, health, point_of_interest, establishment",#N/A,,,AJWA MEDICAL STORE,2455,191-12836
ChIJG_KOAso9sz4RSS74UPK7K6A,,Hashmanis Hospital Clifton,24.8296126,67.0407083,OPERATIONAL,"hospital, doctor, health, point_of_interest, establishment",#N/A,,,BISMILLAH MEDICAL STORE AND GE,2456,191-13595
ChIJk5zoGy88sz4RyI30BK6dlUY,,"Dr Obaid's Skin, Hair & Aesthetic Clinic",24.8214827,67.0348603,OPERATIONAL,"doctor, hospital, health, point_of_interest, establishment",#N/A,,,STAR DRUG STORE,2457,191-10585
ChIJR2sMB7o9sz4RDz8-TK6qPDs,,Medilink Consultant Clinics,24.8220531,67.0350449,OPERATIONAL,"hospital, health, point_of_interest, establishment",#N/A,,,DR. ATIF SAEED,2458,191-6583
ChIJ09MrTrc9sz4Rf1dxF3cC0kI,,Laserline Cosmoderma Clinic,24.8231049,67.0353019,OPERATIONAL,"hospital, health, point_of_interest, establishment",#N/A,,,AL-SHIFA M/S,2459,191-1621
ChIJs8jwAm09sz4RomQwpthQAuQ,,Dr.Nauman Zafar Khan,24.8228882,67.0333681,OPERATIONAL,"hospital, health, point_of_interest, establishment",#N/A,,,CROWN MEDICAL STORE,2460,191-9455
ChIJI8i5Ybc9sz4RBmhdOhHj1j8,,Adenwala Clinic,24.8240856,67.0346141,OPERATIONAL,"hospital, health, point_of_interest, establishment",#N/A,,,AL-KAUSER MEDICAL STORE,2461,191-8311
ChIJ868Gb2M9sz4R5cbhRuFjCpc,,Midlink comsultant clincs,24.8242989,67.0351182,OPERATIONAL,"hospital, health, point_of_interest, establishment",#N/A,,,SADAQAT MEDICOSE,2462,191-6166
ChIJTSeUazM8sz4R777fzRxBNxM,,PNS SHIFA Hospital,24.8364815,67.0496923,OPERATIONAL,"hospital, point_of_interest, health, establishment",#N/A,,,AHMED MEDICAL STORE.,2463,191-8978
ChIJOXMGKEo9sz4R_x8bTVnd5nk,,Aziz Medicare Clifton Branch,24.8301252,67.0337592,OPERATIONAL,"hospital, point_of_interest, health, establishment",#N/A,,,MARIE STOPES SOCIETY,2464,191-6942
ChIJiaue3cU9sz4R0OBGcvfhLqA,,Musarrat Ultrasound Lab,24.8339373,67.0329807,OPERATIONAL,"hospital, point_of_interest, health, establishment",#N/A,,,SOVRANI MEDICAL STORE,2465,191-747
ChIJGb1358U9sz4RZXSCNDs-aNI,,Sind Medical Centre. ???? ?????? ?????,24.8340636,67.0331481,OPERATIONAL,"hospital, point_of_interest, health, establishment",#N/A,,,AL-KARAM MEDICAL STORE,2466,191-6388
ChIJs8sBKVs9sz4RpPPYsFqFqT4,,?????? ???? ??????,24.8342333,67.0332118,OPERATIONAL,"hospital, point_of_interest, health, establishment",2865,,,PAK MEDICAL STORE.,2467,191-4392
ChIJPbKh3IA9sz4RnEKwhPvv04U,,"Dr Tanveer Ahmed Urologist (Kidney Surgeon) , Pedritic Urologist and Male infertility Specialist",24.8341196,67.0329665,OPERATIONAL,"hospital, point_of_interest, health, establishment",#N/A,,,LIFE CARE MEDICAL ITTEHAD TOWN,2468,191-8362
ChIJ_VRZNl49sz4RD-8PKpACt4Y,,Baig pharmacy,24.8348407,67.0355217,OPERATIONAL,"hospital, point_of_interest, health, establishment",#N/A,,,QADRIA MEDICAL STORE.,2469,191-1150
ChIJB6lnwcU9sz4ROhF8kVNEobI,,Clifton Care Centre,24.8342555,67.0330175,OPERATIONAL,"hospital, point_of_interest, health, establishment",#N/A,,,ABDUL KHALIQUE MEDICAL STORE,2470,191-10375
ChIJRY32tn09sz4RFdHZGoXfj3c,,DR. MASOOD AUDIOLOGY CLINIC,24.8348999,67.0356792,OPERATIONAL,"hospital, point_of_interest, health, establishment",#N/A,,,AHMED PHARMACY,2471,191-10129
ChIJc6yyUtY9sz4RLas6Xfg7iIE,,East west hospital clifton,24.8271845,67.0338927,OPERATIONAL,"hospital, point_of_interest, health, establishment",#N/A,,,MONA'S PHARMACY,2472,191-11427
ChIJS2_wxhs9sz4R2iC7816WhjU,,Block 34 Seaview Apartments,24.7925884,67.0425697,OPERATIONAL,"hospital, point_of_interest, health, establishment",#N/A,,,JINNAH M/S,2473,191-9153
ChIJx7eYap49sz4RjblHB7n5HyY,,CANYON DENTAL & HAIR TRASPLANT STUDIOS,24.7938472,67.0481284,OPERATIONAL,"hospital, point_of_interest, health, establishment",#N/A,,,HOPE GENERAL HOSPITAL & MATERN,2474,191-9306
ChIJKawysyY9sz4RP5pROPAIsk4,,Allana house,24.7952434,67.0451498,OPERATIONAL,"hospital, point_of_interest, health, establishment",#N/A,,,FAIZ REHMAN HOSPITAL PHARMACY.,2475,191-4530
ChIJh4y8T1I9sz4RqPlKSZxJ4v8,,Dr. Uzma Pirzada Skin & Laser Clinic,24.7945625,67.0496875,OPERATIONAL,"hospital, beauty_salon, point_of_interest, doctor, health, establishment",#N/A,,,DANISH MEDICAL STORE,2476,191-6508
ChIJIatbi7I9sz4Ru0dVU5o6QQA,,One Health Laboratory-DHA,24.7963732,67.0453166,OPERATIONAL,"hospital, point_of_interest, health, establishment",#N/A,,,SINDH MEDICAL STORE.,2477,191-953
ChIJW5kvLH09sz4RAFJh-NpYovo,,3D Lifestyle Center of Medical Aesthetics,24.7958407,67.0497718,OPERATIONAL,"hospital, beauty_salon, spa, hair_care, point_of_interest, health, establishment",#N/A,,,MADNI MEDICAL STORE,2478,191-183
ChIJxaL99v09sz4Ru96nkqqWqwM,,Jadoon's Dental Clinic,24.798718,67.0474195,OPERATIONAL,"hospital, point_of_interest, health, establishment",#N/A,,,ROYAL MEDICO,2479,191-10662
ChIJ3-SSrt08sz4RxQSCk4VdYOg,,Arif Defence Medical Centre,24.7841083,67.0546917,OPERATIONAL,"hospital, point_of_interest, health, establishment",#N/A,,,SUPER MEDICAL STORE,2480,191-9270
ChIJBf9Jh7s9sz4Rk-xb0_o9uWc,,OMI Clinics - DHA,24.7841055,67.0546932,OPERATIONAL,"hospital, point_of_interest, health, establishment",#N/A,,,BHATTAI MEDICAL STORE.,2481,191-3886
ChIJbV7ANnM9sz4RPuY9fzzXh7A,,The Wellness Hospital,24.7869493,67.0572347,OPERATIONAL,"hospital, point_of_interest, health, establishment",#N/A,,,SAKURAN MEDICAL STORE.,2482,191-3245
ChIJJa1j1Po8sz4RNa6RVaQZwbo,,BodyWorks Ortho-Neuro-Sports Physio & Magneto therapy Center,24.7980769,67.0557071,OPERATIONAL,"hospital, point_of_interest, health, establishment",#N/A,,,BISMILLAH CLINIC C/O DR PARSHO,2483,191-1409
ChIJ20_Cz_o8sz4RU3iWXhhgvW8,,BodyWorks DHA Branch,24.7986355,67.0562362,OPERATIONAL,"hospital, point_of_interest, health, establishment",#N/A,,,SHANI MEDICAL AND GENERAL STOR,2484,191-11705
ChIJx2YerBs9sz4RVbQzpcq6FiM,,Pro Lab Diagnostic Centre,24.7800427,67.0546913,OPERATIONAL,"hospital, point_of_interest, health, establishment",#N/A,,,HUSSAIN M/C C/O DR YASIR,2485,191-128
ChIJpWnQKT09sz4REM_ZVEV1pV4,,Dr. Ziauddin Laboratory Clinic Pharmacy,24.8130469,67.0484799,OPERATIONAL,"hospital, health, point_of_interest, establishment",#N/A,,,MUSTAFA M/S,2486,191-9089
ChIJ3-vGL1M8sz4REPqPls9_fL8,,Gizri Healthcare Centre,24.8154883,67.0470579,OPERATIONAL,"hospital, health, point_of_interest, establishment",#N/A,,,EXCELLENCE MEDICAL STORE,2487,191-4160
ChIJ7cfgL1M8sz4RJeLt1JQ4FS4,,KMC Gizri Maternity Home,24.8154914,67.0472255,OPERATIONAL,"hospital, health, point_of_interest, establishment",#N/A,,,Q-D'S MEDICAL & GEN STORE,2488,191-611
ChIJG5IDMFM8sz4RJrWk9nmFOV8,,KMC Hospital,24.8154937,67.0472322,OPERATIONAL,"hospital, health, point_of_interest, establishment",#N/A,,,OWAIS  MEDICAL AND GENERAL STO,2489,191-13575
ChIJdQ-zB609sz4Rq7LDDorOtAo,,Marwat Hospital,24.8161937,67.0436677,OPERATIONAL,"hospital, health, point_of_interest, establishment",#N/A,,,M AND M PHARMACY,2490,191-1101
ChIJyyl44lU9sz4RA2r1bxKBpSw,,Haq Health Care Clinic,24.8133185,67.0510649,OPERATIONAL,"hospital, health, point_of_interest, establishment",#N/A,,,PATEL MEDICAL STORE,2491,191-7212
ChIJg7gyOTk9sz4RV1q-URuA_9s,,Dr Mughal’s Health Centre,24.8150276,67.0501135,OPERATIONAL,"hospital, health, point_of_interest, establishment",#N/A,,,QADRI SUPER MARKET.,2492,191-4238
ChIJN234Nn09sz4RjKqh2fEIQsw,,Amma noor jahan,24.8163759,67.0485511,OPERATIONAL,"hospital, health, point_of_interest, establishment",#N/A,,,LYFE PHARMACY,2493,191-11506
ChIJtWsk8v09sz4Rc-Tg8nlDdE0,,Op clinic,24.8137457,67.0516459,OPERATIONAL,"hospital, health, point_of_interest, establishment",#N/A,,,MESIA MEDICAL STORE.,2494,191-4143
ChIJvRF3qv49sz4Rx1-CCKknwbI,,Derma Casa Dr. Batool Ashraf,24.8165998,67.0417684,OPERATIONAL,"hospital, health, point_of_interest, establishment",#N/A,,,BILAL MEDICAL STORE,2495,191-9663
ChIJF6Hs3609sz4RDTMtTZsLDlI,,Del's Dental Clinic,24.8163242,67.040532,OPERATIONAL,"hospital, health, point_of_interest, establishment",#N/A,,,NOOR MEDICAL STORE,2496,191-4450
ChIJza6C82Y9sz4RPAT7_gBZjUg,,ALM Hijama DHA Karachi,24.8169434,67.0409185,OPERATIONAL,"hospital, health, point_of_interest, establishment",#N/A,,,MEHRAN MEDICAL STORE.,2497,191-3782
ChIJ4bgtHkU8sz4ROg8VOxGuWQ0,,Dr Abdul Razzak Tunio's Care Center,24.8164727,67.0402049,OPERATIONAL,"hospital, health, point_of_interest, establishment",#N/A,,,SHERRY MEDICAL STORE,2498,191-11240
ChIJI3qsVq09sz4RIAzL0B6KqDs,,Al-shifa nursery,24.8193875,67.0457465,OPERATIONAL,"hospital, point_of_interest, health, establishment",#N/A,,,CLIFTON MEDICO PHARMACY DHA,2499,191-12357
ChIJ5UTea008sz4R8EolMlAzb4o,,Tabanis' Diagnostic and Medical Center and vet,24.8231761,67.0474839,OPERATIONAL,"hospital, veterinary_care, point_of_interest, health, establishment",#N/A,,,AL-IMRAN MEDICAL STORE,2500,191-9234
ChIJmzHdYE08sz4RSC48AKgpRIc,,Dr. Imran's Clinic,24.819334,67.0480897,OPERATIONAL,"hospital, point_of_interest, health, establishment",#N/A,,,ASAD M/S,2501,191-10
ChIJOwuOn1I8sz4Rdh92X18_Anc,,Imran Firdaus Medical & Neurological Centre,24.8189374,67.0479894,OPERATIONAL,"hospital, point_of_interest, health, establishment",#N/A,,,AL-SHIFA MEDICAL CARE SERVICE,2502,191-1826
ChIJgzyL6bU9sz4RweOjmqYUXXU,,NICVD Chest Pain Unit Under Gizri Flyover,24.8190233,67.0485324,OPERATIONAL,"hospital, point_of_interest, health, establishment",#N/A,,,PHARMA- SQUARE,2503,191-3125
ChIJn6j32Ag9sz4Rr312rZu5eus,,Sahara Village Professional Training Centre,24.8230114,67.0491736,OPERATIONAL,"hospital, point_of_interest, health, establishment",#N/A,,,A.J MEDICAL STORE,2504,191-11650
ChIJrc5RALI9sz4RmLZ4O_AuqPk,,The Psychiatric Clinic dr Unaiza,24.8180078,67.0406935,OPERATIONAL,"hospital, point_of_interest, health, establishment",#N/A,,,ASHRAF MEDICOS,2505,191-943
ChIJ15WPYbg9sz4R3JbVn-qOEvM,,Doctors Clinic,24.826751,67.0462194,OPERATIONAL,"hospital, point_of_interest, health, establishment",#N/A,,,PAK MEDICOS,2506,191-4149
ChIJ0bWq77E9sz4RWNd0QNki9wo,,Khilgi's Skin Clinic,24.8185637,67.039576,OPERATIONAL,"hospital, point_of_interest, health, establishment",#N/A,,,SAIM AGHA MEDICAL STORE,2507,191-13617
ChIJ3e1Toy08sz4R2w2BgvZE7BI,,DSRA Medical Centre,24.843863,67.0502123,OPERATIONAL,"hospital, health, point_of_interest, establishment",#N/A,,,AZEEM'S SUPER MARKET,2508,191-6178
ChIJMzbVSTA8sz4Rmz4IWeB-Y-E,,LookSmart Hair Transplant & Cosmetic Surgery Center,24.8413346,67.0559446,OPERATIONAL,"hospital, health, point_of_interest, establishment",#N/A,,,ZAMZAM MEDICAL STORE,2509,191-10153
ChIJm-xsi8o9sz4Rqf1zy7SkqUM,,Gulzar Clinic& Maternity Home,24.8308865,67.043748,OPERATIONAL,"hospital, health, point_of_interest, establishment",#N/A,,,REHMAN HOSPITAL PHARMACY,2510,191-5797
ChIJq6qqWjU8sz4RWOposq67D1M,,Bangash Clinic,24.8308209,67.0472038,OPERATIONAL,"hospital, health, point_of_interest, establishment",#N/A,,,MASHALLAH MEDICAL STORE,2511,191-4857
ChIJO8e6iLA9sz4RtAjwTLht_zw,,S.B Medicine Point 2,24.8328502,67.0445974,OPERATIONAL,"hospital, health, point_of_interest, establishment",#N/A,,,PHARMACY POINT.,2512,191-6206
ChIJDc3eQrU9sz4RZtDHzbBhBvk,,Dr.Naval And Dr.Shahnaz Clinic,24.8290505,67.0451331,OPERATIONAL,"hospital, health, point_of_interest, establishment",#N/A,,,JAMEEL MEDICAL STORE,2513,191-6398
ChIJEagoRbU9sz4RuXOSBGcDrcU,,Dr. Rajesh Clinic,24.8290039,67.0455982,OPERATIONAL,"hospital, health, point_of_interest, establishment",#N/A,,,HINGLAJ MEDICAL STORE,2514,191-3396
ChIJeQaAcec9sz4RtIK_uDwKo8E,,Siddiq Jarrah,24.831757,67.0426076,OPERATIONAL,"hospital, health, point_of_interest, establishment",#N/A,,,IQRA MEDICAL STORE,2515,191-8694
ChIJV5Z0d4U9sz4RvtSe_VUzCtM,,Hamza Homoeopathic Store,24.8323734,67.0425213,OPERATIONAL,"hospital, health, point_of_interest, establishment",#N/A,,,ASHRAFI MEDICAL STORE,2516,191-10456
ChIJsYXTj0o8sz4R90o45H1P6Q0,,Qamar ul Islam Hospital,24.8295135,67.0485315,OPERATIONAL,"hospital, health, point_of_interest, establishment",#N/A,,,SOHAIL MEDICAL STORE,2517,191-10144
ChIJ1yacF8o9sz4RtSfPZb9uKPY,,Clifton City Hospital,24.8304103,67.0413154,OPERATIONAL,"hospital, health, point_of_interest, establishment",#N/A,,,HYATT PHARMACY,2518,191-14493
ChIJO3yedz09sz4RlEBhdWbfXHA,,Dr. Mohammad Mirza (Child Specialist) Clinic,24.8318649,67.0409491,OPERATIONAL,"hospital, health, point_of_interest, establishment",#N/A,,,BASIT MEDICAL STORE,2519,191-9827
ChIJSauHSLY9sz4RtsbFVJOLbB8,,Diagnostic Plus,24.8317875,67.0407889,OPERATIONAL,"hospital, health, point_of_interest, establishment",#N/A,,,INAAM MEDICAL & GENERAL STORE,2520,191-11247
ChIJOYcUw8s9sz4RoOq2OhcTUTc,,Family Care Clinic,24.8331298,67.0413162,OPERATIONAL,"hospital, health, point_of_interest, establishment",#N/A,,,BABU PHARMACY (JAHANGIR),2521,191-6543
ChIJd9s8RdI9sz4RTiXWnzAQT4g,,Pakistan Railway Hassan Hospital,24.8424913,67.0425291,OPERATIONAL,"hospital, health, point_of_interest, establishment",#N/A,,,AL-KHAIR CHEMIST,2522,191-9642
ChIJXT6J1u89sz4Rt276VaA_ryI,,ZMT Clinic - Railway Colony,24.844356,67.0477224,OPERATIONAL,"hospital, health, point_of_interest, establishment",#N/A,,,NICE PHARMACY AND MART,2523,191-13442
ChIJM5bDCfo9sz4RwHUEnQP2EYs,,PNS SHIFA HOSPITAL WAITING AREA,24.8410342,67.0500696,OPERATIONAL,"hospital, health, point_of_interest, establishment",#N/A,,,AL- REHMAN MARWAT MEDICAL STOR,2524,191-12638
ChIJZ2sKETM8sz4RuROVJ4JS_XQ,,CPO Ward,24.837784,67.0485024,OPERATIONAL,"hospital, health, point_of_interest, establishment",#N/A,,,UNITED MEDICAL AND GENERAL STO,2525,191-13572
ChIJU9EwCTM8sz4R8YYMqNw5IU0,,Emergency Centre,24.838133,67.0490922,OPERATIONAL,"hospital, health, point_of_interest, establishment",#N/A,,,NATIONAL MEDICAL CENTRE PVT LT,2526,191-10821
ChIJmfTGDjM8sz4RuYNZqB8pFMw,,Department Of Thoracic Surgery ward 27 1st floor,24.8378653,67.049006,OPERATIONAL,"hospital, health, point_of_interest, establishment",#N/A,,,A.S MEDICOS,2527,191-12030
ChIJU91b1zM8sz4ReuXNedo1_xs,,Department of Rehabilitation Medicine,24.8373031,67.04831,OPERATIONAL,"physiotherapist, hospital, doctor, health, point_of_interest, establishment",#N/A,,,DEW MEDICOSE,2528,191-3267
ChIJ286Qu6w9sz4RPDRxzlC5QhI,,Radiology Department PNS Shifa Hospital,24.836636,67.04854,OPERATIONAL,"hospital, health, point_of_interest, establishment",#N/A,,,FRONTIER MEDICAL STORE.,2529,191-916
ChIJjWuPdjM8sz4RPik_K60RRms,,Specialist Block,24.8370502,67.0492051,OPERATIONAL,"hospital, health, point_of_interest, establishment",#N/A,,,MADINA MEDICAL STORE,2530,191-1582
ChIJq6cJRv0_sz4RZQR5zB4mwPM,,Urban Health,24.7815458,67.0568089,OPERATIONAL,"pharmacy, hospital, point_of_interest, store, health, establishment",#N/A,,,UZMA MEDICAL CENTER,2531,191-13538
ChIJjzqDVB49sz4RsW7DaKb-F5c,,Executive Clinics & Daycare,24.7790408,67.0658225,OPERATIONAL,"hospital, point_of_interest, health, establishment",#N/A,,,SIND MEDICAL STORE.,2532,191-4299
ChIJo-VSIYc9sz4RfBkaID8-SR8,,Medifit - Physiotherapy & Rehabilitation,24.7796285,67.0688315,OPERATIONAL,"physiotherapist, hospital, point_of_interest, health, establishment",#N/A,,,AL-WAJIH MEDICAL STORE,2533,191-4873
ChIJj0FJb0o8sz4RiuyFetouvq0,,Skindulgence Health Services,24.7911016,67.0649058,OPERATIONAL,"hospital, point_of_interest, doctor, health, establishment",#N/A,,,THE DRUG MART PHARMACY,2534,191-14065
ChIJn-tyzqY9sz4R6NbN-oWWdDA,,Expert Care,24.7917662,67.066447,OPERATIONAL,"hospital, point_of_interest, health, establishment",#N/A,,,99 PHARMACY,2535,191-11878
ChIJr-T4MbY9sz4RbjlwBsCoJAc,,RAIS OPTIX ????? EYE CARE CLINIC???/ BUKHARI COMMERCIAL,24.7941665,67.063173,OPERATIONAL,"hospital, point_of_interest, store, doctor, health, establishment",#N/A,,,DR.HAIDER,2536,191-6408
ChIJm4Iu_-s8sz4RSbeVllv8iRc,,The Community Medical Center,24.7934911,67.0646586,OPERATIONAL,"hospital, point_of_interest, health, establishment",#N/A,,,MADNI ENTERPRISE (MR RAUF),2537,191-9682
ChIJx5u7-es8sz4RsEQSG77lVV0,,British Medical Practice,24.7922656,67.0664564,OPERATIONAL,"hospital, point_of_interest, health, establishment",#N/A,,,MEDIC PHARMA C/O MEDICARE PHAR,2538,191-10659
ChIJWbf8RdA9sz4R7SJ-CTJHr4I,,A.O. Clinic (South),24.7922623,67.0665042,OPERATIONAL,"hospital, point_of_interest, health, establishment",#N/A,,,AZAM MEDICAL STORE,2539,191-1555
ChIJfU4Fi-w9sz4RXGDSekfvyxU,,Pawsh,24.7928389,67.0664392,OPERATIONAL,"pet_store, zoo, hospital, veterinary_care, clothing_store, food, point_of_interest, store, health, establishment",#N/A,,,HEALTH ICON MEDICAL & DIAGNOST,2540,191-9196
ChIJw3mG_Ro9sz4R2VW3V7Gzh88,,Farzana Family Clinic and Speech Therapy Centre,24.7943689,67.0658128,OPERATIONAL,"hospital, point_of_interest, doctor, health, establishment",#N/A,,,AL-ASIF MEDICAL AND GENERAL ST,2541,191-4062
ChIJ9WAMwvA9sz4Rg6U91tuKzrE,,"Rabies Free Pakistan Container, The Indus Hospital",24.8059642,67.0563824,CLOSED_TEMPORARILY,"hospital, health, point_of_interest, establishment",#N/A,,,BABU PHARMACY 4 (JUNAID),2542,191-13634
ChIJhUhETvE8sz4RDK8Gc4AXboU,,DHA Medical Centre,24.8042308,67.063507,OPERATIONAL,"hospital, health, point_of_interest, establishment",#N/A,,,TARIQ MEDICAL STORE,2543,191-3948
ChIJi4ntXvw9sz4RV_4TV_cndPw,,Taj Medical health Services,24.8086149,67.0619511,OPERATIONAL,"hospital, health, point_of_interest, establishment",#N/A,,,ANWER CLINIC,2544,191-5047
ChIJAaIdr_I8sz4RE9sXHtvoBjA,,Veracity Clinic,24.8004285,67.0666455,OPERATIONAL,"hospital, health, point_of_interest, establishment",#N/A,,,WAHAB M/S,2545,191-6854
ChIJz5kVPt09sz4R0dSF3ktw2D0,,DN doctor Nasaka DAMS herbalist,24.8134648,67.0644616,OPERATIONAL,"hospital, health, point_of_interest, establishment",#N/A,,,BISMIILAH M/S,2546,191-11429
ChIJD9GhO0E8sz4ReufLSlS4dRU,,Aga Khan University Hospital Laboratory,24.8295017,67.0660508,OPERATIONAL,"hospital, health, point_of_interest, establishment",#N/A,,,S.S.D MEDICAL STORE,2547,191-241
ChIJJzeYCmo8sz4R1dQdUfnzfLU,,Dr's Shamsi And Ansari Diagnostic,24.8295315,67.0702658,OPERATIONAL,"hospital, health, point_of_interest, establishment",#N/A,,,UNITED MEDICAL AND SURGICALS S,2548,191-10290
ChIJI4UbIAU9sz4RVny-kDtpsfE,,Q PHARMACY & MEDICARE,24.8238,67.0617628,OPERATIONAL,"hospital, health, point_of_interest, establishment",#N/A,,,SAWAT MEDICAL STORE,2549,191-2971
ChIJra7GskU8sz4RRw5-sQo04Xc,,Bites & Braces Dental,24.8245981,67.0612925,OPERATIONAL,"hospital, health, point_of_interest, establishment",#N/A,,,KIFAYAH PHARMACY C/O REHMAN EN,2550,191-11268
ChIJVa768EQ8sz4RrQunOxpN9BA,,Nava Clinic Dr. Asad Shubair,24.823694,67.0622034,OPERATIONAL,"hospital, health, point_of_interest, establishment",#N/A,,,AL-MADINA MEDICAL STORE,2551,191-6236
ChIJfYljRko8sz4RGV64MLXUdcI,,Dr Taj Medical & Diagnostic Centre,24.8284955,67.0504152,OPERATIONAL,"hospital, health, point_of_interest, establishment",#N/A,,,DR. SHAZIA NAWAB,2552,191-11562
ChIJPSjSehU8sz4R778VaxGaux8,,Life Care Consultant Clinics Private Limited,24.836028,67.070906,OPERATIONAL,"hospital, point_of_interest, health, establishment",#N/A,,,ASIF MEDICAL & GENERAL STORE,2553,191-1645
ChIJ9fV0BGs8sz4RIaLJwTEujgk,,Optimum Kidney Dialysis and Health Services,24.8319471,67.0736825,OPERATIONAL,"hospital, point_of_interest, health, establishment",#N/A,,,AL-HASEEB MEDICAL STORE,2554,191-9799
ChIJ8bvXb6w9sz4Rds2AqyR_HQ8,,VISION EYE CLINIC,24.8342553,67.0553927,OPERATIONAL,"hospital, point_of_interest, health, establishment",#N/A,,,PAK PHARMACY,2555,191-11145
ChIJDVVJCDg8sz4RE-jNDg-SOhM,,KHAN CARIAC CLINIC,24.8321934,67.0593715,OPERATIONAL,"hospital, point_of_interest, health, establishment",#N/A,,,DAWN MEDICAL STORE.,2556,191-3398
ChIJT5MXd0o8sz4RtAMh19TDbc4,,Advance Dental Services,24.8303189,67.0502577,OPERATIONAL,"hospital, point_of_interest, health, establishment",#N/A,,,HAMMAD M/S,2557,191-6447
ChIJQVgjXzQ8sz4RKMNTnAwVrtg,,PNS Shifa Cardiac Unit & Officers Ward,24.8352003,67.0496705,OPERATIONAL,"hospital, point_of_interest, health, establishment",#N/A,,,PIRZADA CHEMIST,2558,191-1702
ChIJtYUXWwA9sz4RaxFRVCBcm1E,,Hyperbaric oxygen therapy centre,24.8348704,67.0490292,OPERATIONAL,"hospital, point_of_interest, health, establishment",#N/A,,,ADNAN MEDICAL STORE,2559,191-1377
ChIJaUtvHQA9sz4RzW_z1Fk9ddY,,PNS SHIFA HOSPITAL FAMILY WING,24.8360827,67.0492498,OPERATIONAL,"hospital, point_of_interest, health, establishment",#N/A,,,PERVEZ PHARMA.,2560,191-511
ChIJGSbzpfA9sz4RU18lAIeXTrU,,iHealthCareCentre,24.8412753,67.0566237,OPERATIONAL,"physiotherapist, hospital, doctor, health, point_of_interest, establishment",#N/A,,,SUBHAN ALLAH MEDICAL & GENERAL,2561,191-11038
ChIJMaHhrIQ9sz4Rco83nt4R4I8,,URO-DERM (PVT) LTD,24.8416712,67.0574782,OPERATIONAL,"hospital, health, point_of_interest, establishment",#N/A,,,HARIS MEDICAL STORE.,2562,191-746
ChIJD8napaY9sz4RhYWVxd-yUvQ,,#Hash Clinic's,24.8437415,67.0552181,OPERATIONAL,"hospital, health, point_of_interest, establishment",#N/A,,,B. CROWN PHARMACY,2563,191-14123
ChIJgWiSZ7k9sz4Rn-TDdMse5TU,,Tabba Heart Institute Medical Center - DHA Phase 2,24.8444331,67.0553439,OPERATIONAL,"pharmacy, hospital, doctor, health, point_of_interest, store, establishment",#N/A,,,EMAN PHARMACY,2564,191-12683
ChIJq-IFpNw8sz4R9MAvD7nfNE0,,The Cosmetic Suite,24.788042,67.0773494,OPERATIONAL,"hospital, health, point_of_interest, establishment",#N/A,,,ABDULLAH TRADERS,2565,191-3109
ChIJVW909Yc9sz4Rvyog3GlbyNA,,New beginnings,24.7888007,67.0743749,OPERATIONAL,"hospital, health, point_of_interest, establishment",#N/A,,,MOMINA MEDICAL STORE.,2566,191-8690
ChIJC_0PL309sz4RabXYfRnnsAs,,RETINA & EYECARE CENTRE,24.7888168,67.0757932,OPERATIONAL,"hospital, health, point_of_interest, establishment",#N/A,,,PHARMAX (PVT) LTD.,2567,191-4123
ChIJYQp5FF89sz4RiR0ZNS_mfD8,,Health Inn Services KARACHI PAKISTAN,24.7888663,67.0786367,OPERATIONAL,"hospital, health, point_of_interest, establishment",#N/A,,,MAGNET SHOPPING CITY,2568,191-2869
ChIJSZpRVO08sz4RPokeFfxKIXw,,Shan Medicos And Super Store,24.8000013,67.0700502,OPERATIONAL,"hospital, point_of_interest, health, establishment",#N/A,,,BIN HASHIM PHARMACY & SUPER MA,2569,191-2641
ChIJXceAdY08sz4R1tIKbwUIZkQ,,Memon Medical Institute Hospital (Lab Collection Point DHA Branch),24.8019093,67.0732834,OPERATIONAL,"hospital, health, point_of_interest, establishment",#N/A,,,AL- HAMD MEDICAL STORE,2570,191-14165
ChIJ9Qkmys09sz4RQeowmG7p0AY,,The Food Balance,24.808321,67.0688722,OPERATIONAL,"hospital, health, point_of_interest, establishment",#N/A,,,UTHAL MEDICAL CENTRE & MATERNI,2571,191-3413
ChIJzW2MawM4sz4RU9QseHd2d2k,,Esthetic & Dental Hub Cartier,24.8010737,67.074319,OPERATIONAL,"hospital, health, point_of_interest, establishment",#N/A,,,ILYAS MEDICAL STORE,2572,191-10689
ChIJ7XE1geE9sz4R7PlhCNHtmyE,,Dr. Moin Uddin (Skin Care Clinic),24.8086158,67.0697412,OPERATIONAL,"hospital, health, point_of_interest, establishment",#N/A,,,H.A TRADER,2573,191-12109
ChIJUVg01149sz4RQlQUcEUxAkQ,,RAIS OPTIX ????? EYE CARE CLINIC???/SEHAR COMMERCIAL,24.8155081,67.0707313,OPERATIONAL,"hospital, doctor, health, store, point_of_interest, establishment",#N/A,,,"SUNNY MEDICO,S.",2574,191-3309
ChIJgzojL4g9sz4R417CuYT_dy0,,A.R.T.S,24.8192744,67.0687585,OPERATIONAL,"hospital, health, point_of_interest, establishment",#N/A,,,TIME MEDICOSE.,2575,191-8423
ChIJIULq8Vw8sz4R4PFPP7RFVFw,,Khizar Eye Clinic,24.8198248,67.0662801,OPERATIONAL,"hospital, health, point_of_interest, establishment",#N/A,,,SHAHEEN PHARMACY,2576,191-10558
ChIJs560qRM9sz4RKTgRw_GcKb8,,Defence Cosmetic Dentistry Clinic,24.8206412,67.0717531,OPERATIONAL,"hospital, health, point_of_interest, establishment",#N/A,,,DR. SULTAN HYDAR,2577,191-5720
ChIJbZa8ukA9sz4RzEXVAwkWZsk,,Sky Blue Pharmacy,24.8206335,67.0720626,OPERATIONAL,"hospital, health, point_of_interest, establishment",#N/A,,,AL-MAKKAH MEDICAL STORE,2578,191-7036
ChIJf_WXjWc8sz4R6MI6J6JwH6U,,Alshifa Clinic,24.8213543,67.0715436,OPERATIONAL,"hospital, health, point_of_interest, establishment",#N/A,,,DISCOUNT MEDICAL STORE,2579,191-7828
ChIJ80DPNC48sz4RyA1FG4uMqRY,,Maxfac Surgical,24.8306655,67.0754701,OPERATIONAL,"hospital, point_of_interest, health, establishment",#N/A,,,LUCKY MEDICAL STORE,2580,191-4311
ChIJO_hg0NA9sz4RLiJ90RrZ-3k,,Specialist care clinic,24.8277926,67.0637571,OPERATIONAL,"hospital, point_of_interest, health, establishment",#N/A,,,KHATIJA MEDICAL STORE,2581,191-7681
ChIJz2IkEUE8sz4R6OR-4vCH3i8,,Jami Medical And Dental Center,24.8295424,67.0662631,OPERATIONAL,"hospital, point_of_interest, health, establishment",#N/A,,,NOOR MEDICAL & GENERAL STORE,2582,191-10260
ChIJOfGaoZw9sz4ROBC7I9HdE3k,,Health Cure Centre,24.8311482,67.066509,OPERATIONAL,"hospital, health, point_of_interest, establishment",#N/A,,,BLUE NILE  MINI MART,2583,191-10460
ChIJyfyerUE8sz4RtZfR2qpMxX4,,My Dentist Family Care Clinic,24.830483,67.0679746,OPERATIONAL,"hospital, health, point_of_interest, establishment",#N/A,,,USMANIA MEDICAL STORE,2584,191-7806
ChIJn8huFQA9sz4RnQk_ulNuctc,,National Orthopedic Massaage and Pain Managment Center,24.8315337,67.068125,OPERATIONAL,"hospital, health, point_of_interest, establishment",#N/A,,,FINE PHARMECY,2585,191-4554
ChIJYXo_4sc9sz4RB-tHHBWMnfI,,The Dental Art & Aesthetic Clinic,24.8336259,67.0668091,OPERATIONAL,"hospital, health, point_of_interest, establishment",#N/A,,,PRINCE MEDICAL STORE,2586,191-612
ChIJBXMF7CE9sz4RW6ExAwS6nqk,,Blue Shield Medical Centre,24.8298212,67.0686443,OPERATIONAL,"hospital, health, point_of_interest, establishment",#N/A,,,JZ MEDICOS & MART,2587,191-11778
ChIJpxCpnOs9sz4R0BACnwNMQwo,,Al-Shifa clinic (for free Medical Advice ),24.8335273,67.0697292,CLOSED_TEMPORARILY,"hospital, health, point_of_interest, establishment",#N/A,,,M.M M/S,2588,191-4491
ChIJHcAldmM9sz4REPG1Rh2LbLM,,Dr. Tehseen's Clinic & Ultrasound,24.8345067,67.0690281,OPERATIONAL,"hospital, health, point_of_interest, establishment",#N/A,,,BANTVA ANIS HOSPITAL PHARMACY.,2589,191-4140
ChIJ7QrApfo9sz4RrYlwC6bqIyg,,Diagnostic Plus,24.829635,67.0706103,OPERATIONAL,"hospital, health, point_of_interest, establishment",#N/A,,,DR. SHAKEEL,2590,191-7251
ChIJdatYjmo8sz4RWA1vwbTQyPM,,Sana Medical,24.8317129,67.0712946,OPERATIONAL,"hospital, health, point_of_interest, establishment",#N/A,,,AL-MADINA M/STORE,2591,191-11073
ChIJpSvSGgA9sz4RHOY46XGIFDs,,Adeeba Maternity & Medical Center,24.8221235,67.081449,OPERATIONAL,"hospital, health, point_of_interest, establishment",#N/A,,,AZRA JAMIL CORP MEDICAL STORE,2592,191-4064
ChIJY8x-VgA9sz4RQ6Oic4WAqoI,,Shahana/Rais Memorial Clinic,24.8227266,67.0823415,OPERATIONAL,"hospital, health, point_of_interest, establishment",#N/A,,,MARWAT MEDICAL STORE,2593,191-559
ChIJAaWOn5E9sz4RxRHX83OAhSo,,????? ??????,24.8230957,67.0826111,OPERATIONAL,"hospital, health, point_of_interest, establishment",2479,,,HIBA PHARMACY,2594,191-9005
ChIJ3RPamM89sz4RVbWLyL6-pOw,,????? ?????,24.8231313,67.0826453,OPERATIONAL,"hospital, health, point_of_interest, establishment",3578,,,HASSAN ALI MEDICAL STORE,2595,191-10361
ChIJO8EaDZ09sz4RYCycZZqg91I,,ALI DENTAL AND MEDICAL CENTRE,24.8245826,67.0788618,OPERATIONAL,"hospital, health, point_of_interest, establishment",#N/A,,,NEW SAIF SATTARI M/S,2596,191-13645
ChIJmXZHLW88sz4RK3b_Runj6lo,,Shaukat Khanum Diagnostic Centre,24.8253707,67.0771401,OPERATIONAL,"hospital, health, point_of_interest, establishment",#N/A,,,AL QASIM MEDICAL STORE,2597,191-2420
ChIJQwQmlME9sz4RMV-zE13p_nk,,S/R Medical & General Store,24.8255562,67.0799577,OPERATIONAL,"hospital, health, point_of_interest, establishment",#N/A,,,ASAD MEDICAL STORE,2598,191-3794
ChIJDeyg1rA9sz4RK4t4c8l8X3c,,????? ???? ?????,24.8248135,67.0808495,OPERATIONAL,"hospital, health, point_of_interest, establishment",2823,,,FAHAD MEDICOS,2599,191-2851
ChIJ42L-ro09sz4RerpV74VQxVM,,???? ???? ?????,24.8238595,67.0816636,OPERATIONAL,"hospital, health, point_of_interest, establishment",2457,,,ABDUL HADI TRADERS,2600,191-13232
ChIJA2CGct09sz4RGaXhH8FonIU,,???? ?????,24.8258569,67.0806792,OPERATIONAL,"hospital, health, point_of_interest, establishment",2604,,,CASH AND CARRY MEDICAL STORE,2601,191-3983
ChIJs-DHnCk9sz4R1ACFwUitK04,,?????? ?????,24.8259561,67.0807509,OPERATIONAL,"hospital, health, point_of_interest, establishment",2796,,,ALL MEDS PHARMACY,2602,191-11685
ChIJLb4Dmkg9sz4Rze9-6sKYTO4,,Consultant Clinics,24.8307365,67.075431,OPERATIONAL,"hospital, health, point_of_interest, establishment",#N/A,,,SOMEE MEDICAL STORE,2603,191-8179
ChIJB2Xe5UY9sz4RwgA5qpe6Bco,,BioFlex Laser Therapy - Karachi Clinic,24.8304294,67.0748397,OPERATIONAL,"hospital, health, point_of_interest, establishment",#N/A,,,HOOR IMPEX,2604,191-518
ChIJW6TH-Go8sz4R1izVh68V2_4,,Sahil medical centre,24.8315507,67.0728394,OPERATIONAL,"hospital, health, point_of_interest, establishment",#N/A,,,NEW MUMTAZ MEDICAL STORE,2605,191-2512
ChIJixl7SwM9sz4RbYorpxLKdLE,,Al Zaeem Medical Centre,24.8316774,67.0728686,OPERATIONAL,"hospital, health, point_of_interest, establishment",#N/A,,,SINDH MEDICAL STORE 2,2606,191-13345
ChIJvWs2zAI9sz4RMUILkzVP63c,,TIH DHA collection center,24.8293729,67.0734771,OPERATIONAL,"hospital, health, point_of_interest, establishment",#N/A,,,MEER M/S,2607,191-13721
ChIJxyDoW089sz4R2vzurUwAFB8,,Walkerville Veterinary hospitals,24.8284429,67.0766716,OPERATIONAL,"hospital, health, point_of_interest, establishment",#N/A,,,FAISAL CHEMIST,2608,191-3788
ChIJV4frFTM9sz4RtjiNgE0NMEQ,,Baitussalam Laboratory & Diagnostic Centre,24.8313052,67.0786729,OPERATIONAL,"hospital, health, point_of_interest, establishment",#N/A,,,KAMI MEDICAL STORE,2609,191-10809
ChIJsR7CNWw8sz4R-tQz4ycCWqw,,NICVD Chest Pain Unit under Qayyumabad Chowrangi Flyover,24.8309054,67.0790022,OPERATIONAL,"hospital, health, point_of_interest, establishment",#N/A,,,FRENCH MEDICOS,2610,191-369
ChIJj4gMMms8sz4RgyhENk-EZy0,,Naseem Medical Centre,24.834177,67.074039,OPERATIONAL,"hospital, health, point_of_interest, establishment",#N/A,,,ASGHAR PHARMACY INSIDE,2611,191-5670
ChIJtxHbVKw9sz4Rs2drvDHzzDc,,Nextgenelife,24.8326948,67.0719845,OPERATIONAL,"hospital, health, point_of_interest, establishment",#N/A,,,TIME MEDICAL STORE.,2612,191-5191
ChIJbwSBaWo8sz4RJCQWlgkoXzw,,Pakistan Research Institute Of Eastern Medicine (PRIEM) Clinics,24.8302195,67.0716059,OPERATIONAL,"hospital, health, point_of_interest, establishment",#N/A,,,THE PHARMACY,2613,191-455
ChIJtSVziI09sz4RqTh6Az29_H0,,Naseem Children Hospital (NCH),24.8342375,67.0737529,OPERATIONAL,"hospital, health, point_of_interest, establishment",#N/A,,,AL-ASHRAF MEDICAL STORE,2614,191-647
ChIJy3NTuno8sz4RgHMSPHZBc9w,,Mahnoor Medical Center,24.8238039,67.0831236,OPERATIONAL,"hospital, point_of_interest, health, establishment",#N/A,,,GHOSIA MEDICAL STORE,2615,191-3143
ChIJnbqarXo8sz4RP2ukv-bIVS8,,Ghafoor Memroial Maternity Home,24.8239246,67.0823789,OPERATIONAL,"hospital, point_of_interest, health, establishment",#N/A,,,TASMIYA M/S & HOSPITAL,2616,191-6991
ChIJMc9MIoQ9sz4R2XLASnSu3O4,,?????? ?????,24.824453,67.0824548,OPERATIONAL,"hospital, point_of_interest, health, establishment",2796,,,AL SAFA SUPER MARKET,2617,191-3192
ChIJ6zX73Xc9sz4R3DteVzVjGU8,,???? ????? Nisar Clinic,24.8255332,67.0812123,OPERATIONAL,"hospital, point_of_interest, health, establishment",#N/A,,,MUMTAZ MEDICAL STORE.,2618,191-10688
ChIJI-PQkUY9sz4RFOVrZZbTivQ,,Sara Medical & Diagnostic Centre,24.8281102,67.0790642,OPERATIONAL,"hospital, point_of_interest, health, establishment",#N/A,,,ALI M/S,2619,191-3987
ChIJaeCJOHcXsz4RIpqXJredeRo,,The clinic,24.8217183,66.9842762,OPERATIONAL,"doctor, health, point_of_interest, establishment",#N/A,,,BURHANI MEDICOS AND MART,2620,191-10702
ChIJ85gDNHcXsz4RaCCCtDW3yVI,,ALi CLiNiC,24.8237816,66.9897348,OPERATIONAL,"doctor, health, point_of_interest, establishment",#N/A,,,PAK M/S,2621,191-10657
ChIJ36KihOkXsz4RDu1ow2-EO1U,,Alam Clinic,24.8208053,66.9963568,OPERATIONAL,"doctor, health, point_of_interest, establishment",#N/A,,,LYFE PHARMACY,2622,191-11187
ChIJWa9MECAWsz4RvcvdRUxe2F8,,Dr . Saeed Clinic,24.8212888,66.9979384,OPERATIONAL,"doctor, health, point_of_interest, establishment",#N/A,,,SIND MEDICAL STORE.,2623,191-9058
ChIJj2gfqUUXsz4RFZprperS2ow,,Dr Nadeem Qazi Clinic,24.8201431,66.9979644,OPERATIONAL,"doctor, health, point_of_interest, establishment",#N/A,,,KHAN MEDICOS,2624,191-7175
ChIJVVVVlYk9sz4ROmzr0BdQX5w,,Dr.Arslan Reconstructive & Aesthetic Surgery,24.8156416,67.0002481,OPERATIONAL,"doctor, health, point_of_interest, establishment",#N/A,,,SKY PHARMACY,2625,191-14049
ChIJ95ZO24s9sz4RKj7pWjPCirk,,New life Homeo Centre 1,24.818024,67.0028569,OPERATIONAL,"doctor, health, point_of_interest, establishment",#N/A,,,MEDICINE BANK PHARMACY.,2626,191-9640
ChIJh5PV9089sz4RBrAequyNGkQ,,Dr Nauman Zafar Khan at Altamash General Hospital,24.8152975,67.0025136,OPERATIONAL,"doctor, health, point_of_interest, establishment",#N/A,,,ABAAN MEDICAL & GENERAL STORE,2627,191-4631
ChIJzVYNR8E9sz4R0Lw4f2dcE_Y,,Prof. Dr. Akbar Ali Khan (Best Minimally Invasive Brain and Spinal Neurosurgeon) Karachi Pakistan,24.8161441,67.0031655,OPERATIONAL,"doctor, health, point_of_interest, establishment",#N/A,,,DR. RASHID JAMIL PEERZADA,2628,191-10128
ChIJ0TO5Zv89sz4RjXLOGbUeX1w,,Haris Medical And General Store,24.8212002,67.0067884,OPERATIONAL,"doctor, health, point_of_interest, establishment",#N/A,,,TIME MEDICOS,2629,191-10221
ChIJt7acHpg9sz4Rkz09HMELIpQ,,Altamash Dental Clinic,24.8145301,67.0217523,OPERATIONAL,"dentist, point_of_interest, doctor, health, establishment",#N/A,,,YOUNUS MEDICAL STORE,2630,191-1237
ChIJX_3itJA9sz4RGSqa4u9nSYo,,Transform,24.8152022,67.0164959,OPERATIONAL,"doctor, point_of_interest, health, establishment",#N/A,,,AL MADINA MEDICINE,2631,191-1637
ChIJ99YrD5o9sz4R_cJHhHHqKy0,,Clinic,24.8135091,67.0157443,OPERATIONAL,"doctor, point_of_interest, health, establishment",#N/A,,,EASTERN SUPER MARKET MEDICAL S,2632,191-6479
ChIJkU3Ydls9sz4RV2G0rZKQMho,,Children and family care clinic,24.8133588,67.0189802,OPERATIONAL,"point_of_interest, doctor, health, establishment",#N/A,,,PRIME MEDICOS,2633,191-14428
ChIJMat81To9sz4R_6lf5fEUJNo,,"Synapse, Pakistan Neuroscience Institute",24.8157698,67.0220783,OPERATIONAL,"point_of_interest, doctor, health, establishment",#N/A,,,MIDCITI PHARMACY,2634,191-12057
ChIJp2QObI09sz4Rjuvy73My0vY,,Skin Institute,24.8155799,67.0220444,OPERATIONAL,"doctor, point_of_interest, health, establishment",#N/A,,,GHAZALI MEDICAL STORE,2635,191-10244
ChIJdUOA5lU9sz4Rbu8d8hlc8qY,,The Chest Clinic Karachi,24.8155479,67.0220413,OPERATIONAL,"point_of_interest, doctor, health, establishment",#N/A,,,NABEEL MEDICAL STORE,2636,191-4593
ChIJNyzQwAk9sz4RBSUw9C5Aduc,,Skin Solutions,24.803709,67.0304412,OPERATIONAL,"doctor, health, point_of_interest, establishment",#N/A,,,THE PHARMACY ( NEUROLOGY CENTE,2637,191-10798
ChIJjSrqcew-sz4RjjjPkIVgKLw,,Elegance Hair Transplant Karachi,24.8086111,67.032517,OPERATIONAL,"doctor, health, point_of_interest, establishment",#N/A,,,PRISIM PHARMACY,2638,191-3182
ChIJJfnMb-w-sz4RxKiAd7AoFmM,,Elegance Plastic Surgery Clinic,24.8086145,67.0325189,OPERATIONAL,"doctor, health, point_of_interest, establishment",#N/A,,,JAWEED MEDICAL STORE,2639,191-1863
ChIJCTccriU9sz4RRO-sBK9kQ00,,Irfan Qureshi 105/C New Town,24.8139194,67.0215558,OPERATIONAL,"dentist, doctor, health, point_of_interest, establishment",#N/A,,,HABIB MEDICAL STORE,2640,191-7184
ChIJTVGN-4I9sz4Rk_bgeAUpT2U,,Dr Zia ul Islam FRCS(Plast),24.8136854,67.0221444,OPERATIONAL,"doctor, health, point_of_interest, establishment",#N/A,,,SHAHEEN PHARMA,2641,191-513
ChIJ1__6Tuc9sz4R-sN_rPs1jPs,,???? ???????????? ????????????,24.8140592,67.0223063,OPERATIONAL,"doctor, health, point_of_interest, establishment",2468,,,BACHA AND BROTHER 2,2642,191-14557
ChIJVVWVCJg9sz4RaW_ZcAV5JnU,,????. ???????????? ????????,24.8141213,67.0223505,OPERATIONAL,"doctor, health, point_of_interest, establishment",#N/A,,,RASHEED AND SONS,2643,191-876
ChIJW85KHzA9sz4RbAZ_yPK39O4,,Dr. Wasey Jilani - Interventional Radiology Clinic,24.8140164,67.0224336,OPERATIONAL,"doctor, health, point_of_interest, establishment",#N/A,,,A.K PHARMACY,2644,191-13967
ChIJLdbYlkg9sz4RHsw8yH0EUqA,,Dr Tahir Shafi Khan Celebrity Plastic Surgeon,24.8140853,67.0224124,OPERATIONAL,"doctor, health, point_of_interest, establishment",#N/A,,,"R.M.A MEDICO,S",2645,191-9028
ChIJ_8qFBu89sz4RdT7exF39JNE,,"Prof. Dr Ayesha Nageen, MBBS, FCPS, General Physician & Consultant Internal Medicine at South City Hospital, Clifton, Karachi",24.8140809,67.0224772,OPERATIONAL,"doctor, health, point_of_interest, establishment",#N/A,,,DUA M/S C/O DR. ZAKIR ULLAH,2646,191-3700
ChIJsT61FbA9sz4RLtCi1jGiOns,,Advance Hair Transplant and Plastic Surgery Clinic,24.821262,67.034781,OPERATIONAL,"doctor, health, point_of_interest, establishment",#N/A,,,KARACHI CHEMIST.,2647,191-8424
ChIJ_1s5C649sz4RVQK0Wck-J5Q,,The Mall Clinic,24.8164594,67.0402442,OPERATIONAL,"doctor, health, point_of_interest, establishment",#N/A,,,MADINA M/STORE,2648,191-1009
ChIJ0VVapK09sz4RakHvkTapo8E,,Makeover,24.8163722,67.0429337,OPERATIONAL,"doctor, health, point_of_interest, establishment",#N/A,,,"AMI,S MEDICAL STORE.",2649,191-252
ChIJ___DlaI9sz4RbfO7f0SW4bU,,Dr. Mumtaz Maher,24.8136363,67.0238165,OPERATIONAL,"doctor, health, point_of_interest, establishment",#N/A,,,WARDA MEDICAL STORE,2650,191-9225
ChIJ0eKrqLA9sz4RSj4qjNjB5rA,,Prof. Shahid Femto-Lasik & Day Care Center,24.8136176,67.0237234,OPERATIONAL,"doctor, health, point_of_interest, establishment",#N/A,,,RAJA MEDICAL AND GENERAL STORE,2651,191-13710
ChIJ2wemwLc9sz4R2TKl7Gte1sM,,Dental Care Centre,24.8269913,67.0363567,OPERATIONAL,"doctor, point_of_interest, health, establishment",#N/A,,,NEW NAGORI MEDICOS,2652,191-8413
ChIJQfkNwbc9sz4RFRXjOpgu9RI,,Clinic5 - For Women and Children,24.8271982,67.036281,OPERATIONAL,"doctor, point_of_interest, health, establishment",#N/A,,,DR. ZARWALI KHAN,2653,191-5935
ChIJkXzP2sc9sz4RWOqTipxhIIA,,Friends Optical Hearing and Vision Gallery (Clifton),24.8300604,67.0335754,OPERATIONAL,"point_of_interest, doctor, health, store, establishment",#N/A,,,TUBA MEDICAL STORE.,2654,191-6841
ChIJKUNk3s89sz4RjRNT7BVFRg4,,Smile Pro Dental And Aesthetic Clinic,24.822402,67.0274467,OPERATIONAL,"dentist, beauty_salon, spa, point_of_interest, doctor, health, establishment",#N/A,,,FAZAL MEDICAL STORE,2655,191-9420
ChIJmxsS5L49sz4RZJKHQJy5z1c,,Medical Aesthetic centre,24.8236057,67.0266539,OPERATIONAL,"doctor, point_of_interest, health, establishment",#N/A,,,CHAUDHRY MEDICAL STORE,2656,191-3731
ChIJsfO2eUs9sz4RvsuC1QB7etE,,Dr. Umer Pain Relief & Chiropractic Care - Best Chiropractor in Karachi - Sports Injuries Expert - Exercise Specialist,24.8230165,67.0275728,OPERATIONAL,"point_of_interest, doctor, health, establishment",#N/A,,,AMJAD MEDICAL CENTRE.,2657,191-1248
ChIJI-x0l8g9sz4Rd84Qv3lk_n8,,Australian Concept Fertility Centre,24.8321828,67.0354151,OPERATIONAL,"doctor, health, point_of_interest, establishment",#N/A,,,THE PHARMACY,2658,191-13997
ChIJ6TWANhE9sz4RmUbtj2YwgWw,,DR Mubsher Ikram ENT,24.8291293,67.0214347,OPERATIONAL,"doctor, health, point_of_interest, establishment",#N/A,,,GULSHAN M/S NEAR OLD SABZI MAN,2659,191-6179
ChIJJXD2ulw9sz4RXZa3n0yS1Kw,,Dr. Farzana Dental Clinic,24.8364853,67.0272336,OPERATIONAL,"doctor, health, point_of_interest, establishment",#N/A,,,DR. TAHIR NAEEM PHARMACY.,2660,191-7370
ChIJJWjqj7g9sz4Rlr78D4uCHwY,,Jivani Clinic,24.8267052,67.0308845,OPERATIONAL,"doctor, health, point_of_interest, establishment",#N/A,,,HASSAN  MEDICAL STORE,2661,191-1897
ChIJd0GQowc9sz4Rmse_9CArQI0,,Dr. Feroz G. Rahimatullah,24.8259017,67.030365,OPERATIONAL,"doctor, health, point_of_interest, establishment",#N/A,,,DR. MEHMOOD KHAN,2662,191-12534
ChIJzWsMjLg9sz4RB4avM5GzXCQ,,Ali Clinic,24.8264375,67.0311875,OPERATIONAL,"doctor, health, point_of_interest, establishment",#N/A,,,MADINA MEDICAL STORE,2663,191-4303
ChIJCSqMnZ09sz4RtFAqu8iFo8I,,Hussain Clinic,24.8264563,67.0312074,OPERATIONAL,"doctor, health, point_of_interest, establishment",#N/A,,,FAIZCO MEDICAL STORE,2664,191-6865
ChIJq-7LGhE9sz4R4Uh44j-M-6g,,Dr.Sarochana Khemani,24.8339767,67.0328239,OPERATIONAL,"doctor, health, point_of_interest, establishment",#N/A,,,NEW M.A MEDICAL STORE,2665,191-10704
ChIJc9Jg3cU9sz4RIp82ZP_fkUE,,JS Ultrasound,24.8340366,67.0330328,OPERATIONAL,"doctor, health, point_of_interest, establishment",#N/A,,,AHMAD M/S,2666,191-14507
ChIJnUsrtq89sz4RfDRAFwlNLRM,,Hamdan Nana House????? ?? ????,24.8044659,67.0331836,OPERATIONAL,"doctor, point_of_interest, health, establishment",#N/A,,,JADOON MEDICAL STORE,2667,191-9349
ChIJAQAAcKc9sz4RR3nRGz8hd80,,DR FAISAL AKHLAQ,24.8057525,67.0307952,OPERATIONAL,"point_of_interest, doctor, health, establishment",#N/A,,,UZMA M/STORE,2668,191-2631
ChIJcwOXOGA9sz4RyWzmadh4Sek,,Aesthetics & Dental Implantology Centre,24.8064345,67.0395927,OPERATIONAL,"dentist, point_of_interest, doctor, health, establishment",#N/A,,,AMIR BROTHERS MEDICAL STORE,2669,191-648
ChIJr51zbnc9sz4R7yMqrXBWRKU,,Domestic Servant Services,24.8063569,67.0300763,OPERATIONAL,"point_of_interest, doctor, health, establishment",#N/A,,,DR. RAYAZ SHAH BUKHARI,2670,191-8828
ChIJm8mpUS09sz4RIIGXtPmkaZY,,Mahar Medical Center,24.8082849,67.0365341,OPERATIONAL,"doctor, point_of_interest, health, establishment",#N/A,,,ZOHAIB MEDICAL STORE,2671,191-1474
ChIJx7v97QI9sz4RTngqqPaYekk,,Family Care Clinic,24.7983821,67.044545,OPERATIONAL,"doctor, point_of_interest, health, establishment",#N/A,,,NEW MOTTAS SUPER MARKET,2672,191-6205
ChIJ7TCQgfY9sz4RY-746Fa1CCw,,Dr.Noman's Sports Injury and Pain Management Clinic,24.8081937,67.0294269,OPERATIONAL,"point_of_interest, doctor, health, establishment",#N/A,,,AL-KHALIL M/S,2673,191-4473
ChIJ01_xOy09sz4RDXbTBix1KqQ,,Shams Clinic,24.8100852,67.0370388,OPERATIONAL,"doctor, point_of_interest, health, establishment",#N/A,,,MAMJI MEDICAL STORE,2674,191-4604
ChIJXad0Aa49sz4ROz-KNgxSuWE,,Dr. Rafiq Tareen Skin Clinic,24.7968969,67.0443496,OPERATIONAL,"doctor, point_of_interest, health, establishment",#N/A,,,DR. RIAZ ALI MEHAR,2675,191-5980
ChIJkXBgUME9sz4R4nu_pfU_1L8,,The Health Clinic,24.7994653,67.0457267,OPERATIONAL,"doctor, point_of_interest, health, establishment",#N/A,,,IMRAN M/S NEAR STAR M/S,2676,191-3893
ChIJJZ3Ssvs9sz4RddYtFctHFmw,,Bilal Digital XRay Center,24.8140884,67.0359779,OPERATIONAL,"point_of_interest, doctor, health, establishment",#N/A,,,NEW IFTIKHAR MEDOCAL STORE,2677,191-14559
ChIJVVVVJaU9sz4RDCrLZALNxbs,,"Dr. S. M. Hammad, DLO.",24.8157265,67.0323242,OPERATIONAL,"point_of_interest, doctor, health, establishment",#N/A,,,FAHEEM S CHEMIST SUPER STORE,2678,191-3454
ChIJSSHsu0Y9sz4RbQ_T1zWOpeI,,NAVEEN CLINIC,24.8213919,67.0349114,OPERATIONAL,"point_of_interest, doctor, health, establishment",#N/A,,,SAMMY'S PHARMACY,2679,191-4093
ChIJNSo9xWw9sz4RHoomz590LOc,,Dr Farhan Mir Shaikh,24.821565,67.0351398,OPERATIONAL,"point_of_interest, doctor, health, establishment",#N/A,,,AMAN MEDICOS,2680,191-4215
ChIJ9XZWobA9sz4RkTSbyo5h-_8,,Derma and Dental Center,24.8214638,67.034909,OPERATIONAL,"doctor, point_of_interest, health, establishment",#N/A,,,PARADISE PHARMACY,2681,191-2370
ChIJoVWf8wQ9sz4Rg5ybzdwTv88,,Dr Daulat Pinjani clinics,24.8317224,67.0348305,OPERATIONAL,"point_of_interest, doctor, health, establishment",#N/A,,,IQRA MEDICAL STORE,2682,191-14078
ChIJeQg28489sz4R2XDpybMIXN8,,how it services,24.8321397,67.0340478,OPERATIONAL,"doctor, point_of_interest, health, establishment",#N/A,,,SIRAJ MEDICAL STORE,2683,191-3146
ChIJJX3g_Mc9sz4RgRRo8_7w3VA,,Opticraft,24.8288793,67.0340378,OPERATIONAL,"point_of_interest, doctor, health, store, establishment",#N/A,,,A. R. MEDICAL STORE,2684,191-6346
ChIJGcTBf2E9sz4RaGuC0UgwS9M,,Seo Agency Pakistan,24.8302062,67.0390688,OPERATIONAL,"point_of_interest, doctor, health, establishment",#N/A,,,AL- MADINA M/S,2685,191-4047
ChIJZyCI58U9sz4R37PtnNuINzQ,,Khemani Clinic,24.8340109,67.0330553,OPERATIONAL,"point_of_interest, doctor, health, establishment",#N/A,,,LIFE CARE M / STORE,2686,191-4535
ChIJZ_yuYvk9sz4RRI-AgGQ1pks,,Dr BM Rathore,24.8340304,67.0330764,OPERATIONAL,"point_of_interest, doctor, health, establishment",#N/A,,,BISMILLAH MEDICAL STORE,2687,191-1197
ChIJfYZ2Q9w9sz4RbdDqhMm1_ww,,The Dentist Family Care Clinic,24.8349562,67.0358531,OPERATIONAL,"dentist, point_of_interest, doctor, health, establishment",#N/A,,,YOUNUS MEDICAL STORE.,2688,191-3881
ChIJfcB-tno9sz4RYiYYthuwIWU,,Sindh Medical Clinic,24.8344989,67.0332207,OPERATIONAL,"point_of_interest, doctor, health, establishment",#N/A,,,KARACHI MEDICAL STORE,2689,191-3247
ChIJydt259k9sz4RPj5-6G9Z5K8,,SkinXperts Clinic by Dr. Javed Alam Farooqui,24.7936254,67.048749,OPERATIONAL,"doctor, health, point_of_interest, establishment",#N/A,,,RAHIM HOSPITAL PHARMACY.,2690,191-4610
ChIJKS6NMyePnQwROO1vHe_3OLU,,The Aesthetics Clinic By Dr Samina Habib,24.7942483,67.0482637,OPERATIONAL,"doctor, beauty_salon, hair_care, health, point_of_interest, establishment",#N/A,,,IQBAL GENERAL HOSPITAL,2691,191-10947
ChIJXTYAZAA9sz4RUv9knQX-COw,,Derm Aesthetics by Dr Hina Fahd,24.794695,67.0491229,OPERATIONAL,"doctor, health, point_of_interest, establishment",#N/A,,,DR. REHAN'S CLINIC LABORATORY,2692,191-11333
ChIJ9-UPFxM_sz4REkcpdVijguY,,Fahad Mirza Plastic Surgeon,24.7950946,67.0499071,OPERATIONAL,"doctor, health, point_of_interest, establishment",#N/A,,,STAR MEDICAL STORE,2693,191-1786
ChIJZ28gPuQ9sz4Ricx4OGLhg6w,,Qazi Sajid,24.7914203,67.0521132,OPERATIONAL,"doctor, health, point_of_interest, establishment",#N/A,,,BABU MEDICOS (ZUBAIR),2694,191-11221
ChIJaZ8Blmg9sz4RWOmcCBMXqtA,,Dr huma punja,24.7978164,67.0464796,OPERATIONAL,"doctor, health, point_of_interest, establishment",#N/A,,,NAFEES CLINIC.,2695,191-7772
ChIJPdjWrTA9sz4RnwzS-1g0bAc,,O.S.C Cochlear Implant,24.7963086,67.0502296,OPERATIONAL,"doctor, health, point_of_interest, establishment",#N/A,,,HAREEM DRUG MART,2696,191-12866
ChIJn1SFoQM9sz4RnTTQguysz0w,,Pure Smiles Dental,24.7984576,67.0472171,OPERATIONAL,"doctor, health, point_of_interest, establishment",#N/A,,,IDEAL MEDICAL STORE,2697,191-2451
ChIJyfo4QjE9sz4RCSH2NKVeDPU,,S&S Dental Solutions,24.7984657,67.0473192,OPERATIONAL,"dentist, doctor, health, point_of_interest, establishment",#N/A,,,DR. TAYYAB,2698,191-10687
ChIJ2696sEU9sz4RqIbttE66Z94,,Abc,24.7875422,67.0586363,OPERATIONAL,"doctor, health, point_of_interest, establishment",#N/A,,,OSAMA MEDICAL STORE,2699,191-2045
ChIJbbuCTGA8sz4RYoxl8X4xm8c,,Dr Arif Hussain - Best Plastic Surgeon in Karachi,24.8060816,67.0611519,OPERATIONAL,"point_of_interest, doctor, health, establishment",#N/A,,,AL-SHAFI MEDICAL STORE,2700,191-12741
ChIJRRkez5c9sz4RCG5LrpCr0V0,,Clove Dental Clinic,24.8132485,67.0491584,OPERATIONAL,"doctor, health, point_of_interest, establishment",#N/A,,,AL-MADINA MEDICOS,2701,191-9911
ChIJRT5deFM8sz4RhEOboH-Jh-0,,Dr Gaiti Azam Zaidi Clinic,24.8142288,67.0493379,OPERATIONAL,"doctor, health, point_of_interest, establishment",#N/A,,,AL-MAKKAH MEDICAL STORE,2702,191-4906
ChIJiU778YE9sz4RVSnMTwnuYS0,,Dr Mahnoor Mangi,24.8155758,67.0478668,OPERATIONAL,"doctor, health, point_of_interest, establishment",#N/A,,,REHMAN MEDICAL STORE,2703,191-3121
ChIJS-nnyTY9sz4RjKjatwFggf8,,Skinnovate Dermatology & Hair Transplant,24.8157872,67.0424731,OPERATIONAL,"doctor, health, point_of_interest, establishment",#N/A,,,BABA MEDICOS,2704,191-8464
ChIJxX_EKAA9sz4Rk8rTezgDZis,,Lotus skin and aesthetic clinic,24.8158146,67.0423092,OPERATIONAL,"doctor, health, point_of_interest, establishment",#N/A,,,ALLAH TAWWAKAL MEDICAL STORE,2705,191-3643
ChIJswEu0rI9sz4REmoI3Bd3vKU,,Dr amber usman skin clinic,24.8159139,67.0418146,OPERATIONAL,"doctor, health, point_of_interest, establishment",#N/A,,,SIDDIQUE BROS. MEDICAL STORE.,2706,191-3536
ChIJb-gXFbw9sz4Rv3sQcNoRIBk,,The Eye Care Surgery,24.8153134,67.0498528,OPERATIONAL,"doctor, health, point_of_interest, establishment",#N/A,,,AGHA MEDICAL STORE.,2707,191-9647
ChIJFcKGINo9sz4R5WMYJz6fOrs,,Shaista Lodhi Aesthetics Clinic,24.8142716,67.0510661,OPERATIONAL,"doctor, health, point_of_interest, establishment",#N/A,,,AL-AZEEM MEDICAL STORE,2708,191-11634
ChIJ59fY2sA9sz4RB4DSPXuChEM,,"Dr. Sadiq Khan’s Hair Restoration, Face & Body makeover Clinic",24.8164953,67.0417181,CLOSED_TEMPORARILY,"doctor, health, point_of_interest, establishment",#N/A,,,NEW FATTAH MEDICOS,2709,191-4263
ChIJr2aN8OE5sz4R4-n-j07bjoA,,Reviv - Oxyderm Clinic,24.8169404,67.0421297,OPERATIONAL,"doctor, health, point_of_interest, establishment",#N/A,,,PRISM PHARMACY,2710,191-364
ChIJrUE4P749sz4REYYXxzUm058,,AL SAUDIA TIBBI FOUNDATION,24.8203344,67.0468756,OPERATIONAL,"doctor, point_of_interest, health, establishment",#N/A,,,SHAZ MEDICAL STORE,2711,191-9029
ChIJA_BIsgw9sz4R04o9YCLAmMQ,,Dr. Zain Ul Abideen,24.8193875,67.0457465,OPERATIONAL,"point_of_interest, doctor, health, establishment",#N/A,,,CHAILTRAN MEDICAL STORE,2712,191-3410
ChIJHzVO1Cc_sz4R9DyXpwsrnuE,,Child Care Clinic,24.8240141,67.047511,OPERATIONAL,"doctor, point_of_interest, health, establishment",#N/A,,,HANIFS PHARMA,2713,191-10528
ChIJu7Rpdb89sz4RLCPRbhTz5xg,,Dr rafia khanum dental clinic,24.8180221,67.0484581,OPERATIONAL,"doctor, point_of_interest, health, establishment",#N/A,,,AL-SHIFA MEDICAL STORE,2714,191-4816
ChIJQ9YMA-o9sz4RcXrE6IrXGR0,,YK ORTHOPAEDICS,24.8187195,67.0399824,OPERATIONAL,"point_of_interest, doctor, health, establishment",#N/A,,,KHYBER MEDICAL CENTER,2715,191-5300
ChIJfd8SNYY9sz4Riuco3HIHhDk,,The Skin Clinic And Aesthetics By AU,24.8190092,67.0398211,OPERATIONAL,"point_of_interest, doctor, health, establishment",#N/A,,,A.A . MEDICOS,2716,191-11542
ChIJY8BTQw89sz4RiDKvPYjjypI,,DEEP OCEAN DERMATOLOGY | Dr. Zafar Ahmed,24.8249678,67.041049,OPERATIONAL,"point_of_interest, doctor, health, establishment",#N/A,,,AL-TAWAKKAL MEDICAL STORE,2717,191-4812
ChIJ-2o07aI9sz4RKj51oWRDk9M,,Care Dental Clinic,24.831819,67.0471629,OPERATIONAL,"doctor, health, point_of_interest, establishment",#N/A,,,SAAD M/S,2718,191-5177
ChIJwzl69RE9sz4RMhBR-UtLyn8,,Iqbal Medical,24.8328502,67.0445974,OPERATIONAL,"doctor, health, point_of_interest, establishment",#N/A,,,DR. MUSHTAQ MEMON,2719,191-5442
ChIJlxB_YQA9sz4RFKWM6_9TW2U,,Dr. Nawal Clinic,24.8289394,67.045547,OPERATIONAL,"doctor, health, point_of_interest, establishment",#N/A,,,DR. RAZA UR REHMAN,2720,191-1537
ChIJ0-zK_Pk9sz4Rcu4vuAD8-so,,Al-Shifa Energy Healing & Cupping Center,24.827589,67.0451293,OPERATIONAL,"doctor, health, point_of_interest, establishment",#N/A,,,SARDAR MEDICAL STORE,2721,191-3885
ChIJH3gZ7R89sz4RhbpiVslVReU,,Shifa Clinic,24.8273457,67.0464747,OPERATIONAL,"doctor, health, point_of_interest, establishment",#N/A,,,SHAHZAD MEDICAL STORE,2722,191-9759
ChIJW4QtbaA9sz4RNCzPZcftHz8,,B.H.Y Hospital (Dr. Ahmed S.Y Dermatologist),24.8321459,67.0408702,OPERATIONAL,"hospital, doctor, health, point_of_interest, establishment",#N/A,,,K.K.F MEDICAL STORE,2723,191-4222
ChIJ50-ZOrE9sz4RpSR2sUzf6Zs,,Central Audiology & Hearing Aid Clinic,24.8297077,67.0408923,OPERATIONAL,"doctor, health, store, point_of_interest, establishment",#N/A,,,SYNETEC  PHARMA,2724,191-14231
ChIJi25ww7Q9sz4RNnjxRuJpU3o,,Joveria Homeo Clinic,24.8270293,67.0468526,OPERATIONAL,"doctor, health, point_of_interest, establishment",#N/A,,,AMIN AYUB MEDICAL STORE.,2725,191-4135
ChIJXef7UB89sz4RI7qkrPzl5CM,,Jovaria Homeo Clinic(H/Dr. Muhammad Iqbal Khan & H/Dr. Saad Iqbal Khan),24.8270266,67.0468527,OPERATIONAL,"doctor, health, point_of_interest, establishment",#N/A,,,PRINCE M/S,2726,191-8815
ChIJcwH6ifA9sz4RPxF9QmPyR-U,,Yusra clinic,24.8268122,67.0461759,OPERATIONAL,"doctor, health, point_of_interest, establishment",#N/A,,,AL-SHIFA MEDICAL CENTER,2727,191-13941
ChIJaUz5EDM8sz4RdgkHxKQdfZ0,,Department Of Pathology PNS Shifa,24.8378811,67.0484876,OPERATIONAL,"point_of_interest, doctor, health, establishment",#N/A,,,SMART PHARMACY,2728,191-1054
ChIJm_-eDjM8sz4RI7ng6HyqvBQ,,Department Of Opthalmology,24.8377655,67.0489601,OPERATIONAL,"point_of_interest, doctor, health, establishment",#N/A,,,HOME TOWN MEDICOS,2729,191-12788
ChIJoZLmCDM8sz4Rj4zsC2tcXGE,,Department Of Orthopaedic,24.8375154,67.0488193,OPERATIONAL,"point_of_interest, doctor, health, establishment",#N/A,,,IQRA MEDICAL STORE,2730,191-2652
ChIJNYV9CTM8sz4RRkKwzgVDrUo,,Department Of Urology,24.8377989,67.0492192,OPERATIONAL,"point_of_interest, doctor, health, establishment",#N/A,,,BISMILLAH MEDICAL STORE,2731,191-10354
ChIJkVV3bzM8sz4RzH3IlYLFFsI,,Department Of Radiology,24.8366588,67.0481779,OPERATIONAL,"point_of_interest, doctor, health, establishment",#N/A,,,SOHAIL MEDICAL STORE,2732,191-12567
ChIJqflTzeA9sz4R9AFFxaYqEsA,,Dr Mansoor Zeeshan,24.8378512,67.0497617,OPERATIONAL,"point_of_interest, doctor, health, establishment",#N/A,,,SURJANI MADICOS,2733,191-4877
ChIJ353idjM8sz4RuE2rlQJwIOM,,Department Of Pediatrics,24.8369181,67.0491978,OPERATIONAL,"point_of_interest, doctor, health, establishment",#N/A,,,AHMED MEDICAL STORE.,2734,191-11000
ChIJc5y6jJ4_sz4RHTvLeVwUn7U,,Dr Muhammad Nadeem-Consultant Physician/Diabetes Specialist-PNS SHIFA HOSPITAL,24.8371022,67.0498632,OPERATIONAL,"doctor, point_of_interest, health, establishment",#N/A,,,PRINCE MEDICAL STORE.,2735,191-4246
ChIJn9aqeTM8sz4RKzOGOrraI-E,,Department Of Neurology,24.8365861,67.0492501,OPERATIONAL,"point_of_interest, doctor, health, establishment",#N/A,,,MEDIFY MEDICAL STORE,2736,191-12614
ChIJq6uqmCg9sz4R1r1bx04OZSQ,,Gynae & Obs,24.8361317,67.0490441,OPERATIONAL,"point_of_interest, doctor, health, establishment",#N/A,,,UNITED MED/GEN - STORE,2737,191-4624
ChIJM7fbnjQ8sz4RHOK-oCx_JwM,,Department Of Dermatology,24.835583,67.0481651,OPERATIONAL,"point_of_interest, doctor, health, establishment",#N/A,,,UMER MEDICAL STORE.,2738,191-4260
ChIJZeMtcTQ8sz4RI6jx-OiGd9Q,,PNS Shifa Cardiac Center,24.8349864,67.0496402,OPERATIONAL,"point_of_interest, doctor, health, establishment",#N/A,,,FIRDOUS MEDICAL STORE.,2739,191-3533
ChIJz4ryhD49sz4R5D-j1nDcNuc,,Skin Loft by Dr. Hira,24.7800127,67.0546547,OPERATIONAL,"doctor, health, point_of_interest, establishment",#N/A,,,AL-NOOR MEDICAL STORE,2740,191-7707
ChIJeZWXDEw9sz4RgOJ99kBQZ1M,,DR YASMEEN SHEIKH DERMATOLOGIST EXECUTIVE CLINICS AND DAY CARE (ex BAYVIEW),24.7794424,67.0654972,OPERATIONAL,"doctor, health, point_of_interest, establishment",#N/A,,,TURKISH MEDICAL STORE.,2741,191-1704
ChIJjYCTPiU9sz4RvBSSR6PT0sY,,Dr. Kaleem Hidayat Consultant Dental Surgeon,24.7793686,67.065491,OPERATIONAL,"doctor, health, point_of_interest, establishment",#N/A,,,PATNI  AL-HAMEED M/S,2742,191-6168
ChIJP-twA-4-sz4RSwCtkSnyN4A,,Reviv - Allure Clinics,24.7885025,67.0647386,OPERATIONAL,"doctor, health, point_of_interest, establishment",#N/A,,,FIVE STAR MEDICAL STORE,2743,191-894
ChIJ5UMK7as9sz4RcZN94ULbVVs,,Al sante enhancing health,24.7921248,67.0642609,OPERATIONAL,"doctor, health, point_of_interest, establishment",#N/A,,,MASHAHALLAH MEDICAL STORE.,2744,191-3797
ChIJ2ZtPaek8sz4R-nM-sYPVU1I,,The Skin DHA Branch,24.7931859,67.0625236,OPERATIONAL,"doctor, health, point_of_interest, establishment",#N/A,,,WELLCOME MEDICAL STORE,2745,191-8024
ChIJKQcsIZg9sz4RbPxj2JWAjrY,,Durrani's Dental Clinic,24.791596,67.0665028,OPERATIONAL,"dentist, doctor, health, point_of_interest, establishment",#N/A,,,METROLINES HOSPITAL,2746,191-9509
ChIJXdt0_o45sz4R2LvziZMWWBY,,"Dr Hannah P. Memon, Consultant Psychiatrist",24.7921327,67.0659183,OPERATIONAL,"doctor, health, point_of_interest, establishment",#N/A,,,ASIF MEDICOS,2747,191-8703
ChIJF2WG3BQ9sz4RM5r5JNbS5cE,,Revive - House of Dermatology & Healthcare,24.7928706,67.064986,OPERATIONAL,"doctor, health, point_of_interest, establishment",#N/A,,,ASLAM MEDICAL STORE,2748,191-3510
ChIJt-NVbcc_sz4RVWf11zeQFHg,,Sadhu Nails Reflexology,24.7923182,67.0659459,OPERATIONAL,"doctor, health, point_of_interest, establishment",#N/A,,,AL-SHIFA M/S,2749,191-8216
ChIJeV6I8es8sz4RZwpcnzkzvJE,,Dr. Mohammad Jawad,24.793233,67.0655054,OPERATIONAL,"doctor, health, point_of_interest, establishment",#N/A,,,NEW LASBELA MEDICAL STORE.,2750,191-9574
ChIJKaiq7iM9sz4RrE-Tjey6XFU,,Dr Ayesha (Oh My Dentist_),24.8086726,67.057747,OPERATIONAL,"doctor, dentist, point_of_interest, health, establishment",#N/A,,,CANTT SUPER MART,2751,191-2400
ChIJr0yVzII9sz4R-WZjanmnWxY,,Dr Mubina Agboatwalla (Child Specialist),24.8043314,67.0633089,OPERATIONAL,"doctor, point_of_interest, health, establishment",#N/A,,,SHOP N SAVE SUPER MART,2752,191-10016
ChIJX2lJ5rw9sz4RyuXxcmAriEo,,The Golden Crown Dental Surgery,24.8071135,67.0611578,OPERATIONAL,"point_of_interest, doctor, health, establishment",#N/A,,,CHOHAN MEDICAL AND GENERAL STO,2753,191-3223
ChIJrYAjRr89sz4RO2NeE_viRpU,,Karachi Dermatology Laser,24.804391,67.0634186,OPERATIONAL,"point_of_interest, doctor, health, establishment",#N/A,,,MADINA MEDICOS,2754,191-4539
ChIJoe46_cc9sz4R-nig6Tf5IVE,,RAIS OPTIX ?????EYE CARE CLINIC ??????/SHAHBAZ COMMERCIAL,24.807669,67.0611794,OPERATIONAL,"point_of_interest, doctor, health, store, establishment",#N/A,,,SAAD MEDICAL STORE,2755,191-4987
ChIJT7gBye89sz4RBG4gvPzAdvs,,Dr. Moeez Fatima,24.8076546,67.0614187,OPERATIONAL,"point_of_interest, doctor, health, establishment",#N/A,,,AHMED MEDICAL STORE.,2756,191-4608
ChIJoa0znkg9sz4RQhNYLTiLHqU,,The Saeeds,24.8118173,67.0540661,OPERATIONAL,"doctor, health, point_of_interest, establishment",#N/A,,,K.K.F PHARMACY,2757,191-7959
ChIJi2EJQvY8sz4Rp-hqVz0YTW8,,Family Dental Clinic,24.8087307,67.0631762,OPERATIONAL,"doctor, health, point_of_interest, establishment",#N/A,,,RAFAH-E-AAM MEDICAL STORE,2758,191-10321
ChIJ9ywxqp09sz4RhGkVOFMOEqY,,Dr. Umar ENT Surgeon,24.8240234,67.0517772,OPERATIONAL,"doctor, point_of_interest, health, establishment",#N/A,,,COLONY M/S,2759,191-10385
ChIJN8E9DJ09sz4RxfbrxZnzv8c,,Dr.Ilyas,24.82543,67.0581214,OPERATIONAL,"doctor, point_of_interest, health, establishment",#N/A,,,MUHAMMADI MEDICO AND GENERAL S,2760,191-12762
ChIJxfnH3_M9sz4RbEhxhnM8U0s,,Best Orthopaedic Doctor in Karachi,24.8280403,67.055503,OPERATIONAL,"doctor, point_of_interest, health, establishment",#N/A,,,MADINA MEDICAL STORE.,2761,191-1258
ChIJqefAcwA9sz4R_t5MpSyZXXw,,NEF DERMA & AESTHETICS,24.8212665,67.0648668,OPERATIONAL,"point_of_interest, doctor, health, establishment",#N/A,,,AL- MASOOD PHARMACY,2762,191-14125
ChIJcatIKrM9sz4R0zc7trgE6CI,,Dr. Seema Zia’s SkinTech Laser Center,24.8284955,67.0504152,OPERATIONAL,"point_of_interest, doctor, health, establishment",#N/A,,,ZOHRA MEDICAL COMPLEX,2763,191-468
ChIJcT7XsRs9sz4Ra2nRC1XYG4I,,SkinTech Laser Centre,24.8284955,67.0504152,OPERATIONAL,"point_of_interest, doctor, health, establishment",#N/A,,,STAR MEDICAL STORE BELLA,2764,191-7562
ChIJY4pITeE9sz4R_fjjrToAee8,,Dr Ravi Kumar,24.8286168,67.0506097,OPERATIONAL,"point_of_interest, doctor, health, establishment",#N/A,,,GET WELL PHARMACY,2765,191-6984
ChIJc-xeuVw8sz4RIsCjlZKUUbE,,"Care & Cure , Dr. Suhail Ahmed",24.8208306,67.0654272,OPERATIONAL,"doctor, point_of_interest, health, establishment",#N/A,,,SAEED MEDICAL STORE.,2766,191-1199
ChIJezXvHGs8sz4RCzm8RFZzFdA,,Pakistan Pediatric Association,24.8323787,67.0735449,OPERATIONAL,"point_of_interest, doctor, health, establishment",#N/A,,,KARACHI MEDICAL STORE,2767,191-11080
ChIJBYr5kls9sz4Rv9qX5VXyz5Y,,No,24.8301837,67.0606081,OPERATIONAL,"point_of_interest, doctor, health, establishment",#N/A,,,DR. MUKESH KUMAR VALICHA Al-Sh,2768,191-10943
ChIJO1wXk8M9sz4RcGWj_SmsVl8,,Dr. Shahla Munir. Laser Derm clinic,24.8290963,67.0642559,OPERATIONAL,"doctor, point_of_interest, health, establishment",#N/A,,,DAY NIGHT MEDICOS,2769,191-11976
ChIJiV0HqyM9sz4RIbYwGFhdL7o,,Aesthetic Clinic,24.8412417,67.0566498,OPERATIONAL,"doctor, health, point_of_interest, establishment",#N/A,,,COMBINE MEDICAL AND SUPER STOR,2770,191-13560
ChIJxdcC93Y9sz4Rx4ss8u7sGjw,,Dr Syed Mehboob Alam,24.8412544,67.0566761,OPERATIONAL,"doctor, health, point_of_interest, establishment",#N/A,,,SHEROZ PHARMA,2771,191-2309
ChIJ23xe1TM9sz4RCx83dLjwMbo,,Dr. M. Nasir Sulaiman,24.8400784,67.05804,OPERATIONAL,"doctor, health, point_of_interest, establishment",#N/A,,,ABID M/S,2772,191-9990
ChIJg3Cik3Q9sz4RBtbGI5_mg84,,Hash Dental Clinic - Dentist in Karachi,24.8437365,67.0552071,OPERATIONAL,"dentist, doctor, health, point_of_interest, establishment",#N/A,,,KAKOO MEDICAL STORE.,2773,191-8321
ChIJW244sxQ9sz4RPN6aJOv5eWY,,Hash Invasive,24.8437458,67.0552244,OPERATIONAL,"doctor, health, point_of_interest, establishment",#N/A,,,MEMON DARUL SHIFA MEDICAL CENT,2774,191-13717
ChIJ8eIyt_w9sz4RqNUD866ODVc,,Gastrointestinal & Liver Practice (GILP),24.8439399,67.0555368,OPERATIONAL,"pharmacy, doctor, health, store, point_of_interest, establishment",#N/A,,,BAB-E-SHIFA MEDICOS,2775,191-13620
ChIJMRFoR8M9sz4RCfJp5gDMH_I,,Prof.Mashoor Alam Shah,24.7877506,67.0722513,OPERATIONAL,"doctor, health, point_of_interest, establishment",#N/A,,,BABA MEDICOS,2776,191-13454
ChIJPZ41nNU9sz4RKTWwxO4ZYg4,,Healthy Tails Animal Hospital,24.7924904,67.0665906,OPERATIONAL,"pet_store, veterinary_care, point_of_interest, store, doctor, health, establishment",#N/A,,,DISCOUNT MEDICAL STORE,2777,191-4236
ChIJCXACtpY9sz4RlBJpkt3mWIk,,Dr Rehman Siddiqui- South City & Aga Khan Hospital Eye Surgeon,24.7888005,67.0757696,OPERATIONAL,"point_of_interest, doctor, health, establishment",#N/A,,,MOHMMADI MEDICAL STORE,2778,191-10721
ChIJAeET5NU9sz4RGq7KkFGtX8o,,Junaid Chiropractor Care (shifted to Gulshan block 1),24.7912148,67.075106,OPERATIONAL,"physiotherapist, point_of_interest, doctor, health, establishment",#N/A,,,HAYAT-E-NOU HOSPITAL,2779,191-11396
ChIJrf2ovxM9sz4RYYHaHsGGvNg,,Dr Rabb Derma Beauty & Weight loss Clinic,24.7989909,67.0702103,OPERATIONAL,"doctor, health, point_of_interest, establishment",#N/A,,,GHOUSIA MEDICAL STORE,2780,191-722
ChIJnQkf-Lw9sz4RQgGhFzA4PkY,,Park View Clinic,24.7995543,67.0694471,OPERATIONAL,"doctor, health, point_of_interest, establishment",#N/A,,,NOORANI MEDICAL STORE,2781,191-4377
ChIJKSqyptc9sz4RahLHu71KHng,,Tummy Tuck Surgery In Pakistan,24.808321,67.0688722,OPERATIONAL,"point_of_interest, doctor, health, establishment",#N/A,,,PRINCE MEDICOS,2782,191-1233
ChIJJeXcTVg9sz4RWL0X1tsetZ0,,Z.E. EYE HOSPITAL,24.8006334,67.0750801,OPERATIONAL,"point_of_interest, doctor, health, establishment",#N/A,,,AL-FATAH ALIF PHARMACY SUPER M,2783,191-4740
ChIJFWrMDOE9sz4RYrTH1Ig9Ums,,Innovative Aesthetics,24.809801,67.0697031,OPERATIONAL,"point_of_interest, doctor, health, establishment",#N/A,,,TAJ MEDICAL STORE,2784,191-4224
ChIJDUOA50Q9sz4RPG2T0VxJOLU,,Dar ul Shifa Medical and dental center,24.8138447,67.070637,OPERATIONAL,"doctor, point_of_interest, health, establishment",#N/A,,,LP MART & PHARMACY,2785,191-13142
ChIJ5yRIdz09sz4RA_fEW_-yWbM,,One Smile Dental Studio - Dr Safa Khan,24.8147678,67.0704352,OPERATIONAL,"dentist, point_of_interest, doctor, health, establishment",#N/A,,,ZAM ZAM MEDICAL STORE,2786,191-4264
ChIJZa4PRPQ9sz4RlGd_47W3HuI,,Dr. Amer & Associates,24.815153,67.0701056,OPERATIONAL,"dentist, point_of_interest, doctor, health, establishment",#N/A,,,D- MART,2787,191-2372
ChIJtypKPzY9sz4RhjXxT5qQYPI,,SKA,24.817069,67.0718763,OPERATIONAL,"doctor, point_of_interest, health, establishment",#N/A,,,ZEESHAN M/S,2788,191-6377
ChIJsTEF8Vw8sz4RimIl_r7Ix38,,Medi-Aid Clinic,24.8197479,67.066307,OPERATIONAL,"point_of_interest, doctor, health, establishment",#N/A,,,NEW SHERSHAH MEDICAL AND GENER,2789,191-3758
ChIJl1TwbKo9sz4RLmscqe8Ptag,,Siddiquan health and education society (SHES),24.8127573,67.0776493,CLOSED_TEMPORARILY,"doctor, point_of_interest, health, establishment",#N/A,,,INSAF MEDICAL STORE,2790,191-6522
ChIJx-wPMdM9sz4R00GfDOrhajU,,ASTRO PHYSIOCARE DHA,24.8294761,67.0661436,OPERATIONAL,"physiotherapist, point_of_interest, doctor, health, establishment",#N/A,,,MADINA MEDICAL STORE,2791,191-7117
ChIJ00MWrmo9sz4Rjk9lS86-q38,,Dentoscope Dental clinic,24.829474,67.0702492,OPERATIONAL,"dentist, point_of_interest, doctor, health, establishment",#N/A,,,AGHA M/S,2792,191-406
ChIJdStmeQE9sz4R4eAF8TGPAqI,,Sunset Dental Clinic | Specialized Dentistry Personalized Care | Best and Reliable Dentist in Karachi,24.830631,67.0672001,OPERATIONAL,"dentist, point_of_interest, doctor, health, establishment",#N/A,,,NEW WAY  SUPER STORE,2793,191-7092
ChIJU7lRxeI9sz4RD-bAT5vyCUs,,Iman beauty and aesthetics clinic,24.82963,67.0714616,OPERATIONAL,"point_of_interest, doctor, health, establishment",#N/A,,,AMIR MEDICAL STORE,2794,191-10241
ChIJoWfBZOk9sz4R-p5VVlL7z0g,,Taskeen Health Initiative,24.8298706,67.0712434,OPERATIONAL,"point_of_interest, doctor, health, establishment",#N/A,,,RAJPUT MEDICAL STORE,2795,191-1228
ChIJ-y_Fb0A8sz4RgqfL8cQI3JI,,Noor Sex Clinic,24.8316326,67.0671904,CLOSED_TEMPORARILY,"doctor, point_of_interest, health, establishment",#N/A,,,YAQOOB SONS.,2796,191-6414
ChIJSXGcOWo8sz4RXmWguwP7CLY,,Defence Poly Clinic,24.8296859,67.0723396,OPERATIONAL,"point_of_interest, doctor, health, store, establishment",#N/A,,,EBAD ENTERPRISES,2797,191-7339
ChIJk1nyBZ89sz4REQhUudFR90Q,,Neuro Rehab Center,24.8320873,67.0656694,OPERATIONAL,"point_of_interest, doctor, health, establishment",#N/A,,,MADINA MEDICAL AND GENERAL STO,2798,191-13643
ChIJWY5n6bM9sz4RwesgPymbGR4,,Al-noor Skin Care Clinic,24.8332906,67.0666573,OPERATIONAL,"point_of_interest, doctor, health, establishment",#N/A,,,DR. FAREEDA KHALID.,2799,191-10841
ChIJq9Cu-4Q9sz4RLdF0aWoMyV4,,Physiotherapy Experts,24.8319375,67.0681629,OPERATIONAL,"point_of_interest, doctor, health, establishment",#N/A,,,M.I PHARMACY,2800,191-12585
ChIJp-DKlbU9sz4RxE31i7ViW8M,,Sunset Boulevard Dental Practice,24.8336353,67.066682,OPERATIONAL,"dentist, point_of_interest, doctor, health, establishment",#N/A,,,JUMBO SUPER STORE.,2801,191-9648
ChIJVVVVFUA8sz4RwKzVNCjnmyo,,SURGEON MAHMOOD HAIDER,24.8322175,67.0688058,OPERATIONAL,"point_of_interest, doctor, health, establishment",#N/A,,,JAMAL NOOR HOSPITAL PHARMACY.,2802,191-3627
ChIJXX7g3B09sz4ROKdJRO2lkjw,,Dr Syeda Mahanum Ali - Dermatology & Aesthetics,24.8324626,67.0697405,OPERATIONAL,"point_of_interest, doctor, health, establishment",#N/A,,,B CARE MEDICAL STORE,2803,191-8235
ChIJfX0QOUU9sz4R1bwT8fsSZi0,,Eastern Cinic (Licensed / Registered Herbal Physician),24.8324204,67.070555,OPERATIONAL,"doctor, point_of_interest, health, establishment",#N/A,,,BARRY CHEMIST,2804,191-9602
ChIJ5-Iajj89sz4RjR4Bpl5RxB4,,The Mitigator,24.8324129,67.0705595,OPERATIONAL,"doctor, point_of_interest, health, establishment",#N/A,,,FEDREL CLINIC PHARMACY.,2805,191-4611
ChIJ7_a6-O49sz4RoZIhmVGk6C8,,Jinan Herbs,24.8324271,67.0705977,OPERATIONAL,"doctor, point_of_interest, health, establishment",#N/A,,,LIFE CARE PHARMACY,2806,191-1521
ChIJN6iJFBE9sz4RvgYHD1by9vM,,Homeo Care,24.8340782,67.0698996,OPERATIONAL,"doctor, point_of_interest, health, establishment",#N/A,,,AL-SHIFA M/S,2807,191-1216
ChIJYwL2I8o-sz4R0S8KvJLOCm8,,Dr NAIM HABIB,24.7846058,67.0839055,OPERATIONAL,"doctor, health, point_of_interest, establishment",#N/A,,,HABIB MEDICAL STORE,2808,191-10829
ChIJWdCesy89sz4R6rI-4rFRSqo,,Al murtaza dental surgery,24.7875358,67.0824207,OPERATIONAL,"doctor, health, point_of_interest, establishment",#N/A,,,MASHAALLAH MEDICAL STORE,2809,191-2005
ChIJ4zB2jt09sz4RE2Cp1YnwiP8,,Park View Clinic,24.8024941,67.0752173,OPERATIONAL,"point_of_interest, doctor, health, establishment",#N/A,,,DR. UMER FAROOQUE,2810,191-5316
ChIJt8yKYVo9sz4RLvrMVk6R0OQ,,Hafiz Sajjad Marham Patti wala,24.8236936,67.0833214,OPERATIONAL,"doctor, point_of_interest, health, establishment",#N/A,,,LALA PHARMACY,2811,191-12759
ChIJhx27zGs8sz4RyqG6IEKvG-0,,Naveed Clinic,24.8297957,67.0733205,OPERATIONAL,"doctor, point_of_interest, health, establishment",3935,,,HAFIZ MEDICAL STORE,2812,191-13840
ChIJw9r1Mos9sz4RvNvCeBo6BC8,,BioFlex Aesthetics,24.8304429,67.0748114,OPERATIONAL,"point_of_interest, doctor, health, establishment",#N/A,,,MASHA ALLAH MEDICOS,2813,191-2644
ChIJg1uOVSQ9sz4RQO1WsCdrKJQ,,Gulf Dental & Aesthetics DHA Branch - Teeth Whitening - Scaling and Polishing - Best Dental Clinic in Karachi,24.8306341,67.0749396,OPERATIONAL,"dentist, point_of_interest, doctor, health, establishment",#N/A,,,THE HOSPITAL PHARMACY,2814,191-13970
ChIJJffeaNQ9sz4RYsKqJoMY5wc,,Latifa Mumtaz consultant clinic,24.8306621,67.0754479,OPERATIONAL,"doctor, point_of_interest, health, establishment",#N/A,,,HEALTH VIBES PHARMACY,2815,191-13591
ChIJlagZR4A9sz4RDKj6T6J61uY,,ReflectionS Aesthetics,24.8309597,67.0753313,OPERATIONAL,"point_of_interest, doctor, health, establishment",#N/A,,,AL-GYLANI ENTERPRISES,2816,191-6412
ChIJ_5nmfwg9sz4RTbG7opsbl30,,Cpsp meeting office,24.8309958,67.0753635,OPERATIONAL,"doctor, health, point_of_interest, establishment",#N/A,,,PHARMA-D-LINKERS.,2817,191-10126
ChIJu5cWR3Y9sz4RHBwGzZU2ErY,,Renova Skin Institute,24.8320202,67.0745735,OPERATIONAL,"doctor, health, point_of_interest, establishment",#N/A,,,FAROOQ MEDICAL STORE,2818,191-3678
ChIJYdU0_no9sz4Ra4HxyrYDKyY,,Skinfluencer Karachi Aesthetic | Laser | Hair Transplant,24.8309064,67.0735781,OPERATIONAL,"doctor, health, point_of_interest, establishment",#N/A,,,AMBER MEDICAL STORE,2819,191-2694
ChIJ3VoRO4U9sz4RiDIzHDDqjdk,,Al-Faraz Astro Homeo Services Karachi,24.8326083,67.0732134,OPERATIONAL,"doctor, health, point_of_interest, establishment",#N/A,,,ZAHEER MEDICOS,2820,191-9073
ChIJawzzzkE9sz4RawoPZRy3WtQ,,HEALTH CARE CLINIC,24.8307126,67.0724892,OPERATIONAL,"doctor, health, point_of_interest, establishment",#N/A,,,FATIMA BAI TAI MEMORIAL HOSPIT,2821,191-8979
ChIJRyiHnY89sz4RHuj8owS__o0,,Khan Homeo Clinic,24.8329127,67.0732481,OPERATIONAL,"doctor, health, point_of_interest, establishment",#N/A,,,FAMILY MEDICAL CENTER PHARMACY,2822,191-942
ChIJfemv52o8sz4Rize2ObDOpb8,,OrthoMediSurg,24.8326431,67.0727121,OPERATIONAL,"physiotherapist, doctor, health, point_of_interest, establishment",#N/A,,,SUPER STAR STORE,2823,191-10175
ChIJPYevaCk9sz4R41l9XGGiowo,,Doctor Homoeopathic consultant Shakeel Ahmad,24.8333765,67.072226,OPERATIONAL,"doctor, health, point_of_interest, establishment",#N/A,,,GHOUSIA PHARMACY,2824,191-14204
ChIJcf6I0LEXsz4R4n2PzVAzb5E,,Swat pharmacy,24.821595,66.9843646,OPERATIONAL,"pharmacy, point_of_interest, store, health, establishment",#N/A,,,DRUG MART,2825,191-4885
ChIJibOXVxYWsz4RtSdUdgMtOTs,,Danish Medical Store,24.8224334,66.9831404,OPERATIONAL,"pharmacy, point_of_interest, store, health, establishment",2476,,,NEW MIDEAST MEDICOS,2826,191-8668
ChIJ8ftIckgXsz4R377CNg8VwXA,,SHAFI medical store,24.8229708,66.9885718,OPERATIONAL,"pharmacy, point_of_interest, store, health, establishment",3132,,,HASSAN MEDCIAL STORE AND GENER,2827,191-14232
ChIJ97sDEzIXsz4RnX_z8dRyb38,,Bilal medical store,24.823128,66.9793825,OPERATIONAL,"pharmacy, point_of_interest, store, health, establishment",2495,,,SALMAN MEDICAL STORE,2828,191-4273
ChIJi9dEtQ8Xsz4RAvP2gbbN5Lc,,Ali Medico,24.8234585,66.9790151,OPERATIONAL,"pharmacy, point_of_interest, store, health, establishment",3720,,,LIFE CARE HOSP.,2829,191-8953
ChIJR_eR3LMXsz4RxQFr8xQR4TA,,Humayun Medical & General Store,24.8236559,66.9790685,OPERATIONAL,"pharmacy, point_of_interest, store, health, establishment",#N/A,,,MASHALLAH MEDICAL STORE,2830,191-2067
ChIJvXtowyEWsz4Rc0_anpui44g,,Ali Medical & General Store,24.8203637,66.9950044,OPERATIONAL,"pharmacy, point_of_interest, store, health, establishment",#N/A,,,SYED MADICAL STORE,2831,191-4716
ChIJg42Wp2QXsz4RaidyxsDMe5s,,Akhtar Medical store,24.8187551,66.9976207,OPERATIONAL,"pharmacy, point_of_interest, store, health, establishment",2874,,,GULZAR M/S,2832,191-4838
ChIJiw1sR4M9sz4R7DiHP0xpqio,,Rehman medical store,24.8186942,66.9990099,OPERATIONAL,"pharmacy, point_of_interest, store, health, establishment",2703,,,KHAN MEDICAL STORE 2,2833,191-4350
ChIJB-xkjKUXsz4RTlNDXN1QhKQ,,H.m medical,24.8175364,66.9987359,OPERATIONAL,"pharmacy, point_of_interest, store, health, establishment",#N/A,,,NAHEED SUPERMARKET PHARMACY,2834,191-14299
ChIJ17RbtYo9sz4RuroG3IBMYBs,,Subhan Medical & General Store,24.8224347,67.0003201,OPERATIONAL,"pharmacy, point_of_interest, store, health, establishment",#N/A,,,IMRAN MEDICAL AND SUPER STORE,2835,191-998
ChIJq6Uc4fA9sz4R_QCVkLNL8ok,,Farooq medical store,24.8181031,67.0028503,OPERATIONAL,"pharmacy, point_of_interest, store, health, establishment",2818,,,GHOUSIA CLINIC,2836,191-14605
ChIJw_PYfEs9sz4RXzq2ImE9EKQ,,DVAGO Pharmacy & Wellness Experts,24.8151022,67.0025273,OPERATIONAL,"pharmacy, point_of_interest, store, health, establishment",#N/A,,,KHAN MEDICAL STORE.,2837,191-6960
ChIJqypG51Y9sz4RCoTVAXj-UZI,,Hussain Farooq dawakhana,24.8189534,67.004327,OPERATIONAL,"pharmacy, point_of_interest, store, health, establishment",#N/A,,,ASSAD MEDICAL STORE,2838,191-9585
ChIJ8bd0_os9sz4RTpQH2Sqp54c,,Adnan Medical Store,24.8176722,67.0042366,OPERATIONAL,"pharmacy, point_of_interest, store, health, establishment",2559,,,FARHAN MEDICAL STORE,2839,191-6446
ChIJhSNKC4w9sz4RJIDKPmfPBO4,,Salman Medical Store,24.8190905,67.0051291,OPERATIONAL,"pharmacy, point_of_interest, store, health, establishment",2828,,,HAJI DAWOOD MEDICAL STORE,2840,191-8949
ChIJlefdlYw9sz4REa2FK62dp2k,,Yaseen Medical Store,24.8219562,67.0059009,OPERATIONAL,"pharmacy, point_of_interest, store, health, establishment",3492,,,CLIFTON MEDICAL STORE,2841,191-967
ChIJx_YgqqA9sz4R7O9LwNXI_pM,,AKUH pharmacy,24.8131609,67.0143934,OPERATIONAL,"pharmacy, health, point_of_interest, store, establishment",#N/A,,,ANAYA CLINIC,2842,191-14019
ChIJdwppwKM9sz4RDfPCHAujV60,,New Iqra medicos,24.8122939,67.0167965,OPERATIONAL,"pharmacy, health, point_of_interest, store, establishment",#N/A,,,BISMILLAH MEDICAL STORE,2843,191-6238
ChIJ-2vCn5k9sz4RNu6XoP4UJPg,,Medicine Bank Pharmacy,24.8118515,67.0179009,OPERATIONAL,"pharmacy, health, point_of_interest, store, establishment",#N/A,,,PARADISE COMMERCIAL CORPORATIO,2844,191-10690
ChIJ4zvGasI9sz4RDbgc1nFGX8o,,DVAGO Pharmacy & Wellness Experts,24.8116788,67.0179327,OPERATIONAL,"pharmacy, health, point_of_interest, store, establishment",#N/A,,,ZAIN MEDICOS,2845,191-4601
ChIJg6gpMAA9sz4RAHo0yH59od4,,Mir Pharmacy,24.8115559,67.017935,OPERATIONAL,"pharmacy, health, point_of_interest, store, establishment",2899,,,S. RIAZ UDDIN AND CO,2846,191-313
ChIJ1xtJcwY9sz4R5Y-7P8_a3Mg,,Stop n Shop Pharmacy,24.8115244,67.0180115,OPERATIONAL,"pharmacy, health, point_of_interest, store, establishment",#N/A,,,PAK MEDICO.,2847,191-7636
ChIJDW78n5k9sz4RZtohQrQvZ_g,,Clifton Medico Pharmacy,24.8114038,67.0181832,OPERATIONAL,"pharmacy, health, point_of_interest, store, establishment",#N/A,,,ESSANI M/S,2848,191-1932
ChIJfV8ynok9sz4Rh49DYaUfotw,,Lucky Star Surgicals,24.8114119,67.0182885,OPERATIONAL,"pharmacy, health, point_of_interest, store, establishment",#N/A,,,DR. AZEEM EJAZ,2849,191-7346
ChIJ7f1Ve9I9sz4RpUzKLR-I9tE,,H.D.HOUSE,24.8148459,67.0211305,OPERATIONAL,"pharmacy, health, point_of_interest, store, establishment",#N/A,,,DANISH M/S,2850,191-8079
ChIJFyDNM6A9sz4ResThN2VX1EY,,The Chemist Pharmacy,24.8156384,67.0216986,OPERATIONAL,"pharmacy, health, point_of_interest, store, establishment",#N/A,,,WELLOCITY PHARMACY PVT LTD,2851,191-1044
ChIJ5UawSGY9sz4RpxqMz0appXM,,South City Pharmacy & Bulk Store,24.8155,67.0219312,OPERATIONAL,"pharmacy, health, point_of_interest, store, establishment",#N/A,,,AMMAR MEDICAL STORE,2852,191-9299
ChIJ3fcyC-g9sz4RXVjbwJWOy7Y,,Imtiaz Supermarket,24.8041736,67.0292686,OPERATIONAL,"department_store, pharmacy, health, point_of_interest, store, establishment",#N/A,,,AL-AMIN AGENCY,2853,191-523
ChIJ2y9fDU89sz4Rspu7Zs8-Jvs,,Park Lane Hospital Pharmacy,24.8168213,67.0313972,OPERATIONAL,"pharmacy, health, point_of_interest, store, establishment",#N/A,,,F.OM.G HOSPITAL PHARMACY,2854,191-10948
ChIJSxOMTFk9sz4R5KfsfLptsEE,,"Ehad Pharmacy & Medical Center, 26th Street DHA, Karachi",24.8090067,67.0341798,OPERATIONAL,"pharmacy, point_of_interest, store, health, establishment",#N/A,,,DR. PARDEEP KUMAR,2855,191-14626
ChIJw5LRNQ49sz4REBpuzl5DYoo,,REHMAN MEDICAL & GENERAL STORE,24.8112138,67.0344721,OPERATIONAL,"pharmacy, point_of_interest, store, health, establishment",3099,,,AHSAN KAMAL HOSP,2856,191-1454
ChIJm-zPQOM9sz4RPeOZrf5pJCI,,Buner medical store,24.8120157,67.0354759,OPERATIONAL,"pharmacy, point_of_interest, store, health, establishment",#N/A,,,KHARADAR MEDICAL & VACCINE CEN,2857,191-4276
ChIJqQ9bK48_sz4RWOMjsPDesqo,,Seema medica,24.8083236,67.0353092,OPERATIONAL,"pharmacy, point_of_interest, store, health, establishment",#N/A,,,ZEENAT  MEDICAL & GENERAL STOR,2858,191-776
ChIJ4ySwBAA9sz4R4bjBTr9pjqs,,Madina medical store,24.8138396,67.0354975,OPERATIONAL,"pharmacy, point_of_interest, store, health, establishment",2530,,,DR. SHOAIB SHAIKH,2859,191-5338
ChIJW-1UjuQ9sz4R2y4zI7grByA,,NEELAM pharma,24.8133436,67.0360472,OPERATIONAL,"pharmacy, point_of_interest, store, health, establishment",#N/A,,,ARSALAN MEDICAL STORE,2860,191-3637
ChIJD-GDRUE9sz4RGw0QAgnnqjQ,,Islamic shahed centre,24.8269442,67.0271121,OPERATIONAL,"pharmacy, point_of_interest, health, store, establishment",#N/A,,,ABUBAKAR MEDICAL STORE,2861,191-14237
ChIJcTI0zfU9sz4RLk4Pme3sa4A,,Karim Medical store,24.8263776,67.0311879,OPERATIONAL,"pharmacy, point_of_interest, health, store, establishment",#N/A,,,MODREN MEDICAL STORE,2862,191-9309
ChIJAXNcAAA9sz4R8Av5yH3syxc,,Noor Pharmacy,24.8305309,67.0243173,OPERATIONAL,"pharmacy, point_of_interest, health, store, establishment",3855,,,SATTARI MEDICAL STORE.,2863,191-53
ChIJ2VIKEbg9sz4RYBpmFHjVfyM,,Motaz Medical Store,24.8270284,67.0335343,OPERATIONAL,"pharmacy, point_of_interest, health, store, establishment",#N/A,,,KASHIF M/S,2864,191-8528
ChIJ6T4bCso9sz4RJQ6n6NetZ80,,"Clifton Center, Karachi - DVAGO Pharmacy & Wellness Experts",24.8271845,67.0338927,OPERATIONAL,"pharmacy, point_of_interest, health, store, establishment",#N/A,,,HEALTH CARE CENTRE,2865,191-7538
ChIJSwI_wcc9sz4RkfHuhqbrTk0,,MEDIBANK PHARMACY,24.8293669,67.0335833,OPERATIONAL,"pharmacy, point_of_interest, health, store, establishment",#N/A,,,ALIYA'S CLINIC,2866,191-7213
ChIJbxjmHCE9sz4RLKr2t-m9WA8,,Dr Asudani mobile vet clinic,24.8321853,67.0274194,OPERATIONAL,"pharmacy, veterinary_care, point_of_interest, health, store, establishment",#N/A,,,DOGER MEDICAL STORE,2867,191-1091
ChIJ6ZnlcMI9sz4RQcvAu-RapmY,,Shah Brother Medical Store,24.8337963,67.0231274,OPERATIONAL,"pharmacy, health, point_of_interest, store, establishment",#N/A,,,SAIF SATTARI MEDICAL STORE.,2868,191-1192
ChIJ3X4VwsU9sz4RW3c9B2dnslc,,Sindh Chemist,24.8344334,67.032958,OPERATIONAL,"pharmacy, health, point_of_interest, store, establishment",3404,,,AMNA DIAGNOSTIC CENTER,2869,191-1185
ChIJUdM7EwA9sz4RChHoVYjaQ_w,,Noor Pharmacy,24.8297209,67.0341586,OPERATIONAL,"pharmacy, health, point_of_interest, store, establishment",3855,,,AL-AKBER MEDICAL STORE,2870,191-3268
ChIJUfjmr549sz4R3ladgaDm4os,,CHRISM,24.8270443,67.0379754,OPERATIONAL,"pharmacy, clothing_store, health, point_of_interest, store, establishment",#N/A,,,QADRI M/S,2871,191-3969
ChIJV1qD08s9sz4RduUDBLwFec4,,NATIONAL CHEMIST,24.8321082,67.0409064,OPERATIONAL,"pharmacy, health, point_of_interest, store, establishment",3746,,,ASHBA MEDICAL STORE,2872,191-3106
ChIJlaA8Y1M8sz4Rwz-fKLO4_OM,,Ami’s Super Store DHA,24.8137734,67.0486571,OPERATIONAL,"supermarket, pharmacy, grocery_or_supermarket, home_goods_store, food, health, point_of_interest, store, establishment",#N/A,,,DR. JAVERIA,2873,191-5407
ChIJq6omUwc9sz4R5GfCqD3MfUw,,Haque medical store.,24.806125,67.0404319,OPERATIONAL,"pharmacy, health, point_of_interest, store, establishment",#N/A,,,AKHTAR MEDICAL STORE,2874,191-6137
ChIJV-B9NU09sz4RwC4ZPd4MxTM,,Dr. Rizwan Ahmed,24.7988059,67.0435134,CLOSED_TEMPORARILY,"drugstore, pharmacy, health, point_of_interest, store, establishment",#N/A,,,MADINA TRADERS,2875,191-9277
ChIJf8QYcjI9sz4R8DpBw2JBBuI,,Medi Life Pharmacy,24.8077122,67.0399605,OPERATIONAL,"pharmacy, health, point_of_interest, store, establishment",#N/A,,,HASHMI MEDICAL & GENERAL STORE,2876,191-8904
ChIJmeMrnqc9sz4RvUOFE-svPDU,,Javed Memon,24.8091552,67.0364065,OPERATIONAL,"pharmacy, health, point_of_interest, store, establishment",#N/A,,,A.Q.MEDICAL and MINI MART,2877,191-10795
ChIJ_6ldHJM9sz4RaAqW16cYx8k,,Get Well Pharmacy,24.8090373,67.0376555,OPERATIONAL,"pharmacy, health, point_of_interest, store, establishment",2765,,,MADINA MEDICAL STORE .TANVIR,2878,191-3993
ChIJMxez_F09sz4RCIWBXcLxB_o,,New kmaal pharmecy,24.7973996,67.0440321,OPERATIONAL,"pharmacy, health, point_of_interest, store, establishment",#N/A,,,AL- MUBARAK MEDICOS,2879,191-14223
ChIJGc_-8uM9sz4Rw8Kqwvhi5XY,,JP Medical & General Store,24.7970806,67.0440335,OPERATIONAL,"pharmacy, health, point_of_interest, store, establishment",#N/A,,,AJ MEDICAL STORE,2880,191-12102
ChIJYUipHak9sz4Rp_zR14uS42A,,Akhtar Homeo Clinic,24.810072,67.0374503,OPERATIONAL,"pharmacy, health, point_of_interest, store, establishment",#N/A,,,DR. FIRDOS,2881,191-6979
ChIJu3tGkQI9sz4Rfi9oDEk19gs,,Baba Fareed Mobile & Customer Service,24.7980343,67.0454138,OPERATIONAL,"pharmacy, health, point_of_interest, store, establishment",#N/A,,,ASIF MEDICAL STORE,2882,191-987
ChIJn68YkQI9sz4RhYNzXin_ahQ,,Medi Plus Pharmacy,24.798069,67.0454294,OPERATIONAL,"pharmacy, health, point_of_interest, store, establishment",#N/A,,,LYARI MEDICAL STORE.,2883,191-4304
ChIJRY_AWI49sz4RxWZZm_mrZv4,,Medicare,24.7987216,67.0456492,OPERATIONAL,"drugstore, pharmacy, health, point_of_interest, store, establishment",#N/A,,,NICE SUPER MARKET AND PHARMACY,2884,191-1717
ChIJKz5pkAI9sz4RxeYaadeN4CQ,,Well Care Pharmacy & Homoeopathic Store,24.7981291,67.0454677,OPERATIONAL,"pharmacy, health, point_of_interest, store, establishment",#N/A,,,AL-WAHAB MEDICAL AND GENERAL S,2885,191-4493
ChIJwSgjyAI9sz4RlK0oDsc-m7E,,Hiba Polyclinic + Pharmacy,24.7967589,67.0449182,OPERATIONAL,"pharmacy, health, point_of_interest, store, establishment",#N/A,,,ABBASI MEDICOS,2886,191-13594
ChIJWdaECwI9sz4Rydi8qkaUxsU,,Aziz Medical Store,24.8006895,67.0460635,OPERATIONAL,"pharmacy, health, point_of_interest, store, establishment",2425,,,KHURESHEED M/S,2887,191-12048
ChIJ_4cEvKQ9sz4Ru6duIySOdxI,,Madina Medical & General Store,24.8143943,67.0365246,OPERATIONAL,"pharmacy, health, point_of_interest, store, establishment",2921,,,ZAFAR MEDICAL STORE,2888,191-3288
ChIJT1Uxp689sz4R7GWV16pSCLg,,Usman Medical Store,24.8145559,67.0365084,OPERATIONAL,"pharmacy, health, point_of_interest, store, establishment",#N/A,,,TIME MEDICAL STORE,2889,191-1593
ChIJOZPE_609sz4R6-ehHK6fngU,,Bone A Patite,24.817742,67.0405195,OPERATIONAL,"pharmacy, health, point_of_interest, store, establishment",#N/A,,,DR. SHARIF,2890,191-4102
ChIJjQAs8rE9sz4Ra9be2YTItYw,,Yasin Sound & Cycle Works,24.8188178,67.0399208,OPERATIONAL,"pharmacy, health, point_of_interest, store, establishment",#N/A,,,MAYMAR TIME MEDICAL STORE,2891,191-6248
ChIJUy6Qr7U9sz4RGj7YYgyDg9M,,Kausar Medico (Gizri),24.8267471,67.0431761,OPERATIONAL,"pharmacy, health, store, point_of_interest, establishment",#N/A,,,NUSRAT MEDICAL STORE.,2892,191-3534
ChIJhTZhjbM9sz4RIMuhXLO-LJw,,Amir Medicos & General Items,24.8230546,67.0420797,OPERATIONAL,"pharmacy, health, store, point_of_interest, establishment",#N/A,,,BANARAS NATIONAL HOSPITAL,2893,191-10738
ChIJMdBn7wU9sz4RnTsfdwEx4Rk,,Khan Sahab,24.8197155,67.0439277,OPERATIONAL,"pharmacy, health, store, point_of_interest, establishment",#N/A,,,A.K TRADERS,2894,191-13689
ChIJy_l7-jM9sz4R_WjPe3LjXNc,,ABBASI MEDICOS & Clinics (GIZRI BRANCH) | Dow Lab Collection Point,24.8267179,67.0431885,OPERATIONAL,"pharmacy, health, store, point_of_interest, establishment",#N/A,,,MAARFANI MEDICAL STORE,2895,191-8229
ChIJ6YPhsLA9sz4Rl1IlXsjY9Z0,,Irfan Medicos (Pharmacy),24.8270015,67.0429961,OPERATIONAL,"pharmacy, health, store, point_of_interest, establishment",#N/A,,,SHAH MEDICOS,2896,191-2769
ChIJuwz4qv89sz4RIXcrfHfFbvw,,Al rehmat medical store,24.8321403,67.0409682,OPERATIONAL,"pharmacy, point_of_interest, store, health, establishment",#N/A,,,DUA MEDICO,2897,191-2560
ChIJzcKH0ss9sz4RGNpP9fEQ5J8,,Bismillah Medical Store,24.8321212,67.0412028,OPERATIONAL,"pharmacy, point_of_interest, store, health, establishment",2687,,,M.M MEDICAL STORE,2898,191-14550
